header: 
  seq: 1
  stamp: 
    secs: 1740539797
    nsecs:  31544208
  frame_id: ''
joint_names: 
  - joint_1
  - joint_2
  - joint_3
  - joint_4
  - joint_5
  - joint_6
  - tcp_lin
  - tcp_rot
points: 
  - 
    positions: [0.0, 0.0, -1.5707963267948966, 0.0, 0.0, 0.0]
    velocities: []
    accelerations: []
    effort: []
    time_from_start: 
      secs: 5
      nsecs:         0
---
header: 
  seq: 2
  stamp: 
    secs: 1740539808
    nsecs: 883172750
  frame_id: ''
joint_names: 
  - joint_1
  - joint_2
  - joint_3
  - joint_4
  - joint_5
  - joint_6
  - tcp_lin
  - tcp_rot
points: 
  - 
    positions: [0.024, 0.0, -1.5707963267948966, 0.0, 0.0, 0.0, 0.1, 0.1]
    velocities: []
    accelerations: []
    effort: []
    time_from_start: 
      secs: 0
      nsecs: 240000000
---
header: 
  seq: 3
  stamp: 
    secs: 1740539809
    nsecs:  83419084
  frame_id: ''
joint_names: 
  - joint_1
  - joint_2
  - joint_3
  - joint_4
  - joint_5
  - joint_6
  - tcp_lin
  - tcp_rot
points: 
  - 
    positions: [0.047999999999999994, 0.0, -1.5707963267948966, 0.0, 0.0, 0.0, 0.1, 0.1]
    velocities: []
    accelerations: []
    effort: []
    time_from_start: 
      secs: 0
      nsecs: 240000000
---
header: 
  seq: 4
  stamp: 
    secs: 1740539809
    nsecs: 284305334
  frame_id: ''
joint_names: 
  - joint_1
  - joint_2
  - joint_3
  - joint_4
  - joint_5
  - joint_6
  - tcp_lin
  - tcp_rot
points: 
  - 
    positions: [0.072, 0.0, -1.5707963267948966, 0.0, 0.0, 0.0, 0.1, 0.1]
    velocities: []
    accelerations: []
    effort: []
    time_from_start: 
      secs: 0
      nsecs: 240000000
---
header: 
  seq: 5
  stamp: 
    secs: 1740539809
    nsecs: 483605384
  frame_id: ''
joint_names: 
  - joint_1
  - joint_2
  - joint_3
  - joint_4
  - joint_5
  - joint_6
  - tcp_lin
  - tcp_rot
points: 
  - 
    positions: [0.096, 0.0, -1.5707963267948966, 0.0, 0.0, 0.0, 0.1, 0.1]
    velocities: []
    accelerations: []
    effort: []
    time_from_start: 
      secs: 0
      nsecs: 240000000
---
header: 
  seq: 6
  stamp: 
    secs: 1740539809
    nsecs: 683363437
  frame_id: ''
joint_names: 
  - joint_1
  - joint_2
  - joint_3
  - joint_4
  - joint_5
  - joint_6
  - tcp_lin
  - tcp_rot
points: 
  - 
    positions: [0.12000000000000001, 0.0, -1.5707963267948966, 0.0, 0.0, 0.0, 0.1, 0.1]
    velocities: []
    accelerations: []
    effort: []
    time_from_start: 
      secs: 0
      nsecs: 240000000
---
header: 
  seq: 7
  stamp: 
    secs: 1740539809
    nsecs: 883968591
  frame_id: ''
joint_names: 
  - joint_1
  - joint_2
  - joint_3
  - joint_4
  - joint_5
  - joint_6
  - tcp_lin
  - tcp_rot
points: 
  - 
    positions: [0.14400000000000002, 0.0, -1.5707963267948966, 0.0, 0.0, 0.0, 0.1, 0.1]
    velocities: []
    accelerations: []
    effort: []
    time_from_start: 
      secs: 0
      nsecs: 240000000
---
header: 
  seq: 8
  stamp: 
    secs: 1740539810
    nsecs:  83736896
  frame_id: ''
joint_names: 
  - joint_1
  - joint_2
  - joint_3
  - joint_4
  - joint_5
  - joint_6
  - tcp_lin
  - tcp_rot
points: 
  - 
    positions: [0.168, 0.0, -1.5707963267948966, 0.0, 0.0, 0.0, 0.1, 0.1]
    velocities: []
    accelerations: []
    effort: []
    time_from_start: 
      secs: 0
      nsecs: 240000000
---
header: 
  seq: 9
  stamp: 
    secs: 1740539810
    nsecs: 283606052
  frame_id: ''
joint_names: 
  - joint_1
  - joint_2
  - joint_3
  - joint_4
  - joint_5
  - joint_6
  - tcp_lin
  - tcp_rot
points: 
  - 
    positions: [0.192, 0.0, -1.5707963267948966, 0.0, 0.0, 0.0, 0.1, 0.1]
    velocities: []
    accelerations: []
    effort: []
    time_from_start: 
      secs: 0
      nsecs: 240000000
---
header: 
  seq: 10
  stamp: 
    secs: 1740539810
    nsecs: 484564781
  frame_id: ''
joint_names: 
  - joint_1
  - joint_2
  - joint_3
  - joint_4
  - joint_5
  - joint_6
  - tcp_lin
  - tcp_rot
points: 
  - 
    positions: [0.216, 0.0, -1.5707963267948966, 0.0, 0.0, 0.0, 0.1, 0.1]
    velocities: []
    accelerations: []
    effort: []
    time_from_start: 
      secs: 0
      nsecs: 240000000
---
header: 
  seq: 11
  stamp: 
    secs: 1740539810
    nsecs: 683444976
  frame_id: ''
joint_names: 
  - joint_1
  - joint_2
  - joint_3
  - joint_4
  - joint_5
  - joint_6
  - tcp_lin
  - tcp_rot
points: 
  - 
    positions: [0.24, 0.0, -1.5707963267948966, 0.0, 0.0, 0.0, 0.1, 0.1]
    velocities: []
    accelerations: []
    effort: []
    time_from_start: 
      secs: 0
      nsecs: 240000000
---
header: 
  seq: 12
  stamp: 
    secs: 1740539810
    nsecs: 883536815
  frame_id: ''
joint_names: 
  - joint_1
  - joint_2
  - joint_3
  - joint_4
  - joint_5
  - joint_6
  - tcp_lin
  - tcp_rot
points: 
  - 
    positions: [0.264, 0.0, -1.5707963267948966, 0.0, 0.0, 0.0, 0.1, 0.1]
    velocities: []
    accelerations: []
    effort: []
    time_from_start: 
      secs: 0
      nsecs: 240000000
---
header: 
  seq: 13
  stamp: 
    secs: 1740539811
    nsecs:  84242343
  frame_id: ''
joint_names: 
  - joint_1
  - joint_2
  - joint_3
  - joint_4
  - joint_5
  - joint_6
  - tcp_lin
  - tcp_rot
points: 
  - 
    positions: [0.28800000000000003, 0.0, -1.5707963267948966, 0.0, 0.0, 0.0, 0.1, 0.1]
    velocities: []
    accelerations: []
    effort: []
    time_from_start: 
      secs: 0
      nsecs: 240000000
---
header: 
  seq: 14
  stamp: 
    secs: 1740539811
    nsecs: 283570289
  frame_id: ''
joint_names: 
  - joint_1
  - joint_2
  - joint_3
  - joint_4
  - joint_5
  - joint_6
  - tcp_lin
  - tcp_rot
points: 
  - 
    positions: [0.31200000000000006, 0.0, -1.5707963267948966, 0.0, 0.0, 0.0, 0.1, 0.1]
    velocities: []
    accelerations: []
    effort: []
    time_from_start: 
      secs: 0
      nsecs: 240000000
---
header: 
  seq: 15
  stamp: 
    secs: 1740539811
    nsecs: 483364343
  frame_id: ''
joint_names: 
  - joint_1
  - joint_2
  - joint_3
  - joint_4
  - joint_5
  - joint_6
  - tcp_lin
  - tcp_rot
points: 
  - 
    positions: [0.3360000000000001, 0.0, -1.5707963267948966, 0.0, 0.0, 0.0, 0.1, 0.1]
    velocities: []
    accelerations: []
    effort: []
    time_from_start: 
      secs: 0
      nsecs: 240000000
---
header: 
  seq: 16
  stamp: 
    secs: 1740539811
    nsecs: 684072017
  frame_id: ''
joint_names: 
  - joint_1
  - joint_2
  - joint_3
  - joint_4
  - joint_5
  - joint_6
  - tcp_lin
  - tcp_rot
points: 
  - 
    positions: [0.31200000000000006, 0.0, -1.5707963267948966, 0.0, 0.0, 0.0, 0.1, 0.1]
    velocities: []
    accelerations: []
    effort: []
    time_from_start: 
      secs: 0
      nsecs: 240000000
---
header: 
  seq: 17
  stamp: 
    secs: 1740539811
    nsecs: 883472442
  frame_id: ''
joint_names: 
  - joint_1
  - joint_2
  - joint_3
  - joint_4
  - joint_5
  - joint_6
  - tcp_lin
  - tcp_rot
points: 
  - 
    positions: [0.28800000000000003, 0.0, -1.5707963267948966, 0.0, 0.0, 0.0, 0.1, 0.1]
    velocities: []
    accelerations: []
    effort: []
    time_from_start: 
      secs: 0
      nsecs: 240000000
---
header: 
  seq: 18
  stamp: 
    secs: 1740539812
    nsecs:  83258152
  frame_id: ''
joint_names: 
  - joint_1
  - joint_2
  - joint_3
  - joint_4
  - joint_5
  - joint_6
  - tcp_lin
  - tcp_rot
points: 
  - 
    positions: [0.264, 0.0, -1.5707963267948966, 0.0, 0.0, 0.0, 0.1, 0.1]
    velocities: []
    accelerations: []
    effort: []
    time_from_start: 
      secs: 0
      nsecs: 240000000
---
header: 
  seq: 19
  stamp: 
    secs: 1740539812
    nsecs: 283223867
  frame_id: ''
joint_names: 
  - joint_1
  - joint_2
  - joint_3
  - joint_4
  - joint_5
  - joint_6
  - tcp_lin
  - tcp_rot
points: 
  - 
    positions: [0.24000000000000002, 0.0, -1.5707963267948966, 0.0, 0.0, 0.0, 0.1, 0.1]
    velocities: []
    accelerations: []
    effort: []
    time_from_start: 
      secs: 0
      nsecs: 240000000
---
header: 
  seq: 20
  stamp: 
    secs: 1740539812
    nsecs: 483392715
  frame_id: ''
joint_names: 
  - joint_1
  - joint_2
  - joint_3
  - joint_4
  - joint_5
  - joint_6
  - tcp_lin
  - tcp_rot
points: 
  - 
    positions: [0.21600000000000003, 0.0, -1.5707963267948966, 0.0, 0.0, 0.0, 0.1, 0.1]
    velocities: []
    accelerations: []
    effort: []
    time_from_start: 
      secs: 0
      nsecs: 240000000
---
header: 
  seq: 21
  stamp: 
    secs: 1740539812
    nsecs: 683449506
  frame_id: ''
joint_names: 
  - joint_1
  - joint_2
  - joint_3
  - joint_4
  - joint_5
  - joint_6
  - tcp_lin
  - tcp_rot
points: 
  - 
    positions: [0.19200000000000003, 0.0, -1.5707963267948966, 0.0, 0.0, 0.0, 0.1, 0.1]
    velocities: []
    accelerations: []
    effort: []
    time_from_start: 
      secs: 0
      nsecs: 240000000
---
header: 
  seq: 22
  stamp: 
    secs: 1740539812
    nsecs: 884128093
  frame_id: ''
joint_names: 
  - joint_1
  - joint_2
  - joint_3
  - joint_4
  - joint_5
  - joint_6
  - tcp_lin
  - tcp_rot
points: 
  - 
    positions: [0.16800000000000004, 0.0, -1.5707963267948966, 0.0, 0.0, 0.0, 0.1, 0.1]
    velocities: []
    accelerations: []
    effort: []
    time_from_start: 
      secs: 0
      nsecs: 240000000
---
header: 
  seq: 23
  stamp: 
    secs: 1740539813
    nsecs:  83471536
  frame_id: ''
joint_names: 
  - joint_1
  - joint_2
  - joint_3
  - joint_4
  - joint_5
  - joint_6
  - tcp_lin
  - tcp_rot
points: 
  - 
    positions: [0.14400000000000004, 0.0, -1.5707963267948966, 0.0, 0.0, 0.0, 0.1, 0.1]
    velocities: []
    accelerations: []
    effort: []
    time_from_start: 
      secs: 0
      nsecs: 240000000
---
header: 
  seq: 24
  stamp: 
    secs: 1740539813
    nsecs: 283483505
  frame_id: ''
joint_names: 
  - joint_1
  - joint_2
  - joint_3
  - joint_4
  - joint_5
  - joint_6
  - tcp_lin
  - tcp_rot
points: 
  - 
    positions: [0.12000000000000004, 0.0, -1.5707963267948966, 0.0, 0.0, 0.0, 0.1, 0.1]
    velocities: []
    accelerations: []
    effort: []
    time_from_start: 
      secs: 0
      nsecs: 240000000
---
header: 
  seq: 25
  stamp: 
    secs: 1740539813
    nsecs: 484447002
  frame_id: ''
joint_names: 
  - joint_1
  - joint_2
  - joint_3
  - joint_4
  - joint_5
  - joint_6
  - tcp_lin
  - tcp_rot
points: 
  - 
    positions: [0.09600000000000003, 0.0, -1.5707963267948966, 0.0, 0.0, 0.0, 0.1, 0.1]
    velocities: []
    accelerations: []
    effort: []
    time_from_start: 
      secs: 0
      nsecs: 240000000
---
header: 
  seq: 26
  stamp: 
    secs: 1740539813
    nsecs: 683477878
  frame_id: ''
joint_names: 
  - joint_1
  - joint_2
  - joint_3
  - joint_4
  - joint_5
  - joint_6
  - tcp_lin
  - tcp_rot
points: 
  - 
    positions: [0.07200000000000002, 0.0, -1.5707963267948966, 0.0, 0.0, 0.0, 0.1, 0.1]
    velocities: []
    accelerations: []
    effort: []
    time_from_start: 
      secs: 0
      nsecs: 240000000
---
header: 
  seq: 27
  stamp: 
    secs: 1740539813
    nsecs: 883361577
  frame_id: ''
joint_names: 
  - joint_1
  - joint_2
  - joint_3
  - joint_4
  - joint_5
  - joint_6
  - tcp_lin
  - tcp_rot
points: 
  - 
    positions: [0.048000000000000015, 0.0, -1.5707963267948966, 0.0, 0.0, 0.0, 0.1, 0.1]
    velocities: []
    accelerations: []
    effort: []
    time_from_start: 
      secs: 0
      nsecs: 240000000
---
header: 
  seq: 28
  stamp: 
    secs: 1740539814
    nsecs:  84139108
  frame_id: ''
joint_names: 
  - joint_1
  - joint_2
  - joint_3
  - joint_4
  - joint_5
  - joint_6
  - tcp_lin
  - tcp_rot
points: 
  - 
    positions: [0.024000000000000014, 0.0, -1.5707963267948966, 0.0, 0.0, 0.0, 0.1, 0.1]
    velocities: []
    accelerations: []
    effort: []
    time_from_start: 
      secs: 0
      nsecs: 240000000
---
header: 
  seq: 29
  stamp: 
    secs: 1740539814
    nsecs: 283543586
  frame_id: ''
joint_names: 
  - joint_1
  - joint_2
  - joint_3
  - joint_4
  - joint_5
  - joint_6
  - tcp_lin
  - tcp_rot
points: 
  - 
    positions: [1.474514954580286e-17, 0.0, -1.5707963267948966, 0.0, 0.0, 0.0, 0.1, 0.1]
    velocities: []
    accelerations: []
    effort: []
    time_from_start: 
      secs: 0
      nsecs: 240000000
---
header: 
  seq: 30
  stamp: 
    secs: 1740539814
    nsecs: 483268260
  frame_id: ''
joint_names: 
  - joint_1
  - joint_2
  - joint_3
  - joint_4
  - joint_5
  - joint_6
  - tcp_lin
  - tcp_rot
points: 
  - 
    positions: [-0.023999999999999987, 0.0, -1.5707963267948966, 0.0, 0.0, 0.0, 0.1, 0.1]
    velocities: []
    accelerations: []
    effort: []
    time_from_start: 
      secs: 0
      nsecs: 240000000
---
header: 
  seq: 31
  stamp: 
    secs: 1740539814
    nsecs: 685078620
  frame_id: ''
joint_names: 
  - joint_1
  - joint_2
  - joint_3
  - joint_4
  - joint_5
  - joint_6
  - tcp_lin
  - tcp_rot
points: 
  - 
    positions: [-0.04799999999999998, 0.0, -1.5707963267948966, 0.0, 0.0, 0.0, 0.1, 0.1]
    velocities: []
    accelerations: []
    effort: []
    time_from_start: 
      secs: 0
      nsecs: 240000000
---
header: 
  seq: 32
  stamp: 
    secs: 1740539814
    nsecs: 884168386
  frame_id: ''
joint_names: 
  - joint_1
  - joint_2
  - joint_3
  - joint_4
  - joint_5
  - joint_6
  - tcp_lin
  - tcp_rot
points: 
  - 
    positions: [-0.07199999999999998, 0.0, -1.5707963267948966, 0.0, 0.0, 0.0, 0.1, 0.1]
    velocities: []
    accelerations: []
    effort: []
    time_from_start: 
      secs: 0
      nsecs: 240000000
---
header: 
  seq: 33
  stamp: 
    secs: 1740539815
    nsecs:  83683490
  frame_id: ''
joint_names: 
  - joint_1
  - joint_2
  - joint_3
  - joint_4
  - joint_5
  - joint_6
  - tcp_lin
  - tcp_rot
points: 
  - 
    positions: [-0.09599999999999999, 0.0, -1.5707963267948966, 0.0, 0.0, 0.0, 0.1, 0.1]
    velocities: []
    accelerations: []
    effort: []
    time_from_start: 
      secs: 0
      nsecs: 240000000
---
header: 
  seq: 34
  stamp: 
    secs: 1740539815
    nsecs: 284039974
  frame_id: ''
joint_names: 
  - joint_1
  - joint_2
  - joint_3
  - joint_4
  - joint_5
  - joint_6
  - tcp_lin
  - tcp_rot
points: 
  - 
    positions: [-0.12, 0.0, -1.5707963267948966, 0.0, 0.0, 0.0, 0.1, 0.1]
    velocities: []
    accelerations: []
    effort: []
    time_from_start: 
      secs: 0
      nsecs: 240000000
---
header: 
  seq: 35
  stamp: 
    secs: 1740539815
    nsecs: 483416557
  frame_id: ''
joint_names: 
  - joint_1
  - joint_2
  - joint_3
  - joint_4
  - joint_5
  - joint_6
  - tcp_lin
  - tcp_rot
points: 
  - 
    positions: [-0.144, 0.0, -1.5707963267948966, 0.0, 0.0, 0.0, 0.1, 0.1]
    velocities: []
    accelerations: []
    effort: []
    time_from_start: 
      secs: 0
      nsecs: 240000000
---
header: 
  seq: 36
  stamp: 
    secs: 1740539815
    nsecs: 683522701
  frame_id: ''
joint_names: 
  - joint_1
  - joint_2
  - joint_3
  - joint_4
  - joint_5
  - joint_6
  - tcp_lin
  - tcp_rot
points: 
  - 
    positions: [-0.16799999999999998, 0.0, -1.5707963267948966, 0.0, 0.0, 0.0, 0.1, 0.1]
    velocities: []
    accelerations: []
    effort: []
    time_from_start: 
      secs: 0
      nsecs: 240000000
---
header: 
  seq: 37
  stamp: 
    secs: 1740539815
    nsecs: 884163379
  frame_id: ''
joint_names: 
  - joint_1
  - joint_2
  - joint_3
  - joint_4
  - joint_5
  - joint_6
  - tcp_lin
  - tcp_rot
points: 
  - 
    positions: [-0.19199999999999998, 0.0, -1.5707963267948966, 0.0, 0.0, 0.0, 0.1, 0.1]
    velocities: []
    accelerations: []
    effort: []
    time_from_start: 
      secs: 0
      nsecs: 240000000
---
header: 
  seq: 38
  stamp: 
    secs: 1740539816
    nsecs:  83558320
  frame_id: ''
joint_names: 
  - joint_1
  - joint_2
  - joint_3
  - joint_4
  - joint_5
  - joint_6
  - tcp_lin
  - tcp_rot
points: 
  - 
    positions: [-0.21599999999999997, 0.0, -1.5707963267948966, 0.0, 0.0, 0.0, 0.1, 0.1]
    velocities: []
    accelerations: []
    effort: []
    time_from_start: 
      secs: 0
      nsecs: 240000000
---
header: 
  seq: 39
  stamp: 
    secs: 1740539816
    nsecs: 283359527
  frame_id: ''
joint_names: 
  - joint_1
  - joint_2
  - joint_3
  - joint_4
  - joint_5
  - joint_6
  - tcp_lin
  - tcp_rot
points: 
  - 
    positions: [-0.23999999999999996, 0.0, -1.5707963267948966, 0.0, 0.0, 0.0, 0.1, 0.1]
    velocities: []
    accelerations: []
    effort: []
    time_from_start: 
      secs: 0
      nsecs: 240000000
---
header: 
  seq: 40
  stamp: 
    secs: 1740539816
    nsecs: 483919620
  frame_id: ''
joint_names: 
  - joint_1
  - joint_2
  - joint_3
  - joint_4
  - joint_5
  - joint_6
  - tcp_lin
  - tcp_rot
points: 
  - 
    positions: [-0.26399999999999996, 0.0, -1.5707963267948966, 0.0, 0.0, 0.0, 0.1, 0.1]
    velocities: []
    accelerations: []
    effort: []
    time_from_start: 
      secs: 0
      nsecs: 240000000
---
header: 
  seq: 41
  stamp: 
    secs: 1740539816
    nsecs: 683410167
  frame_id: ''
joint_names: 
  - joint_1
  - joint_2
  - joint_3
  - joint_4
  - joint_5
  - joint_6
  - tcp_lin
  - tcp_rot
points: 
  - 
    positions: [-0.288, 0.0, -1.5707963267948966, 0.0, 0.0, 0.0, 0.1, 0.1]
    velocities: []
    accelerations: []
    effort: []
    time_from_start: 
      secs: 0
      nsecs: 240000000
---
header: 
  seq: 42
  stamp: 
    secs: 1740539816
    nsecs: 883360624
  frame_id: ''
joint_names: 
  - joint_1
  - joint_2
  - joint_3
  - joint_4
  - joint_5
  - joint_6
  - tcp_lin
  - tcp_rot
points: 
  - 
    positions: [-0.312, 0.0, -1.5707963267948966, 0.0, 0.0, 0.0, 0.1, 0.1]
    velocities: []
    accelerations: []
    effort: []
    time_from_start: 
      secs: 0
      nsecs: 240000000
---
header: 
  seq: 43
  stamp: 
    secs: 1740539817
    nsecs:  83424091
  frame_id: ''
joint_names: 
  - joint_1
  - joint_2
  - joint_3
  - joint_4
  - joint_5
  - joint_6
  - tcp_lin
  - tcp_rot
points: 
  - 
    positions: [-0.336, 0.0, -1.5707963267948966, 0.0, 0.0, 0.0, 0.1, 0.1]
    velocities: []
    accelerations: []
    effort: []
    time_from_start: 
      secs: 0
      nsecs: 240000000
---
header: 
  seq: 44
  stamp: 
    secs: 1740539817
    nsecs: 283393383
  frame_id: ''
joint_names: 
  - joint_1
  - joint_2
  - joint_3
  - joint_4
  - joint_5
  - joint_6
  - tcp_lin
  - tcp_rot
points: 
  - 
    positions: [-0.312, 0.0, -1.5707963267948966, 0.0, 0.0, 0.0, 0.1, 0.1]
    velocities: []
    accelerations: []
    effort: []
    time_from_start: 
      secs: 0
      nsecs: 240000000
---
header: 
  seq: 45
  stamp: 
    secs: 1740539817
    nsecs: 483432531
  frame_id: ''
joint_names: 
  - joint_1
  - joint_2
  - joint_3
  - joint_4
  - joint_5
  - joint_6
  - tcp_lin
  - tcp_rot
points: 
  - 
    positions: [-0.288, 0.0, -1.5707963267948966, 0.0, 0.0, 0.0, 0.1, 0.1]
    velocities: []
    accelerations: []
    effort: []
    time_from_start: 
      secs: 0
      nsecs: 240000000
---
header: 
  seq: 46
  stamp: 
    secs: 1740539817
    nsecs: 684142112
  frame_id: ''
joint_names: 
  - joint_1
  - joint_2
  - joint_3
  - joint_4
  - joint_5
  - joint_6
  - tcp_lin
  - tcp_rot
points: 
  - 
    positions: [-0.26399999999999996, 0.0, -1.5707963267948966, 0.0, 0.0, 0.0, 0.1, 0.1]
    velocities: []
    accelerations: []
    effort: []
    time_from_start: 
      secs: 0
      nsecs: 240000000
---
header: 
  seq: 47
  stamp: 
    secs: 1740539817
    nsecs: 883428335
  frame_id: ''
joint_names: 
  - joint_1
  - joint_2
  - joint_3
  - joint_4
  - joint_5
  - joint_6
  - tcp_lin
  - tcp_rot
points: 
  - 
    positions: [-0.23999999999999996, 0.0, -1.5707963267948966, 0.0, 0.0, 0.0, 0.1, 0.1]
    velocities: []
    accelerations: []
    effort: []
    time_from_start: 
      secs: 0
      nsecs: 240000000
---
header: 
  seq: 48
  stamp: 
    secs: 1740539818
    nsecs:  83510637
  frame_id: ''
joint_names: 
  - joint_1
  - joint_2
  - joint_3
  - joint_4
  - joint_5
  - joint_6
  - tcp_lin
  - tcp_rot
points: 
  - 
    positions: [-0.21599999999999997, 0.0, -1.5707963267948966, 0.0, 0.0, 0.0, 0.1, 0.1]
    velocities: []
    accelerations: []
    effort: []
    time_from_start: 
      secs: 0
      nsecs: 240000000
---
header: 
  seq: 49
  stamp: 
    secs: 1740539818
    nsecs: 284695863
  frame_id: ''
joint_names: 
  - joint_1
  - joint_2
  - joint_3
  - joint_4
  - joint_5
  - joint_6
  - tcp_lin
  - tcp_rot
points: 
  - 
    positions: [-0.19199999999999998, 0.0, -1.5707963267948966, 0.0, 0.0, 0.0, 0.1, 0.1]
    velocities: []
    accelerations: []
    effort: []
    time_from_start: 
      secs: 0
      nsecs: 240000000
---
header: 
  seq: 50
  stamp: 
    secs: 1740539818
    nsecs: 483447551
  frame_id: ''
joint_names: 
  - joint_1
  - joint_2
  - joint_3
  - joint_4
  - joint_5
  - joint_6
  - tcp_lin
  - tcp_rot
points: 
  - 
    positions: [-0.16799999999999998, 0.0, -1.5707963267948966, 0.0, 0.0, 0.0, 0.1, 0.1]
    velocities: []
    accelerations: []
    effort: []
    time_from_start: 
      secs: 0
      nsecs: 240000000
---
header: 
  seq: 51
  stamp: 
    secs: 1740539818
    nsecs: 683363914
  frame_id: ''
joint_names: 
  - joint_1
  - joint_2
  - joint_3
  - joint_4
  - joint_5
  - joint_6
  - tcp_lin
  - tcp_rot
points: 
  - 
    positions: [-0.144, 0.0, -1.5707963267948966, 0.0, 0.0, 0.0, 0.1, 0.1]
    velocities: []
    accelerations: []
    effort: []
    time_from_start: 
      secs: 0
      nsecs: 240000000
---
header: 
  seq: 52
  stamp: 
    secs: 1740539818
    nsecs: 884501695
  frame_id: ''
joint_names: 
  - joint_1
  - joint_2
  - joint_3
  - joint_4
  - joint_5
  - joint_6
  - tcp_lin
  - tcp_rot
points: 
  - 
    positions: [-0.11999999999999998, 0.0, -1.5707963267948966, 0.0, 0.0, 0.0, 0.1, 0.1]
    velocities: []
    accelerations: []
    effort: []
    time_from_start: 
      secs: 0
      nsecs: 240000000
---
header: 
  seq: 53
  stamp: 
    secs: 1740539819
    nsecs:  83469867
  frame_id: ''
joint_names: 
  - joint_1
  - joint_2
  - joint_3
  - joint_4
  - joint_5
  - joint_6
  - tcp_lin
  - tcp_rot
points: 
  - 
    positions: [-0.09599999999999997, 0.0, -1.5707963267948966, 0.0, 0.0, 0.0, 0.1, 0.1]
    velocities: []
    accelerations: []
    effort: []
    time_from_start: 
      secs: 0
      nsecs: 240000000
---
header: 
  seq: 54
  stamp: 
    secs: 1740539819
    nsecs: 283409357
  frame_id: ''
joint_names: 
  - joint_1
  - joint_2
  - joint_3
  - joint_4
  - joint_5
  - joint_6
  - tcp_lin
  - tcp_rot
points: 
  - 
    positions: [-0.07199999999999997, 0.0, -1.5707963267948966, 0.0, 0.0, 0.0, 0.1, 0.1]
    velocities: []
    accelerations: []
    effort: []
    time_from_start: 
      secs: 0
      nsecs: 240000000
---
header: 
  seq: 55
  stamp: 
    secs: 1740539819
    nsecs: 483936548
  frame_id: ''
joint_names: 
  - joint_1
  - joint_2
  - joint_3
  - joint_4
  - joint_5
  - joint_6
  - tcp_lin
  - tcp_rot
points: 
  - 
    positions: [-0.04799999999999996, 0.0, -1.5707963267948966, 0.0, 0.0, 0.0, 0.1, 0.1]
    velocities: []
    accelerations: []
    effort: []
    time_from_start: 
      secs: 0
      nsecs: 240000000
---
header: 
  seq: 56
  stamp: 
    secs: 1740539819
    nsecs: 683747291
  frame_id: ''
joint_names: 
  - joint_1
  - joint_2
  - joint_3
  - joint_4
  - joint_5
  - joint_6
  - tcp_lin
  - tcp_rot
points: 
  - 
    positions: [-0.02399999999999996, 0.0, -1.5707963267948966, 0.0, 0.0, 0.0, 0.1, 0.1]
    velocities: []
    accelerations: []
    effort: []
    time_from_start: 
      secs: 0
      nsecs: 240000000
---
header: 
  seq: 57
  stamp: 
    secs: 1740539819
    nsecs: 883390188
  frame_id: ''
joint_names: 
  - joint_1
  - joint_2
  - joint_3
  - joint_4
  - joint_5
  - joint_6
  - tcp_lin
  - tcp_rot
points: 
  - 
    positions: [4.0766001685454967e-17, 0.0, -1.5707963267948966, 0.0, 0.0, 0.0, 0.1, 0.1]
    velocities: []
    accelerations: []
    effort: []
    time_from_start: 
      secs: 0
      nsecs: 240000000
---
header: 
  seq: 58
  stamp: 
    secs: 1740539820
    nsecs:  84233999
  frame_id: ''
joint_names: 
  - joint_1
  - joint_2
  - joint_3
  - joint_4
  - joint_5
  - joint_6
  - tcp_lin
  - tcp_rot
points: 
  - 
    positions: [0.0, 0.0, -1.5707963267948966, 0.0, 0.0, 0.0, 0.1, 0.1]
    velocities: []
    accelerations: []
    effort: []
    time_from_start: 
      secs: 0
      nsecs: 200000000
---
header: 
  seq: 60
  stamp: 
    secs: 1740539821
    nsecs:  87134122
  frame_id: ''
joint_names: 
  - joint_1
  - joint_2
  - joint_3
  - joint_4
  - joint_5
  - joint_6
  - tcp_lin
  - tcp_rot
points: 
  - 
    positions: [0.14400000000000002, 0.0, -1.5707963267948966, 0.0, 0.0, 0.0, 0.1, 0.1]
    velocities: []
    accelerations: []
    effort: []
    time_from_start: 
      secs: 0
      nsecs: 240000000
---
header: 
  seq: 61
  stamp: 
    secs: 1740539821
    nsecs: 287593841
  frame_id: ''
joint_names: 
  - joint_1
  - joint_2
  - joint_3
  - joint_4
  - joint_5
  - joint_6
  - tcp_lin
  - tcp_rot
points: 
  - 
    positions: [0.21600000000000003, 0.0, -1.5707963267948966, 0.0, 0.0, 0.0, 0.1, 0.1]
    velocities: []
    accelerations: []
    effort: []
    time_from_start: 
      secs: 0
      nsecs: 240000000
---
header: 
  seq: 62
  stamp: 
    secs: 1740539821
    nsecs: 487631797
  frame_id: ''
joint_names: 
  - joint_1
  - joint_2
  - joint_3
  - joint_4
  - joint_5
  - joint_6
  - tcp_lin
  - tcp_rot
points: 
  - 
    positions: [0.28800000000000003, 0.0, -1.5707963267948966, 0.0, 0.0, 0.0, 0.1, 0.1]
    velocities: []
    accelerations: []
    effort: []
    time_from_start: 
      secs: 0
      nsecs: 240000000
---
header: 
  seq: 63
  stamp: 
    secs: 1740539821
    nsecs: 687470436
  frame_id: ''
joint_names: 
  - joint_1
  - joint_2
  - joint_3
  - joint_4
  - joint_5
  - joint_6
  - tcp_lin
  - tcp_rot
points: 
  - 
    positions: [0.36000000000000004, 0.0, -1.5707963267948966, 0.0, 0.0, 0.0, 0.1, 0.1]
    velocities: []
    accelerations: []
    effort: []
    time_from_start: 
      secs: 0
      nsecs: 240000000
---
header: 
  seq: 64
  stamp: 
    secs: 1740539821
    nsecs: 887657880
  frame_id: ''
joint_names: 
  - joint_1
  - joint_2
  - joint_3
  - joint_4
  - joint_5
  - joint_6
  - tcp_lin
  - tcp_rot
points: 
  - 
    positions: [0.28800000000000003, 0.0, -1.5707963267948966, 0.0, 0.0, 0.0, 0.1, 0.1]
    velocities: []
    accelerations: []
    effort: []
    time_from_start: 
      secs: 0
      nsecs: 240000000
---
header: 
  seq: 65
  stamp: 
    secs: 1740539822
    nsecs:  87506294
  frame_id: ''
joint_names: 
  - joint_1
  - joint_2
  - joint_3
  - joint_4
  - joint_5
  - joint_6
  - tcp_lin
  - tcp_rot
points: 
  - 
    positions: [0.21600000000000003, 0.0, -1.5707963267948966, 0.0, 0.0, 0.0, 0.1, 0.1]
    velocities: []
    accelerations: []
    effort: []
    time_from_start: 
      secs: 0
      nsecs: 240000000
---
header: 
  seq: 66
  stamp: 
    secs: 1740539822
    nsecs: 287480115
  frame_id: ''
joint_names: 
  - joint_1
  - joint_2
  - joint_3
  - joint_4
  - joint_5
  - joint_6
  - tcp_lin
  - tcp_rot
points: 
  - 
    positions: [0.14400000000000002, 0.0, -1.5707963267948966, 0.0, 0.0, 0.0, 0.1, 0.1]
    velocities: []
    accelerations: []
    effort: []
    time_from_start: 
      secs: 0
      nsecs: 240000000
---
header: 
  seq: 67
  stamp: 
    secs: 1740539822
    nsecs: 487479925
  frame_id: ''
joint_names: 
  - joint_1
  - joint_2
  - joint_3
  - joint_4
  - joint_5
  - joint_6
  - tcp_lin
  - tcp_rot
points: 
  - 
    positions: [0.07200000000000002, 0.0, -1.5707963267948966, 0.0, 0.0, 0.0, 0.1, 0.1]
    velocities: []
    accelerations: []
    effort: []
    time_from_start: 
      secs: 0
      nsecs: 240000000
---
header: 
  seq: 68
  stamp: 
    secs: 1740539822
    nsecs: 687467813
  frame_id: ''
joint_names: 
  - joint_1
  - joint_2
  - joint_3
  - joint_4
  - joint_5
  - joint_6
  - tcp_lin
  - tcp_rot
points: 
  - 
    positions: [2.7755575615628914e-17, 0.0, -1.5707963267948966, 0.0, 0.0, 0.0, 0.1, 0.1]
    velocities: []
    accelerations: []
    effort: []
    time_from_start: 
      secs: 0
      nsecs: 240000000
---
header: 
  seq: 69
  stamp: 
    secs: 1740539822
    nsecs: 887450933
  frame_id: ''
joint_names: 
  - joint_1
  - joint_2
  - joint_3
  - joint_4
  - joint_5
  - joint_6
  - tcp_lin
  - tcp_rot
points: 
  - 
    positions: [-0.07199999999999997, 0.0, -1.5707963267948966, 0.0, 0.0, 0.0, 0.1, 0.1]
    velocities: []
    accelerations: []
    effort: []
    time_from_start: 
      secs: 0
      nsecs: 240000000
---
header: 
  seq: 70
  stamp: 
    secs: 1740539823
    nsecs:  87560415
  frame_id: ''
joint_names: 
  - joint_1
  - joint_2
  - joint_3
  - joint_4
  - joint_5
  - joint_6
  - tcp_lin
  - tcp_rot
points: 
  - 
    positions: [-0.14399999999999993, 0.0, -1.5707963267948966, 0.0, 0.0, 0.0, 0.1, 0.1]
    velocities: []
    accelerations: []
    effort: []
    time_from_start: 
      secs: 0
      nsecs: 240000000
---
header: 
  seq: 71
  stamp: 
    secs: 1740539823
    nsecs: 287426471
  frame_id: ''
joint_names: 
  - joint_1
  - joint_2
  - joint_3
  - joint_4
  - joint_5
  - joint_6
  - tcp_lin
  - tcp_rot
points: 
  - 
    positions: [-0.21599999999999991, 0.0, -1.5707963267948966, 0.0, 0.0, 0.0, 0.1, 0.1]
    velocities: []
    accelerations: []
    effort: []
    time_from_start: 
      secs: 0
      nsecs: 240000000
---
header: 
  seq: 72
  stamp: 
    secs: 1740539823
    nsecs: 487431764
  frame_id: ''
joint_names: 
  - joint_1
  - joint_2
  - joint_3
  - joint_4
  - joint_5
  - joint_6
  - tcp_lin
  - tcp_rot
points: 
  - 
    positions: [-0.2879999999999999, 0.0, -1.5707963267948966, 0.0, 0.0, 0.0, 0.1, 0.1]
    velocities: []
    accelerations: []
    effort: []
    time_from_start: 
      secs: 0
      nsecs: 240000000
---
header: 
  seq: 73
  stamp: 
    secs: 1740539823
    nsecs: 687931537
  frame_id: ''
joint_names: 
  - joint_1
  - joint_2
  - joint_3
  - joint_4
  - joint_5
  - joint_6
  - tcp_lin
  - tcp_rot
points: 
  - 
    positions: [-0.35999999999999993, 0.0, -1.5707963267948966, 0.0, 0.0, 0.0, 0.1, 0.1]
    velocities: []
    accelerations: []
    effort: []
    time_from_start: 
      secs: 0
      nsecs: 240000000
---
header: 
  seq: 74
  stamp: 
    secs: 1740539823
    nsecs: 887392044
  frame_id: ''
joint_names: 
  - joint_1
  - joint_2
  - joint_3
  - joint_4
  - joint_5
  - joint_6
  - tcp_lin
  - tcp_rot
points: 
  - 
    positions: [-0.2879999999999999, 0.0, -1.5707963267948966, 0.0, 0.0, 0.0, 0.1, 0.1]
    velocities: []
    accelerations: []
    effort: []
    time_from_start: 
      secs: 0
      nsecs: 240000000
---
header: 
  seq: 75
  stamp: 
    secs: 1740539824
    nsecs:  87414741
  frame_id: ''
joint_names: 
  - joint_1
  - joint_2
  - joint_3
  - joint_4
  - joint_5
  - joint_6
  - tcp_lin
  - tcp_rot
points: 
  - 
    positions: [-0.21599999999999991, 0.0, -1.5707963267948966, 0.0, 0.0, 0.0, 0.1, 0.1]
    velocities: []
    accelerations: []
    effort: []
    time_from_start: 
      secs: 0
      nsecs: 240000000
---
header: 
  seq: 76
  stamp: 
    secs: 1740539824
    nsecs: 287322044
  frame_id: ''
joint_names: 
  - joint_1
  - joint_2
  - joint_3
  - joint_4
  - joint_5
  - joint_6
  - tcp_lin
  - tcp_rot
points: 
  - 
    positions: [-0.1439999999999999, 0.0, -1.5707963267948966, 0.0, 0.0, 0.0, 0.1, 0.1]
    velocities: []
    accelerations: []
    effort: []
    time_from_start: 
      secs: 0
      nsecs: 240000000
---
header: 
  seq: 77
  stamp: 
    secs: 1740539824
    nsecs: 487252473
  frame_id: ''
joint_names: 
  - joint_1
  - joint_2
  - joint_3
  - joint_4
  - joint_5
  - joint_6
  - tcp_lin
  - tcp_rot
points: 
  - 
    positions: [-0.07199999999999991, 0.0, -1.5707963267948966, 0.0, 0.0, 0.0, 0.1, 0.1]
    velocities: []
    accelerations: []
    effort: []
    time_from_start: 
      secs: 0
      nsecs: 240000000
---
header: 
  seq: 78
  stamp: 
    secs: 1740539824
    nsecs: 687427997
  frame_id: ''
joint_names: 
  - joint_1
  - joint_2
  - joint_3
  - joint_4
  - joint_5
  - joint_6
  - tcp_lin
  - tcp_rot
points: 
  - 
    positions: [8.326672684688674e-17, 0.0, -1.5707963267948966, 0.0, 0.0, 0.0, 0.1, 0.1]
    velocities: []
    accelerations: []
    effort: []
    time_from_start: 
      secs: 0
      nsecs: 240000000
---
header: 
  seq: 79
  stamp: 
    secs: 1740539824
    nsecs: 887406826
  frame_id: ''
joint_names: 
  - joint_1
  - joint_2
  - joint_3
  - joint_4
  - joint_5
  - joint_6
  - tcp_lin
  - tcp_rot
points: 
  - 
    positions: [0.0, 0.0, -1.5707963267948966, 0.0, 0.0, 0.0, 0.1, 0.1]
    velocities: []
    accelerations: []
    effort: []
    time_from_start: 
      secs: 0
      nsecs: 200000000
---
header: 
  seq: 80
  stamp: 
    secs: 1740539825
    nsecs: 888885021
  frame_id: ''
joint_names: 
  - joint_1
  - joint_2
  - joint_3
  - joint_4
  - joint_5
  - joint_6
  - tcp_lin
  - tcp_rot
points: 
  - 
    positions: [0.096, 0.0, -1.5707963267948966, 0.0, 0.0, 0.0, 0.1, 0.1]
    velocities: []
    accelerations: []
    effort: []
    time_from_start: 
      secs: 0
      nsecs: 240000000
---
header: 
  seq: 81
  stamp: 
    secs: 1740539825
    nsecs: 889216423
  frame_id: ''
joint_names: 
  - joint_1
  - joint_2
  - joint_3
  - joint_4
  - joint_5
  - joint_6
  - tcp_lin
  - tcp_rot
points: 
  - 
    positions: [0.19199999999999998, 0.0, -1.5707963267948966, 0.0, 0.0, 0.0, 0.1, 0.1]
    velocities: []
    accelerations: []
    effort: []
    time_from_start: 
      secs: 0
      nsecs: 240000000
---
header: 
  seq: 82
  stamp: 
    secs: 1740539826
    nsecs:  90344429
  frame_id: ''
joint_names: 
  - joint_1
  - joint_2
  - joint_3
  - joint_4
  - joint_5
  - joint_6
  - tcp_lin
  - tcp_rot
points: 
  - 
    positions: [0.288, 0.0, -1.5707963267948966, 0.0, 0.0, 0.0, 0.1, 0.1]
    velocities: []
    accelerations: []
    effort: []
    time_from_start: 
      secs: 0
      nsecs: 240000000
---
header: 
  seq: 83
  stamp: 
    secs: 1740539826
    nsecs: 289494991
  frame_id: ''
joint_names: 
  - joint_1
  - joint_2
  - joint_3
  - joint_4
  - joint_5
  - joint_6
  - tcp_lin
  - tcp_rot
points: 
  - 
    positions: [0.384, 0.0, -1.5707963267948966, 0.0, 0.0, 0.0, 0.1, 0.1]
    velocities: []
    accelerations: []
    effort: []
    time_from_start: 
      secs: 0
      nsecs: 240000000
---
header: 
  seq: 84
  stamp: 
    secs: 1740539826
    nsecs: 489564657
  frame_id: ''
joint_names: 
  - joint_1
  - joint_2
  - joint_3
  - joint_4
  - joint_5
  - joint_6
  - tcp_lin
  - tcp_rot
points: 
  - 
    positions: [0.288, 0.0, -1.5707963267948966, 0.0, 0.0, 0.0, 0.1, 0.1]
    velocities: []
    accelerations: []
    effort: []
    time_from_start: 
      secs: 0
      nsecs: 240000000
---
header: 
  seq: 85
  stamp: 
    secs: 1740539826
    nsecs: 689601182
  frame_id: ''
joint_names: 
  - joint_1
  - joint_2
  - joint_3
  - joint_4
  - joint_5
  - joint_6
  - tcp_lin
  - tcp_rot
points: 
  - 
    positions: [0.19199999999999995, 0.0, -1.5707963267948966, 0.0, 0.0, 0.0, 0.1, 0.1]
    velocities: []
    accelerations: []
    effort: []
    time_from_start: 
      secs: 0
      nsecs: 240000000
---
header: 
  seq: 86
  stamp: 
    secs: 1740539826
    nsecs: 889455556
  frame_id: ''
joint_names: 
  - joint_1
  - joint_2
  - joint_3
  - joint_4
  - joint_5
  - joint_6
  - tcp_lin
  - tcp_rot
points: 
  - 
    positions: [0.09599999999999995, 0.0, -1.5707963267948966, 0.0, 0.0, 0.0, 0.1, 0.1]
    velocities: []
    accelerations: []
    effort: []
    time_from_start: 
      secs: 0
      nsecs: 240000000
---
header: 
  seq: 87
  stamp: 
    secs: 1740539827
    nsecs:  89434146
  frame_id: ''
joint_names: 
  - joint_1
  - joint_2
  - joint_3
  - joint_4
  - joint_5
  - joint_6
  - tcp_lin
  - tcp_rot
points: 
  - 
    positions: [-5.204170427930421e-17, 0.0, -1.5707963267948966, 0.0, 0.0, 0.0, 0.1, 0.1]
    velocities: []
    accelerations: []
    effort: []
    time_from_start: 
      secs: 0
      nsecs: 240000000
---
header: 
  seq: 88
  stamp: 
    secs: 1740539827
    nsecs: 289450168
  frame_id: ''
joint_names: 
  - joint_1
  - joint_2
  - joint_3
  - joint_4
  - joint_5
  - joint_6
  - tcp_lin
  - tcp_rot
points: 
  - 
    positions: [-0.09600000000000006, 0.0, -1.5707963267948966, 0.0, 0.0, 0.0, 0.1, 0.1]
    velocities: []
    accelerations: []
    effort: []
    time_from_start: 
      secs: 0
      nsecs: 240000000
---
header: 
  seq: 89
  stamp: 
    secs: 1740539827
    nsecs: 489485025
  frame_id: ''
joint_names: 
  - joint_1
  - joint_2
  - joint_3
  - joint_4
  - joint_5
  - joint_6
  - tcp_lin
  - tcp_rot
points: 
  - 
    positions: [-0.19200000000000003, 0.0, -1.5707963267948966, 0.0, 0.0, 0.0, 0.1, 0.1]
    velocities: []
    accelerations: []
    effort: []
    time_from_start: 
      secs: 0
      nsecs: 240000000
---
header: 
  seq: 90
  stamp: 
    secs: 1740539827
    nsecs: 689528942
  frame_id: ''
joint_names: 
  - joint_1
  - joint_2
  - joint_3
  - joint_4
  - joint_5
  - joint_6
  - tcp_lin
  - tcp_rot
points: 
  - 
    positions: [-0.28800000000000003, 0.0, -1.5707963267948966, 0.0, 0.0, 0.0, 0.1, 0.1]
    velocities: []
    accelerations: []
    effort: []
    time_from_start: 
      secs: 0
      nsecs: 240000000
---
header: 
  seq: 91
  stamp: 
    secs: 1740539827
    nsecs: 889548301
  frame_id: ''
joint_names: 
  - joint_1
  - joint_2
  - joint_3
  - joint_4
  - joint_5
  - joint_6
  - tcp_lin
  - tcp_rot
points: 
  - 
    positions: [-0.38400000000000006, 0.0, -1.5707963267948966, 0.0, 0.0, 0.0, 0.1, 0.1]
    velocities: []
    accelerations: []
    effort: []
    time_from_start: 
      secs: 0
      nsecs: 240000000
---
header: 
  seq: 92
  stamp: 
    secs: 1740539828
    nsecs:  89447975
  frame_id: ''
joint_names: 
  - joint_1
  - joint_2
  - joint_3
  - joint_4
  - joint_5
  - joint_6
  - tcp_lin
  - tcp_rot
points: 
  - 
    positions: [-0.28800000000000003, 0.0, -1.5707963267948966, 0.0, 0.0, 0.0, 0.1, 0.1]
    velocities: []
    accelerations: []
    effort: []
    time_from_start: 
      secs: 0
      nsecs: 240000000
---
header: 
  seq: 93
  stamp: 
    secs: 1740539828
    nsecs: 289455413
  frame_id: ''
joint_names: 
  - joint_1
  - joint_2
  - joint_3
  - joint_4
  - joint_5
  - joint_6
  - tcp_lin
  - tcp_rot
points: 
  - 
    positions: [-0.192, 0.0, -1.5707963267948966, 0.0, 0.0, 0.0, 0.1, 0.1]
    velocities: []
    accelerations: []
    effort: []
    time_from_start: 
      secs: 0
      nsecs: 240000000
---
header: 
  seq: 94
  stamp: 
    secs: 1740539828
    nsecs: 490223169
  frame_id: ''
joint_names: 
  - joint_1
  - joint_2
  - joint_3
  - joint_4
  - joint_5
  - joint_6
  - tcp_lin
  - tcp_rot
points: 
  - 
    positions: [-0.096, 0.0, -1.5707963267948966, 0.0, 0.0, 0.0, 0.1, 0.1]
    velocities: []
    accelerations: []
    effort: []
    time_from_start: 
      secs: 0
      nsecs: 240000000
---
header: 
  seq: 95
  stamp: 
    secs: 1740539828
    nsecs: 689439296
  frame_id: ''
joint_names: 
  - joint_1
  - joint_2
  - joint_3
  - joint_4
  - joint_5
  - joint_6
  - tcp_lin
  - tcp_rot
points: 
  - 
    positions: [-3.469446951953614e-18, 0.0, -1.5707963267948966, 0.0, 0.0, 0.0, 0.1, 0.1]
    velocities: []
    accelerations: []
    effort: []
    time_from_start: 
      secs: 0
      nsecs: 240000000
---
header: 
  seq: 96
  stamp: 
    secs: 1740539828
    nsecs: 889408588
  frame_id: ''
joint_names: 
  - joint_1
  - joint_2
  - joint_3
  - joint_4
  - joint_5
  - joint_6
  - tcp_lin
  - tcp_rot
points: 
  - 
    positions: [0.0, 0.0, -1.5707963267948966, 0.0, 0.0, 0.0, 0.1, 0.1]
    velocities: []
    accelerations: []
    effort: []
    time_from_start: 
      secs: 0
      nsecs: 200000000
---
header: 
  seq: 97
  stamp: 
    secs: 1740539829
    nsecs: 889829635
  frame_id: ''
joint_names: 
  - joint_1
  - joint_2
  - joint_3
  - joint_4
  - joint_5
  - joint_6
  - tcp_lin
  - tcp_rot
points: 
  - 
    positions: [0.12, 0.0, -1.5707963267948966, 0.0, 0.0, 0.0, 0.1, 0.1]
    velocities: []
    accelerations: []
    effort: []
    time_from_start: 
      secs: 0
      nsecs: 240000000
---
header: 
  seq: 98
  stamp: 
    secs: 1740539829
    nsecs: 890271186
  frame_id: ''
joint_names: 
  - joint_1
  - joint_2
  - joint_3
  - joint_4
  - joint_5
  - joint_6
  - tcp_lin
  - tcp_rot
points: 
  - 
    positions: [0.24, 0.0, -1.5707963267948966, 0.0, 0.0, 0.0, 0.1, 0.1]
    velocities: []
    accelerations: []
    effort: []
    time_from_start: 
      secs: 0
      nsecs: 240000000
---
header: 
  seq: 99
  stamp: 
    secs: 1740539830
    nsecs:  90723514
  frame_id: ''
joint_names: 
  - joint_1
  - joint_2
  - joint_3
  - joint_4
  - joint_5
  - joint_6
  - tcp_lin
  - tcp_rot
points: 
  - 
    positions: [0.36, 0.0, -1.5707963267948966, 0.0, 0.0, 0.0, 0.1, 0.1]
    velocities: []
    accelerations: []
    effort: []
    time_from_start: 
      secs: 0
      nsecs: 240000000
---
header: 
  seq: 100
  stamp: 
    secs: 1740539830
    nsecs: 290507555
  frame_id: ''
joint_names: 
  - joint_1
  - joint_2
  - joint_3
  - joint_4
  - joint_5
  - joint_6
  - tcp_lin
  - tcp_rot
points: 
  - 
    positions: [0.24000000000000002, 0.0, -1.5707963267948966, 0.0, 0.0, 0.0, 0.1, 0.1]
    velocities: []
    accelerations: []
    effort: []
    time_from_start: 
      secs: 0
      nsecs: 240000000
---
header: 
  seq: 101
  stamp: 
    secs: 1740539830
    nsecs: 490412950
  frame_id: ''
joint_names: 
  - joint_1
  - joint_2
  - joint_3
  - joint_4
  - joint_5
  - joint_6
  - tcp_lin
  - tcp_rot
points: 
  - 
    positions: [0.12000000000000002, 0.0, -1.5707963267948966, 0.0, 0.0, 0.0, 0.1, 0.1]
    velocities: []
    accelerations: []
    effort: []
    time_from_start: 
      secs: 0
      nsecs: 240000000
---
header: 
  seq: 102
  stamp: 
    secs: 1740539830
    nsecs: 693615913
  frame_id: ''
joint_names: 
  - joint_1
  - joint_2
  - joint_3
  - joint_4
  - joint_5
  - joint_6
  - tcp_lin
  - tcp_rot
points: 
  - 
    positions: [2.0816681711721685e-17, 0.0, -1.5707963267948966, 0.0, 0.0, 0.0, 0.1, 0.1]
    velocities: []
    accelerations: []
    effort: []
    time_from_start: 
      secs: 0
      nsecs: 240000000
---
header: 
  seq: 103
  stamp: 
    secs: 1740539830
    nsecs: 890858650
  frame_id: ''
joint_names: 
  - joint_1
  - joint_2
  - joint_3
  - joint_4
  - joint_5
  - joint_6
  - tcp_lin
  - tcp_rot
points: 
  - 
    positions: [-0.11999999999999997, 0.0, -1.5707963267948966, 0.0, 0.0, 0.0, 0.1, 0.1]
    velocities: []
    accelerations: []
    effort: []
    time_from_start: 
      secs: 0
      nsecs: 240000000
---
header: 
  seq: 104
  stamp: 
    secs: 1740539831
    nsecs:  90290784
  frame_id: ''
joint_names: 
  - joint_1
  - joint_2
  - joint_3
  - joint_4
  - joint_5
  - joint_6
  - tcp_lin
  - tcp_rot
points: 
  - 
    positions: [-0.23999999999999996, 0.0, -1.5707963267948966, 0.0, 0.0, 0.0, 0.1, 0.1]
    velocities: []
    accelerations: []
    effort: []
    time_from_start: 
      secs: 0
      nsecs: 240000000
---
header: 
  seq: 105
  stamp: 
    secs: 1740539831
    nsecs: 290607929
  frame_id: ''
joint_names: 
  - joint_1
  - joint_2
  - joint_3
  - joint_4
  - joint_5
  - joint_6
  - tcp_lin
  - tcp_rot
points: 
  - 
    positions: [-0.36, 0.0, -1.5707963267948966, 0.0, 0.0, 0.0, 0.1, 0.1]
    velocities: []
    accelerations: []
    effort: []
    time_from_start: 
      secs: 0
      nsecs: 240000000
---
header: 
  seq: 106
  stamp: 
    secs: 1740539831
    nsecs: 490913867
  frame_id: ''
joint_names: 
  - joint_1
  - joint_2
  - joint_3
  - joint_4
  - joint_5
  - joint_6
  - tcp_lin
  - tcp_rot
points: 
  - 
    positions: [-0.24000000000000002, 0.0, -1.5707963267948966, 0.0, 0.0, 0.0, 0.1, 0.1]
    velocities: []
    accelerations: []
    effort: []
    time_from_start: 
      secs: 0
      nsecs: 240000000
---
header: 
  seq: 107
  stamp: 
    secs: 1740539831
    nsecs: 690512895
  frame_id: ''
joint_names: 
  - joint_1
  - joint_2
  - joint_3
  - joint_4
  - joint_5
  - joint_6
  - tcp_lin
  - tcp_rot
points: 
  - 
    positions: [-0.12000000000000002, 0.0, -1.5707963267948966, 0.0, 0.0, 0.0, 0.1, 0.1]
    velocities: []
    accelerations: []
    effort: []
    time_from_start: 
      secs: 0
      nsecs: 240000000
---
header: 
  seq: 108
  stamp: 
    secs: 1740539831
    nsecs: 890430927
  frame_id: ''
joint_names: 
  - joint_1
  - joint_2
  - joint_3
  - joint_4
  - joint_5
  - joint_6
  - tcp_lin
  - tcp_rot
points: 
  - 
    positions: [-2.0816681711721685e-17, 0.0, -1.5707963267948966, 0.0, 0.0, 0.0, 0.1, 0.1]
    velocities: []
    accelerations: []
    effort: []
    time_from_start: 
      secs: 0
      nsecs: 240000000
---
header: 
  seq: 109
  stamp: 
    secs: 1740539832
    nsecs:  90428829
  frame_id: ''
joint_names: 
  - joint_1
  - joint_2
  - joint_3
  - joint_4
  - joint_5
  - joint_6
  - tcp_lin
  - tcp_rot
points: 
  - 
    positions: [0.0, 0.0, -1.5707963267948966, 0.0, 0.0, 0.0, 0.1, 0.1]
    velocities: []
    accelerations: []
    effort: []
    time_from_start: 
      secs: 0
      nsecs: 200000000
---
header: 
  seq: 111
  stamp: 
    secs: 1740539833
    nsecs:  93079805
  frame_id: ''
joint_names: 
  - joint_1
  - joint_2
  - joint_3
  - joint_4
  - joint_5
  - joint_6
  - tcp_lin
  - tcp_rot
points: 
  - 
    positions: [0.28800000000000003, 0.0, -1.5707963267948966, 0.0, 0.0, 0.0, 0.1, 0.1]
    velocities: []
    accelerations: []
    effort: []
    time_from_start: 
      secs: 0
      nsecs: 240000000
---
header: 
  seq: 112
  stamp: 
    secs: 1740539833
    nsecs: 293309211
  frame_id: ''
joint_names: 
  - joint_1
  - joint_2
  - joint_3
  - joint_4
  - joint_5
  - joint_6
  - tcp_lin
  - tcp_rot
points: 
  - 
    positions: [0.43200000000000005, 0.0, -1.5707963267948966, 0.0, 0.0, 0.0, 0.1, 0.1]
    velocities: []
    accelerations: []
    effort: []
    time_from_start: 
      secs: 0
      nsecs: 240000000
---
header: 
  seq: 113
  stamp: 
    secs: 1740539833
    nsecs: 493254184
  frame_id: ''
joint_names: 
  - joint_1
  - joint_2
  - joint_3
  - joint_4
  - joint_5
  - joint_6
  - tcp_lin
  - tcp_rot
points: 
  - 
    positions: [0.28800000000000003, 0.0, -1.5707963267948966, 0.0, 0.0, 0.0, 0.1, 0.1]
    velocities: []
    accelerations: []
    effort: []
    time_from_start: 
      secs: 0
      nsecs: 240000000
---
header: 
  seq: 114
  stamp: 
    secs: 1740539833
    nsecs: 693292140
  frame_id: ''
joint_names: 
  - joint_1
  - joint_2
  - joint_3
  - joint_4
  - joint_5
  - joint_6
  - tcp_lin
  - tcp_rot
points: 
  - 
    positions: [0.14400000000000004, 0.0, -1.5707963267948966, 0.0, 0.0, 0.0, 0.1, 0.1]
    velocities: []
    accelerations: []
    effort: []
    time_from_start: 
      secs: 0
      nsecs: 240000000
---
header: 
  seq: 115
  stamp: 
    secs: 1740539833
    nsecs: 893407583
  frame_id: ''
joint_names: 
  - joint_1
  - joint_2
  - joint_3
  - joint_4
  - joint_5
  - joint_6
  - tcp_lin
  - tcp_rot
points: 
  - 
    positions: [5.551115123125783e-17, 0.0, -1.5707963267948966, 0.0, 0.0, 0.0, 0.1, 0.1]
    velocities: []
    accelerations: []
    effort: []
    time_from_start: 
      secs: 0
      nsecs: 240000000
---
header: 
  seq: 116
  stamp: 
    secs: 1740539834
    nsecs:  93072891
  frame_id: ''
joint_names: 
  - joint_1
  - joint_2
  - joint_3
  - joint_4
  - joint_5
  - joint_6
  - tcp_lin
  - tcp_rot
points: 
  - 
    positions: [-0.14399999999999993, 0.0, -1.5707963267948966, 0.0, 0.0, 0.0, 0.1, 0.1]
    velocities: []
    accelerations: []
    effort: []
    time_from_start: 
      secs: 0
      nsecs: 240000000
---
header: 
  seq: 117
  stamp: 
    secs: 1740539834
    nsecs: 293268203
  frame_id: ''
joint_names: 
  - joint_1
  - joint_2
  - joint_3
  - joint_4
  - joint_5
  - joint_6
  - tcp_lin
  - tcp_rot
points: 
  - 
    positions: [-0.28799999999999987, 0.0, -1.5707963267948966, 0.0, 0.0, 0.0, 0.1, 0.1]
    velocities: []
    accelerations: []
    effort: []
    time_from_start: 
      secs: 0
      nsecs: 240000000
---
header: 
  seq: 118
  stamp: 
    secs: 1740539834
    nsecs: 493294477
  frame_id: ''
joint_names: 
  - joint_1
  - joint_2
  - joint_3
  - joint_4
  - joint_5
  - joint_6
  - tcp_lin
  - tcp_rot
points: 
  - 
    positions: [-0.43199999999999983, 0.0, -1.5707963267948966, 0.0, 0.0, 0.0, 0.1, 0.1]
    velocities: []
    accelerations: []
    effort: []
    time_from_start: 
      secs: 0
      nsecs: 240000000
---
header: 
  seq: 119
  stamp: 
    secs: 1740539834
    nsecs: 693310260
  frame_id: ''
joint_names: 
  - joint_1
  - joint_2
  - joint_3
  - joint_4
  - joint_5
  - joint_6
  - tcp_lin
  - tcp_rot
points: 
  - 
    positions: [-0.2879999999999998, 0.0, -1.5707963267948966, 0.0, 0.0, 0.0, 0.1, 0.1]
    velocities: []
    accelerations: []
    effort: []
    time_from_start: 
      secs: 0
      nsecs: 240000000
---
header: 
  seq: 120
  stamp: 
    secs: 1740539834
    nsecs: 893138885
  frame_id: ''
joint_names: 
  - joint_1
  - joint_2
  - joint_3
  - joint_4
  - joint_5
  - joint_6
  - tcp_lin
  - tcp_rot
points: 
  - 
    positions: [-0.14399999999999982, 0.0, -1.5707963267948966, 0.0, 0.0, 0.0, 0.1, 0.1]
    velocities: []
    accelerations: []
    effort: []
    time_from_start: 
      secs: 0
      nsecs: 240000000
---
header: 
  seq: 121
  stamp: 
    secs: 1740539835
    nsecs:  93193769
  frame_id: ''
joint_names: 
  - joint_1
  - joint_2
  - joint_3
  - joint_4
  - joint_5
  - joint_6
  - tcp_lin
  - tcp_rot
points: 
  - 
    positions: [1.6653345369377348e-16, 0.0, -1.5707963267948966, 0.0, 0.0, 0.0, 0.1, 0.1]
    velocities: []
    accelerations: []
    effort: []
    time_from_start: 
      secs: 0
      nsecs: 240000000
---
header: 
  seq: 122
  stamp: 
    secs: 1740539835
    nsecs: 293225288
  frame_id: ''
joint_names: 
  - joint_1
  - joint_2
  - joint_3
  - joint_4
  - joint_5
  - joint_6
  - tcp_lin
  - tcp_rot
points: 
  - 
    positions: [0.0, 0.0, -1.5707963267948966, 0.0, 0.0, 0.0, 0.1, 0.1]
    velocities: []
    accelerations: []
    effort: []
    time_from_start: 
      secs: 0
      nsecs: 200000000
---
header: 
  seq: 123
  stamp: 
    secs: 1740539836
    nsecs: 293755531
  frame_id: ''
joint_names: 
  - joint_1
  - joint_2
  - joint_3
  - joint_4
  - joint_5
  - joint_6
  - tcp_lin
  - tcp_rot
points: 
  - 
    positions: [0.0, 0.024, -1.5707963267948966, 0.0, 0.0, 0.0, 0.1, 0.1]
    velocities: []
    accelerations: []
    effort: []
    time_from_start: 
      secs: 0
      nsecs: 240000000
---
header: 
  seq: 124
  stamp: 
    secs: 1740539836
    nsecs: 294058561
  frame_id: ''
joint_names: 
  - joint_1
  - joint_2
  - joint_3
  - joint_4
  - joint_5
  - joint_6
  - tcp_lin
  - tcp_rot
points: 
  - 
    positions: [0.0, 0.047999999999999994, -1.5707963267948966, 0.0, 0.0, 0.0, 0.1, 0.1]
    velocities: []
    accelerations: []
    effort: []
    time_from_start: 
      secs: 0
      nsecs: 240000000
---
header: 
  seq: 125
  stamp: 
    secs: 1740539836
    nsecs: 494309663
  frame_id: ''
joint_names: 
  - joint_1
  - joint_2
  - joint_3
  - joint_4
  - joint_5
  - joint_6
  - tcp_lin
  - tcp_rot
points: 
  - 
    positions: [0.0, 0.072, -1.5707963267948966, 0.0, 0.0, 0.0, 0.1, 0.1]
    velocities: []
    accelerations: []
    effort: []
    time_from_start: 
      secs: 0
      nsecs: 240000000
---
header: 
  seq: 126
  stamp: 
    secs: 1740539836
    nsecs: 694337606
  frame_id: ''
joint_names: 
  - joint_1
  - joint_2
  - joint_3
  - joint_4
  - joint_5
  - joint_6
  - tcp_lin
  - tcp_rot
points: 
  - 
    positions: [0.0, 0.096, -1.5707963267948966, 0.0, 0.0, 0.0, 0.1, 0.1]
    velocities: []
    accelerations: []
    effort: []
    time_from_start: 
      secs: 0
      nsecs: 240000000
---
header: 
  seq: 127
  stamp: 
    secs: 1740539836
    nsecs: 894619464
  frame_id: ''
joint_names: 
  - joint_1
  - joint_2
  - joint_3
  - joint_4
  - joint_5
  - joint_6
  - tcp_lin
  - tcp_rot
points: 
  - 
    positions: [0.0, 0.12000000000000001, -1.5707963267948966, 0.0, 0.0, 0.0, 0.1, 0.1]
    velocities: []
    accelerations: []
    effort: []
    time_from_start: 
      secs: 0
      nsecs: 240000000
---
header: 
  seq: 128
  stamp: 
    secs: 1740539837
    nsecs:  94407320
  frame_id: ''
joint_names: 
  - joint_1
  - joint_2
  - joint_3
  - joint_4
  - joint_5
  - joint_6
  - tcp_lin
  - tcp_rot
points: 
  - 
    positions: [0.0, 0.14400000000000002, -1.5707963267948966, 0.0, 0.0, 0.0, 0.1, 0.1]
    velocities: []
    accelerations: []
    effort: []
    time_from_start: 
      secs: 0
      nsecs: 240000000
---
header: 
  seq: 129
  stamp: 
    secs: 1740539837
    nsecs: 294339895
  frame_id: ''
joint_names: 
  - joint_1
  - joint_2
  - joint_3
  - joint_4
  - joint_5
  - joint_6
  - tcp_lin
  - tcp_rot
points: 
  - 
    positions: [0.0, 0.168, -1.5707963267948966, 0.0, 0.0, 0.0, 0.1, 0.1]
    velocities: []
    accelerations: []
    effort: []
    time_from_start: 
      secs: 0
      nsecs: 240000000
---
header: 
  seq: 130
  stamp: 
    secs: 1740539837
    nsecs: 494549512
  frame_id: ''
joint_names: 
  - joint_1
  - joint_2
  - joint_3
  - joint_4
  - joint_5
  - joint_6
  - tcp_lin
  - tcp_rot
points: 
  - 
    positions: [0.0, 0.192, -1.5707963267948966, 0.0, 0.0, 0.0, 0.1, 0.1]
    velocities: []
    accelerations: []
    effort: []
    time_from_start: 
      secs: 0
      nsecs: 240000000
---
header: 
  seq: 131
  stamp: 
    secs: 1740539837
    nsecs: 694389343
  frame_id: ''
joint_names: 
  - joint_1
  - joint_2
  - joint_3
  - joint_4
  - joint_5
  - joint_6
  - tcp_lin
  - tcp_rot
points: 
  - 
    positions: [0.0, 0.216, -1.5707963267948966, 0.0, 0.0, 0.0, 0.1, 0.1]
    velocities: []
    accelerations: []
    effort: []
    time_from_start: 
      secs: 0
      nsecs: 240000000
---
header: 
  seq: 132
  stamp: 
    secs: 1740539837
    nsecs: 894343137
  frame_id: ''
joint_names: 
  - joint_1
  - joint_2
  - joint_3
  - joint_4
  - joint_5
  - joint_6
  - tcp_lin
  - tcp_rot
points: 
  - 
    positions: [0.0, 0.24, -1.5707963267948966, 0.0, 0.0, 0.0, 0.1, 0.1]
    velocities: []
    accelerations: []
    effort: []
    time_from_start: 
      secs: 0
      nsecs: 240000000
---
header: 
  seq: 133
  stamp: 
    secs: 1740539838
    nsecs:  94740152
  frame_id: ''
joint_names: 
  - joint_1
  - joint_2
  - joint_3
  - joint_4
  - joint_5
  - joint_6
  - tcp_lin
  - tcp_rot
points: 
  - 
    positions: [0.0, 0.264, -1.5707963267948966, 0.0, 0.0, 0.0, 0.1, 0.1]
    velocities: []
    accelerations: []
    effort: []
    time_from_start: 
      secs: 0
      nsecs: 240000000
---
header: 
  seq: 134
  stamp: 
    secs: 1740539838
    nsecs: 294370889
  frame_id: ''
joint_names: 
  - joint_1
  - joint_2
  - joint_3
  - joint_4
  - joint_5
  - joint_6
  - tcp_lin
  - tcp_rot
points: 
  - 
    positions: [0.0, 0.28800000000000003, -1.5707963267948966, 0.0, 0.0, 0.0, 0.1, 0.1]
    velocities: []
    accelerations: []
    effort: []
    time_from_start: 
      secs: 0
      nsecs: 240000000
---
header: 
  seq: 135
  stamp: 
    secs: 1740539838
    nsecs: 494335174
  frame_id: ''
joint_names: 
  - joint_1
  - joint_2
  - joint_3
  - joint_4
  - joint_5
  - joint_6
  - tcp_lin
  - tcp_rot
points: 
  - 
    positions: [0.0, 0.31200000000000006, -1.5707963267948966, 0.0, 0.0, 0.0, 0.1, 0.1]
    velocities: []
    accelerations: []
    effort: []
    time_from_start: 
      secs: 0
      nsecs: 240000000
---
header: 
  seq: 136
  stamp: 
    secs: 1740539838
    nsecs: 694830894
  frame_id: ''
joint_names: 
  - joint_1
  - joint_2
  - joint_3
  - joint_4
  - joint_5
  - joint_6
  - tcp_lin
  - tcp_rot
points: 
  - 
    positions: [0.0, 0.3360000000000001, -1.5707963267948966, 0.0, 0.0, 0.0, 0.1, 0.1]
    velocities: []
    accelerations: []
    effort: []
    time_from_start: 
      secs: 0
      nsecs: 240000000
---
header: 
  seq: 137
  stamp: 
    secs: 1740539838
    nsecs: 894360065
  frame_id: ''
joint_names: 
  - joint_1
  - joint_2
  - joint_3
  - joint_4
  - joint_5
  - joint_6
  - tcp_lin
  - tcp_rot
points: 
  - 
    positions: [0.0, 0.31200000000000006, -1.5707963267948966, 0.0, 0.0, 0.0, 0.1, 0.1]
    velocities: []
    accelerations: []
    effort: []
    time_from_start: 
      secs: 0
      nsecs: 240000000
---
header: 
  seq: 138
  stamp: 
    secs: 1740539839
    nsecs:  94319820
  frame_id: ''
joint_names: 
  - joint_1
  - joint_2
  - joint_3
  - joint_4
  - joint_5
  - joint_6
  - tcp_lin
  - tcp_rot
points: 
  - 
    positions: [0.0, 0.28800000000000003, -1.5707963267948966, 0.0, 0.0, 0.0, 0.1, 0.1]
    velocities: []
    accelerations: []
    effort: []
    time_from_start: 
      secs: 0
      nsecs: 240000000
---
header: 
  seq: 139
  stamp: 
    secs: 1740539839
    nsecs: 294499397
  frame_id: ''
joint_names: 
  - joint_1
  - joint_2
  - joint_3
  - joint_4
  - joint_5
  - joint_6
  - tcp_lin
  - tcp_rot
points: 
  - 
    positions: [0.0, 0.264, -1.5707963267948966, 0.0, 0.0, 0.0, 0.1, 0.1]
    velocities: []
    accelerations: []
    effort: []
    time_from_start: 
      secs: 0
      nsecs: 240000000
---
header: 
  seq: 140
  stamp: 
    secs: 1740539839
    nsecs: 494394540
  frame_id: ''
joint_names: 
  - joint_1
  - joint_2
  - joint_3
  - joint_4
  - joint_5
  - joint_6
  - tcp_lin
  - tcp_rot
points: 
  - 
    positions: [0.0, 0.24000000000000002, -1.5707963267948966, 0.0, 0.0, 0.0, 0.1, 0.1]
    velocities: []
    accelerations: []
    effort: []
    time_from_start: 
      secs: 0
      nsecs: 240000000
---
header: 
  seq: 141
  stamp: 
    secs: 1740539839
    nsecs: 694325208
  frame_id: ''
joint_names: 
  - joint_1
  - joint_2
  - joint_3
  - joint_4
  - joint_5
  - joint_6
  - tcp_lin
  - tcp_rot
points: 
  - 
    positions: [0.0, 0.21600000000000003, -1.5707963267948966, 0.0, 0.0, 0.0, 0.1, 0.1]
    velocities: []
    accelerations: []
    effort: []
    time_from_start: 
      secs: 0
      nsecs: 240000000
---
header: 
  seq: 142
  stamp: 
    secs: 1740539839
    nsecs: 894580364
  frame_id: ''
joint_names: 
  - joint_1
  - joint_2
  - joint_3
  - joint_4
  - joint_5
  - joint_6
  - tcp_lin
  - tcp_rot
points: 
  - 
    positions: [0.0, 0.19200000000000003, -1.5707963267948966, 0.0, 0.0, 0.0, 0.1, 0.1]
    velocities: []
    accelerations: []
    effort: []
    time_from_start: 
      secs: 0
      nsecs: 240000000
---
header: 
  seq: 143
  stamp: 
    secs: 1740539840
    nsecs:  94411373
  frame_id: ''
joint_names: 
  - joint_1
  - joint_2
  - joint_3
  - joint_4
  - joint_5
  - joint_6
  - tcp_lin
  - tcp_rot
points: 
  - 
    positions: [0.0, 0.16800000000000004, -1.5707963267948966, 0.0, 0.0, 0.0, 0.1, 0.1]
    velocities: []
    accelerations: []
    effort: []
    time_from_start: 
      secs: 0
      nsecs: 240000000
---
header: 
  seq: 144
  stamp: 
    secs: 1740539840
    nsecs: 294397354
  frame_id: ''
joint_names: 
  - joint_1
  - joint_2
  - joint_3
  - joint_4
  - joint_5
  - joint_6
  - tcp_lin
  - tcp_rot
points: 
  - 
    positions: [0.0, 0.14400000000000004, -1.5707963267948966, 0.0, 0.0, 0.0, 0.1, 0.1]
    velocities: []
    accelerations: []
    effort: []
    time_from_start: 
      secs: 0
      nsecs: 240000000
---
header: 
  seq: 145
  stamp: 
    secs: 1740539840
    nsecs: 494718551
  frame_id: ''
joint_names: 
  - joint_1
  - joint_2
  - joint_3
  - joint_4
  - joint_5
  - joint_6
  - tcp_lin
  - tcp_rot
points: 
  - 
    positions: [0.0, 0.12000000000000004, -1.5707963267948966, 0.0, 0.0, 0.0, 0.1, 0.1]
    velocities: []
    accelerations: []
    effort: []
    time_from_start: 
      secs: 0
      nsecs: 240000000
---
header: 
  seq: 146
  stamp: 
    secs: 1740539840
    nsecs: 694386243
  frame_id: ''
joint_names: 
  - joint_1
  - joint_2
  - joint_3
  - joint_4
  - joint_5
  - joint_6
  - tcp_lin
  - tcp_rot
points: 
  - 
    positions: [0.0, 0.09600000000000003, -1.5707963267948966, 0.0, 0.0, 0.0, 0.1, 0.1]
    velocities: []
    accelerations: []
    effort: []
    time_from_start: 
      secs: 0
      nsecs: 240000000
---
header: 
  seq: 147
  stamp: 
    secs: 1740539840
    nsecs: 894326210
  frame_id: ''
joint_names: 
  - joint_1
  - joint_2
  - joint_3
  - joint_4
  - joint_5
  - joint_6
  - tcp_lin
  - tcp_rot
points: 
  - 
    positions: [0.0, 0.07200000000000002, -1.5707963267948966, 0.0, 0.0, 0.0, 0.1, 0.1]
    velocities: []
    accelerations: []
    effort: []
    time_from_start: 
      secs: 0
      nsecs: 240000000
---
header: 
  seq: 148
  stamp: 
