header: 
  seq: 1
  stamp: 
    secs: 1738886681
    nsecs: 723485231
  frame_id: ''
joint_names: 
  - joint_1
  - joint_2
  - joint_3
  - joint_4
  - joint_5
  - joint_6
  - tcp_lin
  - tcp_rot
points: 
  - 
    positions: [0.0, 0.0, -0.0, 0.0, 0.0, 0.0, 0.1, 0.1]
    velocities: [0.0, 0.0, 0.0, 0.0, 0.0, 0.0, 0.0, 0.0]
    accelerations: []
    effort: []
    time_from_start: 
      secs: 0
      nsecs: 100000000
---
header: 
  seq: 2
  stamp: 
    secs: 1738886681
    nsecs: 773607015
  frame_id: ''
joint_names: 
  - joint_1
  - joint_2
  - joint_3
  - joint_4
  - joint_5
  - joint_6
  - tcp_lin
  - tcp_rot
points: 
  - 
    positions: [0.00015304560759106213, 0.00015304560759106213, -0.00015304560759106213, 0.00015304560759106213, 0.00015304560759106213, 0.00015304560759106213, 0.1, 0.1]
    velocities: [0.0015304560759106212, 0.0015304560759106212, 0.0015304560759106212, 0.0015304560759106212, 0.0015304560759106212, 0.0015304560759106212, 0.0015304560759106212, 0.0]
    accelerations: []
    effort: []
    time_from_start: 
      secs: 0
      nsecs: 100000000
---
header: 
  seq: 3
  stamp: 
    secs: 1738886681
    nsecs: 823804855
  frame_id: ''
joint_names: 
  - joint_1
  - joint_2
  - joint_3
  - joint_4
  - joint_5
  - joint_6
  - tcp_lin
  - tcp_rot
points: 
  - 
    positions: [0.0006887052341597796, 0.0006887052341597796, -0.0006887052341597796, 0.0006887052341597796, 0.0006887052341597796, 0.0006887052341597796, 0.1, 0.1]
    velocities: [0.006121824303642485, 0.006121824303642485, 0.006121824303642485, 0.006121824303642485, 0.006121824303642485, 0.006121824303642485, 0.006121824303642485, 0.0]
    accelerations: []
    effort: []
    time_from_start: 
      secs: 0
      nsecs: 100000000
---
header: 
  seq: 4
  stamp: 
    secs: 1738886681
    nsecs: 874266624
  frame_id: ''
joint_names: 
  - joint_1
  - joint_2
  - joint_3
  - joint_4
  - joint_5
  - joint_6
  - tcp_lin
  - tcp_rot
points: 
  - 
    positions: [0.0017600244872972145, 0.0017600244872972145, -0.0017600244872972145, 0.0017600244872972145, 0.0017600244872972145, 0.0017600244872972145, 0.1, 0.1]
    velocities: [0.013774104683195593, 0.013774104683195593, 0.013774104683195593, 0.013774104683195593, 0.013774104683195593, 0.013774104683195593, 0.013774104683195593, 0.0]
    accelerations: []
    effort: []
    time_from_start: 
      secs: 0
      nsecs: 100000000
---
header: 
  seq: 5
  stamp: 
    secs: 1738886681
    nsecs: 923678398
  frame_id: ''
joint_names: 
  - joint_1
  - joint_2
  - joint_3
  - joint_4
  - joint_5
  - joint_6
  - tcp_lin
  - tcp_rot
points: 
  - 
    positions: [0.003520048974594429, 0.003520048974594429, -0.003520048974594429, 0.003520048974594429, 0.003520048974594429, 0.003520048974594429, 0.1, 0.1]
    velocities: [0.02448729721456994, 0.02448729721456994, 0.02448729721456994, 0.02448729721456994, 0.02448729721456994, 0.02448729721456994, 0.02448729721456994, 0.0]
    accelerations: []
    effort: []
    time_from_start: 
      secs: 0
      nsecs: 100000000
---
header: 
  seq: 6
  stamp: 
    secs: 1738886681
    nsecs: 973785877
  frame_id: ''
joint_names: 
  - joint_1
  - joint_2
  - joint_3
  - joint_4
  - joint_5
  - joint_6
  - tcp_lin
  - tcp_rot
points: 
  - 
    positions: [0.006121441689623508, 0.006121441689623508, -0.006121441689623508, 0.006121441689623508, 0.006121441689623508, 0.006121441689623508, 0.1, 0.1]
    velocities: [0.03825757575757576, 0.03825757575757576, 0.03825757575757576, 0.03825757575757576, 0.03825757575757576, 0.03825757575757576, 0.03825757575757576, 0.0]
    accelerations: []
    effort: []
    time_from_start: 
      secs: 0
      nsecs: 100000000
---
header: 
  seq: 7
  stamp: 
    secs: 1738886682
    nsecs:  23650646
  frame_id: ''
joint_names: 
  - joint_1
  - joint_2
  - joint_3
  - joint_4
  - joint_5
  - joint_6
  - tcp_lin
  - tcp_rot
points: 
  - 
    positions: [0.009549471992653812, 0.009549471992653812, -0.009549471992653812, 0.009549471992653812, 0.009549471992653812, 0.009549471992653812, 0.1, 0.1]
    velocities: [0.05340909090909091, 0.05340909090909091, 0.05340909090909091, 0.05340909090909091, 0.05340909090909091, 0.05340909090909091, 0.05340909090909091, 0.0]
    accelerations: []
    effort: []
    time_from_start: 
      secs: 0
      nsecs: 100000000
---
header: 
  seq: 8
  stamp: 
    secs: 1738886682
    nsecs:  73775529
  frame_id: ''
joint_names: 
  - joint_1
  - joint_2
  - joint_3
  - joint_4
  - joint_5
  - joint_6
  - tcp_lin
  - tcp_rot
points: 
  - 
    positions: [0.013735078053259873, 0.013735078053259873, -0.013735078053259873, 0.013735078053259873, 0.013735078053259873, 0.013735078053259873, 0.1, 0.1]
    velocities: [0.06856060606060606, 0.06856060606060606, 0.06856060606060606, 0.06856060606060606, 0.06856060606060606, 0.06856060606060606, 0.06856060606060606, 0.0]
    accelerations: []
    effort: []
    time_from_start: 
      secs: 0
      nsecs: 100000000
---
header: 
  seq: 9
  stamp: 
    secs: 1738886682
    nsecs: 123650074
  frame_id: ''
joint_names: 
  - joint_1
  - joint_2
  - joint_3
  - joint_4
  - joint_5
  - joint_6
  - tcp_lin
  - tcp_rot
points: 
  - 
    positions: [0.01867825987144169, 0.01867825987144169, -0.01867825987144169, 0.01867825987144169, 0.01867825987144169, 0.01867825987144169, 0.1, 0.1]
    velocities: [0.08371212121212121, 0.08371212121212121, 0.08371212121212121, 0.08371212121212121, 0.08371212121212121, 0.08371212121212121, 0.08371212121212121, 0.0]
    accelerations: []
    effort: []
    time_from_start: 
      secs: 0
      nsecs: 100000000
---
header: 
  seq: 10
  stamp: 
    secs: 1738886682
    nsecs: 173571825
  frame_id: ''
joint_names: 
  - joint_1
  - joint_2
  - joint_3
  - joint_4
  - joint_5
  - joint_6
  - tcp_lin
  - tcp_rot
points: 
  - 
    positions: [0.024379017447199263, 0.024379017447199263, -0.024379017447199263, 0.024379017447199263, 0.024379017447199263, 0.024379017447199263, 0.1, 0.1]
    velocities: [0.09886363636363636, 0.09886363636363636, 0.09886363636363636, 0.09886363636363636, 0.09886363636363636, 0.09886363636363636, 0.09886363636363636, 0.0]
    accelerations: []
    effort: []
    time_from_start: 
      secs: 0
      nsecs: 100000000
---
header: 
  seq: 11
  stamp: 
    secs: 1738886682
    nsecs: 223656415
  frame_id: ''
joint_names: 
  - joint_1
  - joint_2
  - joint_3
  - joint_4
  - joint_5
  - joint_6
  - tcp_lin
  - tcp_rot
points: 
  - 
    positions: [0.030837350780532596, 0.030837350780532596, -0.030837350780532596, 0.030837350780532596, 0.030837350780532596, 0.030837350780532596, 0.1, 0.1]
    velocities: [0.11401515151515151, 0.11401515151515151, 0.11401515151515151, 0.11401515151515151, 0.11401515151515151, 0.11401515151515151, 0.11401515151515151, 0.0]
    accelerations: []
    effort: []
    time_from_start: 
      secs: 0
      nsecs: 100000000
---
header: 
  seq: 12
  stamp: 
    secs: 1738886682
    nsecs: 273571729
  frame_id: ''
joint_names: 
  - joint_1
  - joint_2
  - joint_3
  - joint_4
  - joint_5
  - joint_6
  - tcp_lin
  - tcp_rot
points: 
  - 
    positions: [0.03805325987144169, 0.03805325987144169, -0.03805325987144169, 0.03805325987144169, 0.03805325987144169, 0.03805325987144169, 0.1, 0.1]
    velocities: [0.12916666666666668, 0.12916666666666668, 0.12916666666666668, 0.12916666666666668, 0.12916666666666668, 0.12916666666666668, 0.12916666666666668, 0.0]
    accelerations: []
    effort: []
    time_from_start: 
      secs: 0
      nsecs: 100000000
---
header: 
  seq: 13
  stamp: 
    secs: 1738886682
    nsecs: 323871850
  frame_id: ''
joint_names: 
  - joint_1
  - joint_2
  - joint_3
  - joint_4
  - joint_5
  - joint_6
  - tcp_lin
  - tcp_rot
points: 
  - 
    positions: [0.046026744719926536, 0.046026744719926536, -0.046026744719926536, 0.046026744719926536, 0.046026744719926536, 0.046026744719926536, 0.1, 0.1]
    velocities: [0.14431818181818182, 0.14431818181818182, 0.14431818181818182, 0.14431818181818182, 0.14431818181818182, 0.14431818181818182, 0.14431818181818182, 0.0]
    accelerations: []
    effort: []
    time_from_start: 
      secs: 0
      nsecs: 100000000
---
header: 
  seq: 14
  stamp: 
    secs: 1738886682
    nsecs: 373631954
  frame_id: ''
joint_names: 
  - joint_1
  - joint_2
  - joint_3
  - joint_4
  - joint_5
  - joint_6
  - tcp_lin
  - tcp_rot
points: 
  - 
    positions: [0.05475780532598714, 0.05475780532598714, -0.05475780532598714, 0.05475780532598714, 0.05475780532598714, 0.05475780532598714, 0.1, 0.1]
    velocities: [0.15946969696969696, 0.15946969696969696, 0.15946969696969696, 0.15946969696969696, 0.15946969696969696, 0.15946969696969696, 0.15946969696969696, 0.0]
    accelerations: []
    effort: []
    time_from_start: 
      secs: 0
      nsecs: 100000000
---
header: 
  seq: 15
  stamp: 
    secs: 1738886682
    nsecs: 423581361
  frame_id: ''
joint_names: 
  - joint_1
  - joint_2
  - joint_3
  - joint_4
  - joint_5
  - joint_6
  - tcp_lin
  - tcp_rot
points: 
  - 
    positions: [0.06424644168962351, 0.06424644168962351, -0.06424644168962351, 0.06424644168962351, 0.06424644168962351, 0.06424644168962351, 0.1, 0.1]
    velocities: [0.17462121212121212, 0.17462121212121212, 0.17462121212121212, 0.17462121212121212, 0.17462121212121212, 0.17462121212121212, 0.17462121212121212, 0.0]
    accelerations: []
    effort: []
    time_from_start: 
      secs: 0
      nsecs: 100000000
---
header: 
  seq: 16
  stamp: 
    secs: 1738886682
    nsecs: 473561763
  frame_id: ''
joint_names: 
  - joint_1
  - joint_2
  - joint_3
  - joint_4
  - joint_5
  - joint_6
  - tcp_lin
  - tcp_rot
points: 
  - 
    positions: [0.07449265381083564, 0.07449265381083564, -0.07449265381083564, 0.07449265381083564, 0.07449265381083564, 0.07449265381083564, 0.1, 0.1]
    velocities: [0.18977272727272726, 0.18977272727272726, 0.18977272727272726, 0.18977272727272726, 0.18977272727272726, 0.18977272727272726, 0.18977272727272726, 0.0]
    accelerations: []
    effort: []
    time_from_start: 
      secs: 0
      nsecs: 100000000
---
header: 
  seq: 17
  stamp: 
    secs: 1738886682
    nsecs: 523563146
  frame_id: ''
joint_names: 
  - joint_1
  - joint_2
  - joint_3
  - joint_4
  - joint_5
  - joint_6
  - tcp_lin
  - tcp_rot
points: 
  - 
    positions: [0.08549644168962352, 0.08549644168962352, -0.08549644168962352, 0.08549644168962352, 0.08549644168962352, 0.08549644168962352, 0.1, 0.1]
    velocities: [0.20492424242424243, 0.20492424242424243, 0.20492424242424243, 0.20492424242424243, 0.20492424242424243, 0.20492424242424243, 0.20492424242424243, 0.0]
    accelerations: []
    effort: []
    time_from_start: 
      secs: 0
      nsecs: 100000000
---
header: 
  seq: 18
  stamp: 
    secs: 1738886682
    nsecs: 573554992
  frame_id: ''
joint_names: 
  - joint_1
  - joint_2
  - joint_3
  - joint_4
  - joint_5
  - joint_6
  - tcp_lin
  - tcp_rot
points: 
  - 
    positions: [0.09725780532598716, 0.09725780532598716, -0.09725780532598716, 0.09725780532598716, 0.09725780532598716, 0.09725780532598716, 0.1, 0.1]
    velocities: [0.22007575757575756, 0.22007575757575756, 0.22007575757575756, 0.22007575757575756, 0.22007575757575756, 0.22007575757575756, 0.22007575757575756, 0.0]
    accelerations: []
    effort: []
    time_from_start: 
      secs: 0
      nsecs: 100000000
---
header: 
  seq: 19
  stamp: 
    secs: 1738886682
    nsecs: 623569250
  frame_id: ''
joint_names: 
  - joint_1
  - joint_2
  - joint_3
  - joint_4
  - joint_5
  - joint_6
  - tcp_lin
  - tcp_rot
points: 
  - 
    positions: [0.10977674471992656, 0.10977674471992656, -0.10977674471992656, 0.10977674471992656, 0.10977674471992656, 0.10977674471992656, 0.1, 0.1]
    velocities: [0.2352272727272727, 0.2352272727272727, 0.2352272727272727, 0.2352272727272727, 0.2352272727272727, 0.2352272727272727, 0.2352272727272727, 0.0]
    accelerations: []
    effort: []
    time_from_start: 
      secs: 0
      nsecs: 100000000
---
header: 
  seq: 20
  stamp: 
    secs: 1738886682
    nsecs: 673751354
  frame_id: ''
joint_names: 
  - joint_1
  - joint_2
  - joint_3
  - joint_4
  - joint_5
  - joint_6
  - tcp_lin
  - tcp_rot
points: 
  - 
    positions: [0.12305325987144171, 0.12305325987144171, -0.12305325987144171, 0.12305325987144171, 0.12305325987144171, 0.12305325987144171, 0.1, 0.1]
    velocities: [0.25037878787878787, 0.25037878787878787, 0.25037878787878787, 0.25037878787878787, 0.25037878787878787, 0.25037878787878787, 0.25037878787878787, 0.0]
    accelerations: []
    effort: []
    time_from_start: 
      secs: 0
      nsecs: 100000000
---
header: 
  seq: 21
  stamp: 
    secs: 1738886682
    nsecs: 723654747
  frame_id: ''
joint_names: 
  - joint_1
  - joint_2
  - joint_3
  - joint_4
  - joint_5
  - joint_6
  - tcp_lin
  - tcp_rot
points: 
  - 
    positions: [0.13708122895622898, 0.13708122895622898, -0.13708122895622898, 0.13708122895622898, 0.13708122895622898, 0.13708122895622898, 0.1, 0.1]
    velocities: [0.2654690847872666, 0.2654690847872666, 0.2654690847872666, 0.2654690847872666, 0.2654690847872666, 0.2654690847872666, 0.2654690847872666, 0.0]
    accelerations: []
    effort: []
    time_from_start: 
      secs: 0
      nsecs: 100000000
---
header: 
  seq: 22
  stamp: 
    secs: 1738886682
    nsecs: 773608207
  frame_id: ''
joint_names: 
  - joint_1
  - joint_2
  - joint_3
  - joint_4
  - joint_5
  - joint_6
  - tcp_lin
  - tcp_rot
points: 
  - 
    positions: [0.15165557086011636, 0.15165557086011636, -0.15165557086011636, 0.15165557086011636, 0.15165557086011636, 0.15165557086011636, 0.1, 0.1]
    velocities: [0.27847796143250686, 0.27847796143250686, 0.27847796143250686, 0.27847796143250686, 0.27847796143250686, 0.27847796143250686, 0.27847796143250686, 0.0]
    accelerations: []
    effort: []
    time_from_start: 
      secs: 0
      nsecs: 100000000
---
header: 
  seq: 23
  stamp: 
    secs: 1738886682
    nsecs: 823532819
  frame_id: ''
joint_names: 
  - joint_1
  - joint_2
  - joint_3
  - joint_4
  - joint_5
  - joint_6
  - tcp_lin
  - tcp_rot
points: 
  - 
    positions: [0.1665742653810836, 0.1665742653810836, -0.1665742653810836, 0.1665742653810836, 0.1665742653810836, 0.1665742653810836, 0.1, 0.1]
    velocities: [0.2884259259259259, 0.2884259259259259, 0.2884259259259259, 0.2884259259259259, 0.2884259259259259, 0.2884259259259259, 0.2884259259259259, 0.0]
    accelerations: []
    effort: []
    time_from_start: 
      secs: 0
      nsecs: 100000000
---
header: 
  seq: 24
  stamp: 
    secs: 1738886682
    nsecs: 873575210
  frame_id: ''
joint_names: 
  - joint_1
  - joint_2
  - joint_3
  - joint_4
  - joint_5
  - joint_6
  - tcp_lin
  - tcp_rot
points: 
  - 
    positions: [0.1816842669115397, 0.1816842669115397, -0.1816842669115397, 0.1816842669115397, 0.1816842669115397, 0.1816842669115397, 0.1, 0.1]
    velocities: [0.29531297826752373, 0.29531297826752373, 0.29531297826752373, 0.29531297826752373, 0.29531297826752373, 0.29531297826752373, 0.29531297826752373, 0.0]
    accelerations: []
    effort: []
    time_from_start: 
      secs: 0
      nsecs: 100000000
---
header: 
  seq: 25
  stamp: 
    secs: 1738886682
    nsecs: 923571825
  frame_id: ''
joint_names: 
  - joint_1
  - joint_2
  - joint_3
  - joint_4
  - joint_5
  - joint_6
  - tcp_lin
  - tcp_rot
points: 
  - 
    positions: [0.19683252984389354, 0.19683252984389354, -0.19683252984389354, 0.19683252984389354, 0.19683252984389354, 0.19683252984389354, 0.1, 0.1]
    velocities: [0.2991391184573003, 0.2991391184573003, 0.2991391184573003, 0.2991391184573003, 0.2991391184573003, 0.2991391184573003, 0.2991391184573003, 0.0]
    accelerations: []
    effort: []
    time_from_start: 
      secs: 0
      nsecs: 100000000
---
header: 
  seq: 26
  stamp: 
    secs: 1738886682
    nsecs: 973603725
  frame_id: ''
joint_names: 
  - joint_1
  - joint_2
  - joint_3
  - joint_4
  - joint_5
  - joint_6
  - tcp_lin
  - tcp_rot
points: 
  - 
    positions: [0.21187557392102851, 0.21187557392102851, -0.21187557392102851, 0.21187557392102851, 0.21187557392102851, 0.21187557392102851, 0.1, 0.1]
    velocities: [0.3, 0.3, 0.3, 0.3, 0.3, 0.3, 0.3, 0.0]
    accelerations: []
    effort: []
    time_from_start: 
      secs: 0
      nsecs: 100000000
---
header: 
  seq: 27
  stamp: 
    secs: 1738886683
    nsecs:  23955345
  frame_id: ''
joint_names: 
  - joint_1
  - joint_2
  - joint_3
  - joint_4
  - joint_5
  - joint_6
  - tcp_lin
  - tcp_rot
points: 
  - 
    positions: [0.22687557392102853, 0.22687557392102853, -0.22687557392102853, 0.22687557392102853, 0.22687557392102853, 0.22687557392102853, 0.1, 0.1]
    velocities: [0.3, 0.3, 0.3, 0.3, 0.3, 0.3, 0.3, 0.0]
    accelerations: []
    effort: []
    time_from_start: 
      secs: 0
      nsecs: 100000000
---
header: 
  seq: 28
  stamp: 
    secs: 1738886683
    nsecs:  73613882
  frame_id: ''
joint_names: 
  - joint_1
  - joint_2
  - joint_3
  - joint_4
  - joint_5
  - joint_6
  - tcp_lin
  - tcp_rot
points: 
  - 
    positions: [0.24187557392102854, 0.24187557392102854, -0.24187557392102854, 0.24187557392102854, 0.24187557392102854, 0.24187557392102854, 0.1, 0.1]
    velocities: [0.3, 0.3, 0.3, 0.3, 0.3, 0.3, 0.3, 0.0]
    accelerations: []
    effort: []
    time_from_start: 
      secs: 0
      nsecs: 100000000
---
header: 
  seq: 29
  stamp: 
    secs: 1738886683
    nsecs: 123799800
  frame_id: ''
joint_names: 
  - joint_1
  - joint_2
  - joint_3
  - joint_4
  - joint_5
  - joint_6
  - tcp_lin
  - tcp_rot
points: 
  - 
    positions: [0.25687557392102855, 0.25687557392102855, -0.25687557392102855, 0.25687557392102855, 0.25687557392102855, 0.25687557392102855, 0.1, 0.1]
    velocities: [0.3, 0.3, 0.3, 0.3, 0.3, 0.3, 0.3, 0.0]
    accelerations: []
    effort: []
    time_from_start: 
      secs: 0
      nsecs: 100000000
---
header: 
  seq: 30
  stamp: 
    secs: 1738886683
    nsecs: 173651456
  frame_id: ''
joint_names: 
  - joint_1
  - joint_2
  - joint_3
  - joint_4
  - joint_5
  - joint_6
  - tcp_lin
  - tcp_rot
points: 
  - 
    positions: [0.27187557392102857, 0.27187557392102857, -0.27187557392102857, 0.27187557392102857, 0.27187557392102857, 0.27187557392102857, 0.1, 0.1]
    velocities: [0.3, 0.3, 0.3, 0.3, 0.3, 0.3, 0.3, 0.0]
    accelerations: []
    effort: []
    time_from_start: 
      secs: 0
      nsecs: 100000000
---
header: 
  seq: 31
  stamp: 
    secs: 1738886683
    nsecs: 223559617
  frame_id: ''
joint_names: 
  - joint_1
  - joint_2
  - joint_3
  - joint_4
  - joint_5
  - joint_6
  - tcp_lin
  - tcp_rot
points: 
  - 
    positions: [0.2868755739210286, 0.2868755739210286, -0.2868755739210286, 0.2868755739210286, 0.2868755739210286, 0.2868755739210286, 0.1, 0.1]
    velocities: [0.3, 0.3, 0.3, 0.3, 0.3, 0.3, 0.3, 0.0]
    accelerations: []
    effort: []
    time_from_start: 
      secs: 0
      nsecs: 100000000
---
header: 
  seq: 32
  stamp: 
    secs: 1738886683
    nsecs: 273563623
  frame_id: ''
joint_names: 
  - joint_1
  - joint_2
  - joint_3
  - joint_4
  - joint_5
  - joint_6
  - tcp_lin
  - tcp_rot
points: 
  - 
    positions: [0.3018755739210286, 0.3018755739210286, -0.3018755739210286, 0.3018755739210286, 0.3018755739210286, 0.3018755739210286, 0.1, 0.1]
    velocities: [0.3, 0.3, 0.3, 0.3, 0.3, 0.3, 0.3, 0.0]
    accelerations: []
    effort: []
    time_from_start: 
      secs: 0
      nsecs: 100000000
---
header: 
  seq: 33
  stamp: 
    secs: 1738886683
    nsecs: 323565483
  frame_id: ''
joint_names: 
  - joint_1
  - joint_2
  - joint_3
  - joint_4
  - joint_5
  - joint_6
  - tcp_lin
  - tcp_rot
points: 
  - 
    positions: [0.3168755739210286, 0.3168755739210286, -0.3168755739210286, 0.3168755739210286, 0.3168755739210286, 0.3168755739210286, 0.1, 0.1]
    velocities: [0.3, 0.3, 0.3, 0.3, 0.3, 0.3, 0.3, 0.0]
    accelerations: []
    effort: []
    time_from_start: 
      secs: 0
      nsecs: 100000000
---
header: 
  seq: 34
  stamp: 
    secs: 1738886683
    nsecs: 373571634
  frame_id: ''
joint_names: 
  - joint_1
  - joint_2
  - joint_3
  - joint_4
  - joint_5
  - joint_6
  - tcp_lin
  - tcp_rot
points: 
  - 
    positions: [0.3318755739210286, 0.3318755739210286, -0.3318755739210286, 0.3318755739210286, 0.3318755739210286, 0.3318755739210286, 0.1, 0.1]
    velocities: [0.3, 0.3, 0.3, 0.3, 0.3, 0.3, 0.3, 0.0]
    accelerations: []
    effort: []
    time_from_start: 
      secs: 0
      nsecs: 100000000
---
header: 
  seq: 35
  stamp: 
    secs: 1738886683
    nsecs: 423575639
  frame_id: ''
joint_names: 
  - joint_1
  - joint_2
  - joint_3
  - joint_4
  - joint_5
  - joint_6
  - tcp_lin
  - tcp_rot
points: 
  - 
    positions: [0.34687557392102863, 0.34687557392102863, -0.34687557392102863, 0.34687557392102863, 0.34687557392102863, 0.34687557392102863, 0.1, 0.1]
    velocities: [0.3, 0.3, 0.3, 0.3, 0.3, 0.3, 0.3, 0.0]
    accelerations: []
    effort: []
    time_from_start: 
      secs: 0
      nsecs: 100000000
---
header: 
  seq: 36
  stamp: 
    secs: 1738886683
    nsecs: 473838090
  frame_id: ''
joint_names: 
  - joint_1
  - joint_2
  - joint_3
  - joint_4
  - joint_5
  - joint_6
  - tcp_lin
  - tcp_rot
points: 
  - 
    positions: [0.36187557392102865, 0.36187557392102865, -0.36187557392102865, 0.36187557392102865, 0.36187557392102865, 0.36187557392102865, 0.1, 0.1]
    velocities: [0.3, 0.3, 0.3, 0.3, 0.3, 0.3, 0.3, 0.0]
    accelerations: []
    effort: []
    time_from_start: 
      secs: 0
      nsecs: 100000000
---
header: 
  seq: 37
  stamp: 
    secs: 1738886683
    nsecs: 523622751
  frame_id: ''
joint_names: 
  - joint_1
  - joint_2
  - joint_3
  - joint_4
  - joint_5
  - joint_6
  - tcp_lin
  - tcp_rot
points: 
  - 
    positions: [0.37687557392102866, 0.37687557392102866, -0.37687557392102866, 0.37687557392102866, 0.37687557392102866, 0.37687557392102866, 0.1, 0.1]
    velocities: [0.3, 0.3, 0.3, 0.3, 0.3, 0.3, 0.3, 0.0]
    accelerations: []
    effort: []
    time_from_start: 
      secs: 0
      nsecs: 100000000
---
header: 
  seq: 38
  stamp: 
    secs: 1738886683
    nsecs: 573850631
  frame_id: ''
joint_names: 
  - joint_1
  - joint_2
  - joint_3
  - joint_4
  - joint_5
  - joint_6
  - tcp_lin
  - tcp_rot
points: 
  - 
    positions: [0.3918755739210287, 0.3918755739210287, -0.3918755739210287, 0.3918755739210287, 0.3918755739210287, 0.3918755739210287, 0.1, 0.1]
    velocities: [0.3, 0.3, 0.3, 0.3, 0.3, 0.3, 0.3, 0.0]
    accelerations: []
    effort: []
    time_from_start: 
      secs: 0
      nsecs: 100000000
---
header: 
  seq: 39
  stamp: 
    secs: 1738886683
    nsecs: 624071836
  frame_id: ''
joint_names: 
  - joint_1
  - joint_2
  - joint_3
  - joint_4
  - joint_5
  - joint_6
  - tcp_lin
  - tcp_rot
points: 
  - 
    positions: [0.4068755739210287, 0.4068755739210287, -0.4068755739210287, 0.4068755739210287, 0.4068755739210287, 0.4068755739210287, 0.1, 0.1]
    velocities: [0.3, 0.3, 0.3, 0.3, 0.3, 0.3, 0.3, 0.0]
    accelerations: []
    effort: []
    time_from_start: 
      secs: 0
      nsecs: 100000000
---
header: 
  seq: 40
  stamp: 
    secs: 1738886683
    nsecs: 673608303
  frame_id: ''
joint_names: 
  - joint_1
  - joint_2
  - joint_3
  - joint_4
  - joint_5
  - joint_6
  - tcp_lin
  - tcp_rot
points: 
  - 
    positions: [0.4218755739210287, 0.4218755739210287, -0.4218755739210287, 0.4218755739210287, 0.4218755739210287, 0.4218755739210287, 0.1, 0.1]
    velocities: [0.3, 0.3, 0.3, 0.3, 0.3, 0.3, 0.3, 0.0]
    accelerations: []
    effort: []
    time_from_start: 
      secs: 0
      nsecs: 100000000
---
header: 
  seq: 41
  stamp: 
    secs: 1738886683
    nsecs: 723565816
  frame_id: ''
joint_names: 
  - joint_1
  - joint_2
  - joint_3
  - joint_4
  - joint_5
  - joint_6
  - tcp_lin
  - tcp_rot
points: 
  - 
    positions: [0.4368755739210287, 0.4368755739210287, -0.4368755739210287, 0.4368755739210287, 0.4368755739210287, 0.4368755739210287, 0.1, 0.1]
    velocities: [0.3, 0.3, 0.3, 0.3, 0.3, 0.3, 0.3, 0.0]
    accelerations: []
    effort: []
    time_from_start: 
      secs: 0
      nsecs: 100000000
---
header: 
  seq: 42
  stamp: 
    secs: 1738886683
    nsecs: 773559808
  frame_id: ''
joint_names: 
  - joint_1
  - joint_2
  - joint_3
  - joint_4
  - joint_5
  - joint_6
  - tcp_lin
  - tcp_rot
points: 
  - 
    positions: [0.45187557392102873, 0.45187557392102873, -0.45187557392102873, 0.45187557392102873, 0.45187557392102873, 0.45187557392102873, 0.1, 0.1]
    velocities: [0.3, 0.3, 0.3, 0.3, 0.3, 0.3, 0.3, 0.0]
    accelerations: []
    effort: []
    time_from_start: 
      secs: 0
      nsecs: 100000000
---
header: 
  seq: 43
  stamp: 
    secs: 1738886683
    nsecs: 823698759
  frame_id: ''
joint_names: 
  - joint_1
  - joint_2
  - joint_3
  - joint_4
  - joint_5
  - joint_6
  - tcp_lin
  - tcp_rot
points: 
  - 
    positions: [0.46687557392102874, 0.46687557392102874, -0.46687557392102874, 0.46687557392102874, 0.46687557392102874, 0.46687557392102874, 0.1, 0.1]
    velocities: [0.3, 0.3, 0.3, 0.3, 0.3, 0.3, 0.3, 0.0]
    accelerations: []
    effort: []
    time_from_start: 
      secs: 0
      nsecs: 100000000
---
header: 
  seq: 44
  stamp: 
    secs: 1738886683
    nsecs: 873572826
  frame_id: ''
joint_names: 
  - joint_1
  - joint_2
  - joint_3
  - joint_4
  - joint_5
  - joint_6
  - tcp_lin
  - tcp_rot
points: 
  - 
    positions: [0.48187557392102875, 0.48187557392102875, -0.48187557392102875, 0.48187557392102875, 0.48187557392102875, 0.48187557392102875, 0.1, 0.1]
    velocities: [0.3, 0.3, 0.3, 0.3, 0.3, 0.3, 0.3, 0.0]
    accelerations: []
    effort: []
    time_from_start: 
      secs: 0
      nsecs: 100000000
---
header: 
  seq: 45
  stamp: 
    secs: 1738886683
    nsecs: 923719882
  frame_id: ''
joint_names: 
  - joint_1
  - joint_2
  - joint_3
  - joint_4
  - joint_5
  - joint_6
  - tcp_lin
  - tcp_rot
points: 
  - 
    positions: [0.49687557392102877, 0.49687557392102877, -0.49687557392102877, 0.49687557392102877, 0.49687557392102877, 0.49687557392102877, 0.1, 0.1]
    velocities: [0.3, 0.3, 0.3, 0.3, 0.3, 0.3, 0.3, 0.0]
    accelerations: []
    effort: []
    time_from_start: 
      secs: 0
      nsecs: 100000000
---
header: 
  seq: 46
  stamp: 
    secs: 1738886683
    nsecs: 973579406
  frame_id: ''
joint_names: 
  - joint_1
  - joint_2
  - joint_3
  - joint_4
  - joint_5
  - joint_6
  - tcp_lin
  - tcp_rot
points: 
  - 
    positions: [0.5118755739210288, 0.5118755739210288, -0.5118755739210288, 0.5118755739210288, 0.5118755739210288, 0.5118755739210288, 0.1, 0.1]
    velocities: [0.3, 0.3, 0.3, 0.3, 0.3, 0.3, 0.3, 0.0]
    accelerations: []
    effort: []
    time_from_start: 
      secs: 0
      nsecs: 100000000
---
header: 
  seq: 47
  stamp: 
    secs: 1738886684
    nsecs:  23579120
  frame_id: ''
joint_names: 
  - joint_1
  - joint_2
  - joint_3
  - joint_4
  - joint_5
  - joint_6
  - tcp_lin
  - tcp_rot
points: 
  - 
    positions: [0.5268755739210288, 0.5268755739210288, -0.5268755739210288, 0.5268755739210288, 0.5268755739210288, 0.5268755739210288, 0.1, 0.1]
    velocities: [0.3, 0.3, 0.3, 0.3, 0.3, 0.3, 0.3, 0.0]
    accelerations: []
    effort: []
    time_from_start: 
      secs: 0
      nsecs: 100000000
---
header: 
  seq: 48
  stamp: 
    secs: 1738886684
    nsecs:  73568582
  frame_id: ''
joint_names: 
  - joint_1
  - joint_2
  - joint_3
  - joint_4
  - joint_5
  - joint_6
  - tcp_lin
  - tcp_rot
points: 
  - 
    positions: [0.5418755739210288, 0.5418755739210288, -0.5418755739210288, 0.5418755739210288, 0.5418755739210288, 0.5418755739210288, 0.1, 0.1]
    velocities: [0.3, 0.3, 0.3, 0.3, 0.3, 0.3, 0.3, 0.0]
    accelerations: []
    effort: []
    time_from_start: 
      secs: 0
      nsecs: 100000000
---
header: 
  seq: 49
  stamp: 
    secs: 1738886684
    nsecs: 123567819
  frame_id: ''
joint_names: 
  - joint_1
  - joint_2
  - joint_3
  - joint_4
  - joint_5
  - joint_6
  - tcp_lin
  - tcp_rot
points: 
  - 
    positions: [0.5568755739210288, 0.5568755739210288, -0.5568755739210288, 0.5568755739210288, 0.5568755739210288, 0.5568755739210288, 0.1, 0.1]
    velocities: [0.3, 0.3, 0.3, 0.3, 0.3, 0.3, 0.3, 0.0]
    accelerations: []
    effort: []
    time_from_start: 
      secs: 0
      nsecs: 100000000
---
header: 
  seq: 50
  stamp: 
    secs: 1738886684
    nsecs: 173568010
  frame_id: ''
joint_names: 
  - joint_1
  - joint_2
  - joint_3
  - joint_4
  - joint_5
  - joint_6
  - tcp_lin
  - tcp_rot
points: 
  - 
    positions: [0.5718755739210288, 0.5718755739210288, -0.5718755739210288, 0.5718755739210288, 0.5718755739210288, 0.5718755739210288, 0.1, 0.1]
    velocities: [0.3, 0.3, 0.3, 0.3, 0.3, 0.3, 0.3, 0.0]
    accelerations: []
    effort: []
    time_from_start: 
      secs: 0
      nsecs: 100000000
---
header: 
  seq: 51
  stamp: 
    secs: 1738886684
    nsecs: 223586320
  frame_id: ''
joint_names: 
  - joint_1
  - joint_2
  - joint_3
  - joint_4
  - joint_5
  - joint_6
  - tcp_lin
  - tcp_rot
points: 
  - 
    positions: [0.5868755739210288, 0.5868755739210288, -0.5868755739210288, 0.5868755739210288, 0.5868755739210288, 0.5868755739210288, 0.1, 0.1]
    velocities: [0.3, 0.3, 0.3, 0.3, 0.3, 0.3, 0.3, 0.0]
    accelerations: []
    effort: []
    time_from_start: 
      secs: 0
      nsecs: 100000000
---
header: 
  seq: 52
  stamp: 
    secs: 1738886684
    nsecs: 274219751
  frame_id: ''
joint_names: 
  - joint_1
  - joint_2
  - joint_3
  - joint_4
  - joint_5
  - joint_6
  - tcp_lin
  - tcp_rot
points: 
  - 
    positions: [0.6018755739210289, 0.6018755739210289, -0.6018755739210289, 0.6018755739210289, 0.6018755739210289, 0.6018755739210289, 0.1, 0.1]
    velocities: [0.3, 0.3, 0.3, 0.3, 0.3, 0.3, 0.3, 0.0]
    accelerations: []
    effort: []
    time_from_start: 
      secs: 0
      nsecs: 100000000
---
header: 
  seq: 53
  stamp: 
    secs: 1738886684
    nsecs: 323782444
  frame_id: ''
joint_names: 
  - joint_1
  - joint_2
  - joint_3
  - joint_4
  - joint_5
  - joint_6
  - tcp_lin
  - tcp_rot
points: 
  - 
    positions: [0.6168755739210289, 0.6168755739210289, -0.6168755739210289, 0.6168755739210289, 0.6168755739210289, 0.6168755739210289, 0.1, 0.1]
    velocities: [0.3, 0.3, 0.3, 0.3, 0.3, 0.3, 0.3, 0.0]
    accelerations: []
    effort: []
    time_from_start: 
      secs: 0
      nsecs: 100000000
---
header: 
  seq: 54
  stamp: 
    secs: 1738886684
    nsecs: 373965978
  frame_id: ''
joint_names: 
  - joint_1
  - joint_2
  - joint_3
  - joint_4
  - joint_5
  - joint_6
  - tcp_lin
  - tcp_rot
points: 
  - 
    positions: [0.6318755739210289, 0.6318755739210289, -0.6318755739210289, 0.6318755739210289, 0.6318755739210289, 0.6318755739210289, 0.1, 0.1]
    velocities: [0.3, 0.3, 0.3, 0.3, 0.3, 0.3, 0.3, 0.0]
    accelerations: []
    effort: []
    time_from_start: 
      secs: 0
      nsecs: 100000000
---
header: 
  seq: 55
  stamp: 
    secs: 1738886684
    nsecs: 423574209
  frame_id: ''
joint_names: 
  - joint_1
  - joint_2
  - joint_3
  - joint_4
  - joint_5
  - joint_6
  - tcp_lin
  - tcp_rot
points: 
  - 
    positions: [0.6468755739210289, 0.6468755739210289, -0.6468755739210289, 0.6468755739210289, 0.6468755739210289, 0.6468755739210289, 0.1, 0.1]
    velocities: [0.3, 0.3, 0.3, 0.3, 0.3, 0.3, 0.3, 0.0]
    accelerations: []
    effort: []
    time_from_start: 
      secs: 0
      nsecs: 100000000
---
header: 
  seq: 56
  stamp: 
    secs: 1738886684
    nsecs: 473842144
  frame_id: ''
joint_names: 
  - joint_1
  - joint_2
  - joint_3
  - joint_4
  - joint_5
  - joint_6
  - tcp_lin
  - tcp_rot
points: 
  - 
    positions: [0.6618755739210289, 0.6618755739210289, -0.6618755739210289, 0.6618755739210289, 0.6618755739210289, 0.6618755739210289, 0.1, 0.1]
    velocities: [0.3, 0.3, 0.3, 0.3, 0.3, 0.3, 0.3, 0.0]
    accelerations: []
    effort: []
    time_from_start: 
      secs: 0
      nsecs: 100000000
---
header: 
  seq: 57
  stamp: 
    secs: 1738886684
    nsecs: 523641586
  frame_id: ''
joint_names: 
  - joint_1
  - joint_2
  - joint_3
  - joint_4
  - joint_5
  - joint_6
  - tcp_lin
  - tcp_rot
points: 
  - 
    positions: [0.6768755739210289, 0.6768755739210289, -0.6768755739210289, 0.6768755739210289, 0.6768755739210289, 0.6768755739210289, 0.1, 0.1]
    velocities: [0.3, 0.3, 0.3, 0.3, 0.3, 0.3, 0.3, 0.0]
    accelerations: []
    effort: []
    time_from_start: 
      secs: 0
      nsecs: 100000000
---
header: 
  seq: 58
  stamp: 
    secs: 1738886684
    nsecs: 573578357
  frame_id: ''
joint_names: 
  - joint_1
  - joint_2
  - joint_3
  - joint_4
  - joint_5
  - joint_6
  - tcp_lin
  - tcp_rot
points: 
  - 
    positions: [0.6918755739210289, 0.6918755739210289, -0.6918755739210289, 0.6918755739210289, 0.6918755739210289, 0.6918755739210289, 0.1, 0.1]
    velocities: [0.3, 0.3, 0.3, 0.3, 0.3, 0.3, 0.3, 0.0]
    accelerations: []
    effort: []
    time_from_start: 
      secs: 0
      nsecs: 100000000
---
header: 
  seq: 59
  stamp: 
    secs: 1738886684
    nsecs: 623642444
  frame_id: ''
joint_names: 
  - joint_1
  - joint_2
  - joint_3
  - joint_4
  - joint_5
  - joint_6
  - tcp_lin
  - tcp_rot
points: 
  - 
    positions: [0.706875573921029, 0.706875573921029, -0.706875573921029, 0.706875573921029, 0.706875573921029, 0.706875573921029, 0.1, 0.1]
    velocities: [0.3, 0.3, 0.3, 0.3, 0.3, 0.3, 0.3, 0.0]
    accelerations: []
    effort: []
    time_from_start: 
      secs: 0
      nsecs: 100000000
---
header: 
  seq: 60
  stamp: 
    secs: 1738886684
    nsecs: 673590898
  frame_id: ''
joint_names: 
  - joint_1
  - joint_2
  - joint_3
  - joint_4
  - joint_5
  - joint_6
  - tcp_lin
  - tcp_rot
points: 
  - 
    positions: [0.721875573921029, 0.721875573921029, -0.721875573921029, 0.721875573921029, 0.721875573921029, 0.721875573921029, 0.1, 0.1]
    velocities: [0.3, 0.3, 0.3, 0.3, 0.3, 0.3, 0.3, 0.0]
    accelerations: []
    effort: []
    time_from_start: 
      secs: 0
      nsecs: 100000000
---
header: 
  seq: 61
  stamp: 
    secs: 1738886684
    nsecs: 723743438
  frame_id: ''
joint_names: 
  - joint_1
  - joint_2
  - joint_3
  - joint_4
  - joint_5
  - joint_6
  - tcp_lin
  - tcp_rot
points: 
  - 
    positions: [0.736875573921029, 0.736875573921029, -0.736875573921029, 0.736875573921029, 0.736875573921029, 0.736875573921029, 0.1, 0.1]
    velocities: [0.3, 0.3, 0.3, 0.3, 0.3, 0.3, 0.3, 0.0]
    accelerations: []
    effort: []
    time_from_start: 
      secs: 0
      nsecs: 100000000
---
header: 
  seq: 62
  stamp: 
    secs: 1738886684
    nsecs: 773586988
  frame_id: ''
joint_names: 
  - joint_1
  - joint_2
  - joint_3
  - joint_4
  - joint_5
  - joint_6
  - tcp_lin
  - tcp_rot
points: 
  - 
    positions: [0.751875573921029, 0.751875573921029, -0.751875573921029, 0.751875573921029, 0.751875573921029, 0.751875573921029, 0.1, 0.1]
    velocities: [0.3, 0.3, 0.3, 0.3, 0.3, 0.3, 0.3, 0.0]
    accelerations: []
    effort: []
    time_from_start: 
      secs: 0
      nsecs: 100000000
---
header: 
  seq: 63
  stamp: 
    secs: 1738886684
    nsecs: 823589563
  frame_id: ''
joint_names: 
  - joint_1
  - joint_2
  - joint_3
  - joint_4
  - joint_5
  - joint_6
  - tcp_lin
  - tcp_rot
points: 
  - 
    positions: [0.766875573921029, 0.766875573921029, -0.766875573921029, 0.766875573921029, 0.766875573921029, 0.766875573921029, 0.1, 0.1]
    velocities: [0.3, 0.3, 0.3, 0.3, 0.3, 0.3, 0.3, 0.0]
    accelerations: []
    effort: []
    time_from_start: 
      secs: 0
      nsecs: 100000000
---
header: 
  seq: 64
  stamp: 
    secs: 1738886684
    nsecs: 873565435
  frame_id: ''
joint_names: 
  - joint_1
  - joint_2
  - joint_3
  - joint_4
  - joint_5
  - joint_6
  - tcp_lin
  - tcp_rot
points: 
  - 
    positions: [0.781875573921029, 0.781875573921029, -0.781875573921029, 0.781875573921029, 0.781875573921029, 0.781875573921029, 0.1, 0.1]
    velocities: [0.3, 0.3, 0.3, 0.3, 0.3, 0.3, 0.3, 0.0]
    accelerations: []
    effort: []
    time_from_start: 
      secs: 0
      nsecs: 100000000
---
header: 
  seq: 65
  stamp: 
    secs: 1738886684
    nsecs: 923559427
  frame_id: ''
joint_names: 
  - joint_1
  - joint_2
  - joint_3
  - joint_4
  - joint_5
  - joint_6
  - tcp_lin
  - tcp_rot
points: 
  - 
    positions: [0.796875573921029, 0.796875573921029, -0.796875573921029, 0.796875573921029, 0.796875573921029, 0.796875573921029, 0.1, 0.1]
    velocities: [0.3, 0.3, 0.3, 0.3, 0.3, 0.3, 0.3, 0.0]
    accelerations: []
    effort: []
    time_from_start: 
      secs: 0
      nsecs: 100000000
---
header: 
  seq: 66
  stamp: 
    secs: 1738886684
    nsecs: 973559617
  frame_id: ''
joint_names: 
  - joint_1
  - joint_2
  - joint_3
  - joint_4
  - joint_5
  - joint_6
  - tcp_lin
  - tcp_rot
points: 
  - 
    positions: [0.811875573921029, 0.811875573921029, -0.811875573921029, 0.811875573921029, 0.811875573921029, 0.811875573921029, 0.1, 0.1]
    velocities: [0.3, 0.3, 0.3, 0.3, 0.3, 0.3, 0.3, 0.0]
    accelerations: []
    effort: []
    time_from_start: 
      secs: 0
      nsecs: 100000000
---
header: 
  seq: 67
  stamp: 
    secs: 1738886685
    nsecs:  23559331
  frame_id: ''
joint_names: 
  - joint_1
  - joint_2
  - joint_3
  - joint_4
  - joint_5
  - joint_6
  - tcp_lin
  - tcp_rot
points: 
  - 
    positions: [0.8268755739210291, 0.8268755739210291, -0.8268755739210291, 0.8268755739210291, 0.8268755739210291, 0.8268755739210291, 0.1, 0.1]
    velocities: [0.3, 0.3, 0.3, 0.3, 0.3, 0.3, 0.3, 0.0]
    accelerations: []
    effort: []
    time_from_start: 
      secs: 0
      nsecs: 100000000
---
header: 
  seq: 68
  stamp: 
    secs: 1738886685
    nsecs:  73743343
  frame_id: ''
joint_names: 
  - joint_1
  - joint_2
  - joint_3
  - joint_4
  - joint_5
  - joint_6
  - tcp_lin
  - tcp_rot
points: 
  - 
    positions: [0.8418755739210291, 0.8418755739210291, -0.8418755739210291, 0.8418755739210291, 0.8418755739210291, 0.8418755739210291, 0.1, 0.1]
    velocities: [0.3, 0.3, 0.3, 0.3, 0.3, 0.3, 0.3, 0.0]
    accelerations: []
    effort: []
    time_from_start: 
      secs: 0
      nsecs: 100000000
---
header: 
  seq: 69
  stamp: 
    secs: 1738886685
    nsecs: 123699665
  frame_id: ''
joint_names: 
  - joint_1
  - joint_2
  - joint_3
  - joint_4
  - joint_5
  - joint_6
  - tcp_lin
  - tcp_rot
points: 
  - 
    positions: [0.8568755739210291, 0.8568755739210291, -0.8568755739210291, 0.8568755739210291, 0.8568755739210291, 0.8568755739210291, 0.1, 0.1]
    velocities: [0.3, 0.3, 0.3, 0.3, 0.3, 0.3, 0.3, 0.0]
    accelerations: []
    effort: []
    time_from_start: 
      secs: 0
      nsecs: 100000000
---
header: 
  seq: 70
  stamp: 
    secs: 1738886685
    nsecs: 173577070
  frame_id: ''
joint_names: 
  - joint_1
  - joint_2
  - joint_3
  - joint_4
  - joint_5
  - joint_6
  - tcp_lin
  - tcp_rot
points: 
  - 
    positions: [0.8718755739210291, 0.8718755739210291, -0.8718755739210291, 0.8718755739210291, 0.8718755739210291, 0.8718755739210291, 0.1, 0.1]
    velocities: [0.3, 0.3, 0.3, 0.3, 0.3, 0.3, 0.3, 0.0]
    accelerations: []
    effort: []
    time_from_start: 
      secs: 0
      nsecs: 100000000
---
header: 
  seq: 71
  stamp: 
    secs: 1738886685
    nsecs: 223564624
  frame_id: ''
joint_names: 
  - joint_1
  - joint_2
  - joint_3
  - joint_4
  - joint_5
  - joint_6
  - tcp_lin
  - tcp_rot
points: 
  - 
    positions: [0.8868755739210291, 0.8868755739210291, -0.8868755739210291, 0.8868755739210291, 0.8868755739210291, 0.8868755739210291, 0.1, 0.1]
    velocities: [0.3, 0.3, 0.3, 0.3, 0.3, 0.3, 0.3, 0.0]
    accelerations: []
    effort: []
    time_from_start: 
      secs: 0
      nsecs: 100000000
---
header: 
  seq: 72
  stamp: 
    secs: 1738886685
    nsecs: 273559808
  frame_id: ''
joint_names: 
  - joint_1
  - joint_2
  - joint_3
  - joint_4
  - joint_5
  - joint_6
  - tcp_lin
  - tcp_rot
points: 
  - 
    positions: [0.9018755739210291, 0.9018755739210291, -0.9018755739210291, 0.9018755739210291, 0.9018755739210291, 0.9018755739210291, 0.1, 0.1]
    velocities: [0.3, 0.3, 0.3, 0.3, 0.3, 0.3, 0.3, 0.0]
    accelerations: []
    effort: []
    time_from_start: 
      secs: 0
      nsecs: 100000000
---
header: 
  seq: 73
  stamp: 
    secs: 1738886685
    nsecs: 323572158
  frame_id: ''
joint_names: 
  - joint_1
  - joint_2
  - joint_3
  - joint_4
  - joint_5
  - joint_6
  - tcp_lin
  - tcp_rot
points: 
  - 
    positions: [0.9168755739210291, 0.9168755739210291, -0.9168755739210291, 0.9168755739210291, 0.9168755739210291, 0.9168755739210291, 0.1, 0.1]
    velocities: [0.3, 0.3, 0.3, 0.3, 0.3, 0.3, 0.3, 0.0]
    accelerations: []
    effort: []
    time_from_start: 
      secs: 0
      nsecs: 100000000
---
header: 
  seq: 74
  stamp: 
    secs: 1738886685
    nsecs: 373584270
  frame_id: ''
joint_names: 
  - joint_1
  - joint_2
  - joint_3
  - joint_4
  - joint_5
  - joint_6
  - tcp_lin
  - tcp_rot
points: 
  - 
    positions: [0.9318755739210292, 0.9318755739210292, -0.9318755739210292, 0.9318755739210292, 0.9318755739210292, 0.9318755739210292, 0.1, 0.1]
    velocities: [0.3, 0.3, 0.3, 0.3, 0.3, 0.3, 0.3, 0.0]
    accelerations: []
    effort: []
    time_from_start: 
      secs: 0
      nsecs: 100000000
---
header: 
  seq: 75
  stamp: 
    secs: 1738886685
    nsecs: 424151182
  frame_id: ''
joint_names: 
  - joint_1
  - joint_2
  - joint_3
  - joint_4
  - joint_5
  - joint_6
  - tcp_lin
  - tcp_rot
points: 
  - 
    positions: [0.9468755739210292, 0.9468755739210292, -0.9468755739210292, 0.9468755739210292, 0.9468755739210292, 0.9468755739210292, 0.1, 0.1]
    velocities: [0.3, 0.3, 0.3, 0.3, 0.3, 0.3, 0.3, 0.0]
    accelerations: []
    effort: []
    time_from_start: 
      secs: 0
      nsecs: 100000000
---
header: 
  seq: 76
  stamp: 
    secs: 1738886685
    nsecs: 473627328
  frame_id: ''
joint_names: 
  - joint_1
  - joint_2
  - joint_3
  - joint_4
  - joint_5
  - joint_6
  - tcp_lin
  - tcp_rot
points: 
  - 
    positions: [0.9617894857667592, 0.9617894857667592, -0.9617894857667592, 0.9617894857667592, 0.9617894857667592, 0.9617894857667592, 0.1, 0.1]
    velocities: [0.2991391184573003, 0.2991391184573003, 0.2991391184573003, 0.2991391184573003, 0.2991391184573003, 0.2991391184573003, 0.2991391184573003, 0.0]
    accelerations: []
    effort: []
    time_from_start: 
      secs: 0
      nsecs: 100000000
---
header: 
  seq: 77
  stamp: 
    secs: 1738886685
    nsecs: 523713588
  frame_id: ''
joint_names: 
  - joint_1
  - joint_2
  - joint_3
  - joint_4
  - joint_5
  - joint_6
  - tcp_lin
  - tcp_rot
points: 
  - 
    positions: [0.9763638276706464, 0.9763638276706464, -0.9763638276706464, 0.9763638276706464, 0.9763638276706464, 0.9763638276706464, 0.1, 0.1]
    velocities: [0.29531297826752373, 0.29531297826752373, 0.29531297826752373, 0.29531297826752373, 0.29531297826752373, 0.29531297826752373, 0.29531297826752373, 0.0]
    accelerations: []
    effort: []
    time_from_start: 
      secs: 0
      nsecs: 100000000
---
header: 
  seq: 78
  stamp: 
    secs: 1738886685
    nsecs: 573611497
  frame_id: ''
joint_names: 
  - joint_1
  - joint_2
  - joint_3
  - joint_4
  - joint_5
  - joint_6
  - tcp_lin
  - tcp_rot
points: 
  - 
    positions: [0.990440771349863, 0.990440771349863, -0.990440771349863, 0.990440771349863, 0.990440771349863, 0.990440771349863, 0.1, 0.1]
    velocities: [0.28842592592592586, 0.28842592592592586, 0.28842592592592586, 0.28842592592592586, 0.28842592592592586, 0.28842592592592586, 0.28842592592592586, 0.0]
    accelerations: []
    effort: []
    time_from_start: 
      secs: 0
      nsecs: 100000000
---
header: 
  seq: 79
  stamp: 
    secs: 1738886685
    nsecs: 623576879
  frame_id: ''
joint_names: 
  - joint_1
  - joint_2
  - joint_3
  - joint_4
  - joint_5
  - joint_6
  - tcp_lin
  - tcp_rot
points: 
  - 
    positions: [1.0038672711968175, 1.0038672711968175, -1.0038672711968175, 1.0038672711968175, 1.0038672711968175, 1.0038672711968175, 0.1, 0.1]
    velocities: [0.27847796143250686, 0.27847796143250686, 0.27847796143250686, 0.27847796143250686, 0.27847796143250686, 0.27847796143250686, 0.27847796143250686, 0.0]
    accelerations: []
    effort: []
    time_from_start: 
      secs: 0
      nsecs: 100000000
---
header: 
  seq: 80
  stamp: 
    secs: 1738886685
    nsecs: 673561573
  frame_id: ''
joint_names: 
  - joint_1
  - joint_2
  - joint_3
  - joint_4
  - joint_5
  - joint_6
  - tcp_lin
  - tcp_rot
points: 
  - 
    positions: [1.0164902816039187, 1.0164902816039187, -1.0164902816039187, 1.0164902816039187, 1.0164902816039187, 1.0164902816039187, 0.1, 0.1]
    velocities: [0.26546908478726666, 0.26546908478726666, 0.26546908478726666, 0.26546908478726666, 0.26546908478726666, 0.26546908478726666, 0.26546908478726666, 0.0]
    accelerations: []
    effort: []
    time_from_start: 
      secs: 0
      nsecs: 100000000
---
header: 
  seq: 81
  stamp: 
    secs: 1738886685
    nsecs: 723586082
  frame_id: ''
joint_names: 
  - joint_1
  - joint_2
  - joint_3
  - joint_4
  - joint_5
  - joint_6
  - tcp_lin
  - tcp_rot
points: 
  - 
    positions: [1.0282547061524343, 1.0282547061524343, -1.0282547061524343, 1.0282547061524343, 1.0282547061524343, 1.0282547061524343, 0.1, 0.1]
    velocities: [0.2503787878787878, 0.2503787878787878, 0.2503787878787878, 0.2503787878787878, 0.2503787878787878, 0.2503787878787878, 0.2503787878787878, 0.0]
    accelerations: []
    effort: []
    time_from_start: 
      secs: 0
      nsecs: 100000000
---
header: 
  seq: 82
  stamp: 
    secs: 1738886685
    nsecs: 773581027
  frame_id: ''
joint_names: 
  - joint_1
  - joint_2
  - joint_3
  - joint_4
  - joint_5
  - joint_6
  - tcp_lin
  - tcp_rot
points: 
  - 
    positions: [1.0392584940312222, 1.0392584940312222, -1.0392584940312222, 1.0392584940312222, 1.0392584940312222, 1.0392584940312222, 0.1, 0.1]
    velocities: [0.23522727272727273, 0.23522727272727273, 0.23522727272727273, 0.23522727272727273, 0.23522727272727273, 0.23522727272727273, 0.23522727272727273, 0.0]
    accelerations: []
    effort: []
    time_from_start: 
      secs: 0
      nsecs: 100000000
---
header: 
  seq: 83
  stamp: 
    secs: 1738886685
    nsecs: 823551654
  frame_id: ''
joint_names: 
  - joint_1
  - joint_2
  - joint_3
  - joint_4
  - joint_5
  - joint_6
  - tcp_lin
  - tcp_rot
points: 
  - 
    positions: [1.0495047061524343, 1.0495047061524343, -1.0495047061524343, 1.0495047061524343, 1.0495047061524343, 1.0495047061524343, 0.1, 0.1]
    velocities: [0.2200757575757577, 0.2200757575757577, 0.2200757575757577, 0.2200757575757577, 0.2200757575757577, 0.2200757575757577, 0.2200757575757577, 0.0]
    accelerations: []
    effort: []
    time_from_start: 
      secs: 0
      nsecs: 100000000
---
header: 
  seq: 84
  stamp: 
    secs: 1738886685
    nsecs: 874269247
  frame_id: ''
joint_names: 
  - joint_1
  - joint_2
  - joint_3
  - joint_4
  - joint_5
  - joint_6
  - tcp_lin
  - tcp_rot
points: 
  - 
    positions: [1.0589933425160707, 1.0589933425160707, -1.0589933425160707, 1.0589933425160707, 1.0589933425160707, 1.0589933425160707, 0.1, 0.1]
    velocities: [0.2049242424242424, 0.2049242424242424, 0.2049242424242424, 0.2049242424242424, 0.2049242424242424, 0.2049242424242424, 0.2049242424242424, 0.0]
    accelerations: []
    effort: []
    time_from_start: 
      secs: 0
      nsecs: 100000000
---
header: 
  seq: 85
  stamp: 
    secs: 1738886685
    nsecs: 923658609
  frame_id: ''
joint_names: 
  - joint_1
  - joint_2
  - joint_3
  - joint_4
  - joint_5
  - joint_6
  - tcp_lin
  - tcp_rot
points: 
  - 
    positions: [1.0677244031221313, 1.0677244031221313, -1.0677244031221313, 1.0677244031221313, 1.0677244031221313, 1.0677244031221313, 0.1, 0.1]
    velocities: [0.18977272727272732, 0.18977272727272732, 0.18977272727272732, 0.18977272727272732, 0.18977272727272732, 0.18977272727272732, 0.18977272727272732, 0.0]
    accelerations: []
    effort: []
    time_from_start: 
      secs: 0
      nsecs: 100000000
---
header: 
  seq: 86
  stamp: 
    secs: 1738886685
    nsecs: 973846435
  frame_id: ''
joint_names: 
  - joint_1
  - joint_2
  - joint_3
  - joint_4
  - joint_5
  - joint_6
  - tcp_lin
  - tcp_rot
points: 
  - 
    positions: [1.075697887970616, 1.075697887970616, -1.075697887970616, 1.075697887970616, 1.075697887970616, 1.075697887970616, 0.1, 0.1]
    velocities: [0.174621212121212, 0.174621212121212, 0.174621212121212, 0.174621212121212, 0.174621212121212, 0.174621212121212, 0.174621212121212, 0.0]
    accelerations: []
    effort: []
    time_from_start: 
      secs: 0
      nsecs: 100000000
---
header: 
  seq: 87
  stamp: 
    secs: 1738886686
    nsecs:  23639440
  frame_id: ''
joint_names: 
  - joint_1
  - joint_2
  - joint_3
  - joint_4
  - joint_5
  - joint_6
  - tcp_lin
  - tcp_rot
points: 
  - 
    positions: [1.082913797061525, 1.082913797061525, -1.082913797061525, 1.082913797061525, 1.082913797061525, 1.082913797061525, 0.1, 0.1]
    velocities: [0.15946969696969696, 0.15946969696969696, 0.15946969696969696, 0.15946969696969696, 0.15946969696969696, 0.15946969696969696, 0.15946969696969696, 0.0]
    accelerations: []
    effort: []
    time_from_start: 
      secs: 0
      nsecs: 100000000
---
header: 
  seq: 88
  stamp: 
    secs: 1738886686
    nsecs:  73610305
  frame_id: ''
joint_names: 
  - joint_1
  - joint_2
  - joint_3
  - joint_4
  - joint_5
  - joint_6
  - tcp_lin
  - tcp_rot
points: 
  - 
    positions: [1.0893721303948583, 1.0893721303948583, -1.0893721303948583, 1.0893721303948583, 1.0893721303948583, 1.0893721303948583, 0.1, 0.1]
    velocities: [0.14431818181818193, 0.14431818181818193, 0.14431818181818193, 0.14431818181818193, 0.14431818181818193, 0.14431818181818193, 0.14431818181818193, 0.0]
    accelerations: []
    effort: []
    time_from_start: 
      secs: 0
      nsecs: 100000000
---
header: 
  seq: 89
  stamp: 
    secs: 1738886686
    nsecs: 123564004
  frame_id: ''
joint_names: 
  - joint_1
  - joint_2
  - joint_3
  - joint_4
  - joint_5
  - joint_6
  - tcp_lin
  - tcp_rot
points: 
  - 
    positions: [1.0950728879706157, 1.0950728879706157, -1.0950728879706157, 1.0950728879706157, 1.0950728879706157, 1.0950728879706157, 0.1, 0.1]
    velocities: [0.1291666666666666, 0.1291666666666666, 0.1291666666666666, 0.1291666666666666, 0.1291666666666666, 0.1291666666666666, 0.1291666666666666, 0.0]
    accelerations: []
    effort: []
    time_from_start: 
      secs: 0
      nsecs: 100000000
---
header: 
  seq: 90
  stamp: 
    secs: 1738886686
    nsecs: 173563718
  frame_id: ''
joint_names: 
  - joint_1
  - joint_2
  - joint_3
  - joint_4
  - joint_5
  - joint_6
  - tcp_lin
  - tcp_rot
points: 
  - 
    positions: [1.1000160697887977, 1.1000160697887977, -1.1000160697887977, 1.1000160697887977, 1.1000160697887977, 1.1000160697887977, 0.1, 0.1]
    velocities: [0.11401515151515154, 0.11401515151515154, 0.11401515151515154, 0.11401515151515154, 0.11401515151515154, 0.11401515151515154, 0.11401515151515154, 0.0]
    accelerations: []
    effort: []
    time_from_start: 
      secs: 0
      nsecs: 100000000
---
header: 
  seq: 91
  stamp: 
    secs: 1738886686
    nsecs: 223648548
  frame_id: ''
joint_names: 
  - joint_1
  - joint_2
  - joint_3
  - joint_4
  - joint_5
  - joint_6
  - tcp_lin
  - tcp_rot
points: 
  - 
    positions: [1.104201675849404, 1.104201675849404, -1.104201675849404, 1.104201675849404, 1.104201675849404, 1.104201675849404, 0.1, 0.1]
    velocities: [0.09886363636363651, 0.09886363636363651, 0.09886363636363651, 0.09886363636363651, 0.09886363636363651, 0.09886363636363651, 0.09886363636363651, 0.0]
    accelerations: []
    effort: []
    time_from_start: 
      secs: 0
      nsecs: 100000000
---
header: 
  seq: 92
  stamp: 
    secs: 1738886686
    nsecs: 273593664
  frame_id: ''
joint_names: 
  - joint_1
  - joint_2
  - joint_3
  - joint_4
  - joint_5
  - joint_6
  - tcp_lin
  - tcp_rot
points: 
  - 
    positions: [1.1076297061524343, 1.1076297061524343, -1.1076297061524343, 1.1076297061524343, 1.1076297061524343, 1.1076297061524343, 0.1, 0.1]
    velocities: [0.08371212121212118, 0.08371212121212118, 0.08371212121212118, 0.08371212121212118, 0.08371212121212118, 0.08371212121212118, 0.08371212121212118, 0.0]
    accelerations: []
    effort: []
    time_from_start: 
      secs: 0
      nsecs: 100000000
---
header: 
  seq: 93
  stamp: 
    secs: 1738886686
    nsecs: 324239015
  frame_id: ''
joint_names: 
  - joint_1
  - joint_2
  - joint_3
  - joint_4
  - joint_5
  - joint_6
  - tcp_lin
  - tcp_rot
points: 
  - 
    positions: [1.1103001606978888, 1.1103001606978888, -1.1103001606978888, 1.1103001606978888, 1.1103001606978888, 1.1103001606978888, 0.1, 0.1]
    velocities: [0.06856060606060616, 0.06856060606060616, 0.06856060606060616, 0.06856060606060616, 0.06856060606060616, 0.06856060606060616, 0.06856060606060616, 0.0]
    accelerations: []
    effort: []
    time_from_start: 
      secs: 0
      nsecs: 100000000
---
header: 
  seq: 94
  stamp: 
    secs: 1738886686
    nsecs: 373595476
  frame_id: ''
joint_names: 
  - joint_1
  - joint_2
  - joint_3
  - joint_4
  - joint_5
  - joint_6
  - tcp_lin
  - tcp_rot
points: 
  - 
    positions: [1.1122130394857677, 1.1122130394857677, -1.1122130394857677, 1.1122130394857677, 1.1122130394857677, 1.1122130394857677, 0.1, 0.1]
    velocities: [0.05340909090909082, 0.05340909090909082, 0.05340909090909082, 0.05340909090909082, 0.05340909090909082, 0.05340909090909082, 0.05340909090909082, 0.0]
    accelerations: []
    effort: []
    time_from_start: 
      secs: 0
      nsecs: 100000000
---
header: 
  seq: 95
  stamp: 
    secs: 1738886686
    nsecs: 423576593
  frame_id: ''
joint_names: 
  - joint_1
  - joint_2
  - joint_3
  - joint_4
  - joint_5
  - joint_6
  - tcp_lin
  - tcp_rot
points: 
  - 
    positions: [1.1133683425160708, 1.1133683425160708, -1.1133683425160708, 1.1133683425160708, 1.1133683425160708, 1.1133683425160708, 0.1, 0.1]
    velocities: [0.03825757575757577, 0.03825757575757577, 0.03825757575757577, 0.03825757575757577, 0.03825757575757577, 0.03825757575757577, 0.03825757575757577, 0.0]
    accelerations: []
    effort: []
    time_from_start: 
      secs: 0
      nsecs: 100000000
---
header: 
  seq: 96
  stamp: 
    secs: 1738886686
    nsecs: 473591327
  frame_id: ''
joint_names: 
  - joint_1
  - joint_2
  - joint_3
  - joint_4
  - joint_5
  - joint_6
  - tcp_lin
  - tcp_rot
points: 
  - 
    positions: [1.113904193449649, 1.113904193449649, -1.113904193449649, 1.113904193449649, 1.113904193449649, 1.113904193449649, 0.1, 0.1]
    velocities: [0.02448729721457004, 0.02448729721457004, 0.02448729721457004, 0.02448729721457004, 0.02448729721457004, 0.02448729721457004, 0.02448729721457004, 0.0]
    accelerations: []
    effort: []
    time_from_start: 
      secs: 0
      nsecs: 100000000
---
header: 
  seq: 97
  stamp: 
    secs: 1738886686
    nsecs: 523576498
  frame_id: ''
joint_names: 
  - joint_1
  - joint_2
  - joint_3
  - joint_4
  - joint_5
  - joint_6
  - tcp_lin
  - tcp_rot
points: 
  - 
    positions: [1.11405723905724, 1.11405723905724, -1.11405723905724, 1.11405723905724, 1.11405723905724, 1.11405723905724, 0.1, 0.1]
    velocities: [0.013774104683195568, 0.013774104683195568, 0.013774104683195568, 0.013774104683195568, 0.013774104683195568, 0.013774104683195568, 0.013774104683195568, 0.0]
    accelerations: []
    effort: []
    time_from_start: 
      secs: 0
      nsecs: 100000000
---
header: 
  seq: 98
  stamp: 
    secs: 1738886686
    nsecs: 573575973
  frame_id: ''
joint_names: 
  - joint_1
  - joint_2
  - joint_3
  - joint_4
  - joint_5
  - joint_6
  - tcp_lin
  - tcp_rot
points: 
  - 
    positions: [1.1139807162534445, 1.1139807162534445, -1.1139807162534445, 1.1139807162534445, 1.1139807162534445, 1.1139807162534445, 0.1, 0.1]
    velocities: [0.00612182430364251, 0.00612182430364251, 0.00612182430364251, 0.00612182430364251, 0.00612182430364251, 0.00612182430364251, 0.00612182430364251, 0.0]
    accelerations: []
    effort: []
    time_from_start: 
      secs: 0
      nsecs: 100000000
---
header: 
  seq: 99
  stamp: 
    secs: 1738886686
    nsecs: 624336242
  frame_id: ''
joint_names: 
  - joint_1
  - joint_2
  - joint_3
  - joint_4
  - joint_5
  - joint_6
  - tcp_lin
  - tcp_rot
points: 
  - 
    positions: [1.1138276706458534, 1.1138276706458534, -1.1138276706458534, 1.1138276706458534, 1.1138276706458534, 1.1138276706458534, 0.1, 0.1]
    velocities: [0.0015304560759106006, 0.0015304560759106006, 0.0015304560759106006, 0.0015304560759106006, 0.0015304560759106006, 0.0015304560759106006, 0.0015304560759106006, 0.0]
    accelerations: []
    effort: []
    time_from_start: 
      secs: 0
      nsecs: 100000000
---
header: 
  seq: 100
  stamp: 
    secs: 1738886686
    nsecs: 673984527
  frame_id: ''
joint_names: 
  - joint_1
  - joint_2
  - joint_3
  - joint_4
  - joint_5
  - joint_6
  - tcp_lin
  - tcp_rot
points: 
  - 
    positions: [1.1137511478420579, 1.1137511478420579, -1.1137511478420579, 1.1137511478420579, 1.1137511478420579, 1.1137511478420579, 0.1, 0.1]
    velocities: [0.0, 0.0, 0.0, 0.0, 0.0, 0.0, 0.0, 0.0]
    accelerations: []
    effort: []
    time_from_start: 
      secs: 0
      nsecs: 100000000
---
header: 
  seq: 101
  stamp: 
    secs: 1738886686
    nsecs: 723646640
  frame_id: ''
joint_names: 
  - joint_1
  - joint_2
  - joint_3
  - joint_4
  - joint_5
  - joint_6
  - tcp_lin
  - tcp_rot
points: 
  - 
    positions: [1.1137511478420579, 1.1137511478420579, -1.1137511478420579, 1.1137511478420579, 1.1137511478420579, 1.1137511478420579, 0.1, 0.1]
    velocities: [0.0, 0.0, 0.0, 0.0, 0.0, 0.0, 0.0, 0.0]
    accelerations: []
    effort: []
    time_from_start: 
      secs: 0
      nsecs: 100000000
---
header: 
  seq: 102
  stamp: 
    secs: 1738886687
    nsecs: 774383783
  frame_id: ''
joint_names: 
  - joint_1
  - joint_2
  - joint_3
  - joint_4
  - joint_5
  - joint_6
  - tcp_lin
  - tcp_rot
points: 
  - 
    positions: [0.0, 0.0, 0.0, 0.0, 0.0, 0.0, 0.1, 0.1]
    velocities: []
    accelerations: []
    effort: []
    time_from_start: 
      secs: 3
      nsecs:         0
---
header: 
  seq: 103
  stamp: 
    secs: 1738886692
    nsecs: 778959989
  frame_id: ''
joint_names: 
  - joint_1
  - joint_2
  - joint_3
  - joint_4
  - joint_5
  - joint_6
  - tcp_lin
  - tcp_rot
points: 
  - 
    positions: [0.0, 0.0, -0.0, 0.0, 0.0, 0.0, 0.1, 0.1]
    velocities: [0.0, 0.0, 0.0, 0.0, 0.0, 0.0, 0.0, 0.0]
    accelerations: []
    effort: []
    time_from_start: 
      secs: 0
      nsecs:  66666666
---
header: 
  seq: 104
  stamp: 
    secs: 1738886692
    nsecs: 812432289
  frame_id: ''
joint_names: 
  - joint_1
  - joint_2
  - joint_3
  - joint_4
  - joint_5
  - joint_6
  - tcp_lin
  - tcp_rot
points: 
  - 
    positions: [4.5043016080356734e-05, 4.5043016080356734e-05, -4.5043016080356734e-05, 4.5043016080356734e-05, 4.5043016080356734e-05, 4.5043016080356734e-05, 0.1, 0.1]
    velocities: [0.000675645241205351, 0.000675645241205351, 0.000675645241205351, 0.000675645241205351, 0.000675645241205351, 0.000675645241205351, 0.000675645241205351, 0.0]
    accelerations: []
    effort: []
    time_from_start: 
      secs: 0
      nsecs:  66666666
---
header: 
  seq: 105
  stamp: 
    secs: 1738886692
    nsecs: 845741510
  frame_id: ''
joint_names: 
  - joint_1
  - joint_2
  - joint_3
  - joint_4
  - joint_5
  - joint_6
  - tcp_lin
  - tcp_rot
points: 
  - 
    positions: [0.0002026935723616053, 0.0002026935723616053, -0.0002026935723616053, 0.0002026935723616053, 0.0002026935723616053, 0.0002026935723616053, 0.1, 0.1]
    velocities: [0.002702580964821404, 0.002702580964821404, 0.002702580964821404, 0.002702580964821404, 0.002702580964821404, 0.002702580964821404, 0.002702580964821404, 0.0]
    accelerations: []
    effort: []
    time_from_start: 
      secs: 0
      nsecs:  66666666
---
header: 
  seq: 106
  stamp: 
    secs: 1738886692
    nsecs: 879332065
  frame_id: ''
joint_names: 
  - joint_1
  - joint_2
  - joint_3
  - joint_4
  - joint_5
  - joint_6
  - tcp_lin
  - tcp_rot
points: 
  - 
    positions: [0.0005179946849241024, 0.0005179946849241024, -0.0005179946849241024, 0.0005179946849241024, 0.0005179946849241024, 0.0005179946849241024, 0.1, 0.1]
