header: 
  seq: 1
  stamp: 
    secs: 1738887228
    nsecs: 135644674
  frame_id: ''
joint_names: 
  - joint_1
  - joint_2
  - joint_3
  - joint_4
  - joint_5
  - joint_6
  - tcp_lin
  - tcp_rot
points: 
  - 
    positions: [0.0, 0.0, -0.0, 0.0, 0.0, 0.0, 0.1, 0.1]
    velocities: [0.0, 0.0, 0.0, 0.0, 0.0, 0.0, 0.0, 0.0]
    accelerations: []
    effort: []
    time_from_start: 
      secs: 0
      nsecs:  50000000
---
header: 
  seq: 2
  stamp: 
    secs: 1738887228
    nsecs: 185724258
  frame_id: ''
joint_names: 
  - joint_1
  - joint_2
  - joint_3
  - joint_4
  - joint_5
  - joint_6
  - tcp_lin
  - tcp_rot
points: 
  - 
    positions: [7.652280379553107e-05, 7.652280379553107e-05, -7.652280379553107e-05, 7.652280379553107e-05, 7.652280379553107e-05, 7.652280379553107e-05, 0.1, 0.1]
    velocities: [0.0015304560759106212, 0.0015304560759106212, 0.0015304560759106212, 0.0015304560759106212, 0.0015304560759106212, 0.0015304560759106212, 0.0015304560759106212, 0.0]
    accelerations: []
    effort: []
    time_from_start: 
      secs: 0
      nsecs:  50000000
---
header: 
  seq: 3
  stamp: 
    secs: 1738887228
    nsecs: 235692977
  frame_id: ''
joint_names: 
  - joint_1
  - joint_2
  - joint_3
  - joint_4
  - joint_5
  - joint_6
  - tcp_lin
  - tcp_rot
points: 
  - 
    positions: [0.00038261401897765536, 0.00038261401897765536, -0.00038261401897765536, 0.00038261401897765536, 0.00038261401897765536, 0.00038261401897765536, 0.1, 0.1]
    velocities: [0.006121824303642485, 0.006121824303642485, 0.006121824303642485, 0.006121824303642485, 0.006121824303642485, 0.006121824303642485, 0.006121824303642485, 0.0]
    accelerations: []
    effort: []
    time_from_start: 
      secs: 0
      nsecs:  50000000
---
header: 
  seq: 4
  stamp: 
    secs: 1738887228
    nsecs: 285698890
  frame_id: ''
joint_names: 
  - joint_1
  - joint_2
  - joint_3
  - joint_4
  - joint_5
  - joint_6
  - tcp_lin
  - tcp_rot
points: 
  - 
    positions: [0.0010713192531374349, 0.0010713192531374349, -0.0010713192531374349, 0.0010713192531374349, 0.0010713192531374349, 0.0010713192531374349, 0.1, 0.1]
    velocities: [0.013774104683195593, 0.013774104683195593, 0.013774104683195593, 0.013774104683195593, 0.013774104683195593, 0.013774104683195593, 0.013774104683195593, 0.0]
    accelerations: []
    effort: []
    time_from_start: 
      secs: 0
      nsecs:  50000000
---
header: 
  seq: 5
  stamp: 
    secs: 1738887228
    nsecs: 335700035
  frame_id: ''
joint_names: 
  - joint_1
  - joint_2
  - joint_3
  - joint_4
  - joint_5
  - joint_6
  - tcp_lin
  - tcp_rot
points: 
  - 
    positions: [0.002295684113865932, 0.002295684113865932, -0.002295684113865932, 0.002295684113865932, 0.002295684113865932, 0.002295684113865932, 0.1, 0.1]
    velocities: [0.02448729721456994, 0.02448729721456994, 0.02448729721456994, 0.02448729721456994, 0.02448729721456994, 0.02448729721456994, 0.02448729721456994, 0.0]
    accelerations: []
    effort: []
    time_from_start: 
      secs: 0
      nsecs:  50000000
---
header: 
  seq: 6
  stamp: 
    secs: 1738887228
    nsecs: 385854005
  frame_id: ''
joint_names: 
  - joint_1
  - joint_2
  - joint_3
  - joint_4
  - joint_5
  - joint_6
  - tcp_lin
  - tcp_rot
points: 
  - 
    positions: [0.00420856290174472, 0.00420856290174472, -0.00420856290174472, 0.00420856290174472, 0.00420856290174472, 0.00420856290174472, 0.1, 0.1]
    velocities: [0.03825757575757576, 0.03825757575757576, 0.03825757575757576, 0.03825757575757576, 0.03825757575757576, 0.03825757575757576, 0.03825757575757576, 0.0]
    accelerations: []
    effort: []
    time_from_start: 
      secs: 0
      nsecs:  50000000
---
header: 
  seq: 7
  stamp: 
    secs: 1738887228
    nsecs: 435711860
  frame_id: ''
joint_names: 
  - joint_1
  - joint_2
  - joint_3
  - joint_4
  - joint_5
  - joint_6
  - tcp_lin
  - tcp_rot
points: 
  - 
    positions: [0.006879017447199265, 0.006879017447199265, -0.006879017447199265, 0.006879017447199265, 0.006879017447199265, 0.006879017447199265, 0.1, 0.1]
    velocities: [0.05340909090909091, 0.05340909090909091, 0.05340909090909091, 0.05340909090909091, 0.05340909090909091, 0.05340909090909091, 0.05340909090909091, 0.0]
    accelerations: []
    effort: []
    time_from_start: 
      secs: 0
      nsecs:  50000000
---
header: 
  seq: 8
  stamp: 
    secs: 1738887228
    nsecs: 485817670
  frame_id: ''
joint_names: 
  - joint_1
  - joint_2
  - joint_3
  - joint_4
  - joint_5
  - joint_6
  - tcp_lin
  - tcp_rot
points: 
  - 
    positions: [0.010307047750229567, 0.010307047750229567, -0.010307047750229567, 0.010307047750229567, 0.010307047750229567, 0.010307047750229567, 0.1, 0.1]
    velocities: [0.06856060606060606, 0.06856060606060606, 0.06856060606060606, 0.06856060606060606, 0.06856060606060606, 0.06856060606060606, 0.06856060606060606, 0.0]
    accelerations: []
    effort: []
    time_from_start: 
      secs: 0
      nsecs:  50000000
---
header: 
  seq: 9
  stamp: 
    secs: 1738887228
    nsecs: 535694599
  frame_id: ''
joint_names: 
  - joint_1
  - joint_2
  - joint_3
  - joint_4
  - joint_5
  - joint_6
  - tcp_lin
  - tcp_rot
points: 
  - 
    positions: [0.014492653810835629, 0.014492653810835629, -0.014492653810835629, 0.014492653810835629, 0.014492653810835629, 0.014492653810835629, 0.1, 0.1]
    velocities: [0.08371212121212121, 0.08371212121212121, 0.08371212121212121, 0.08371212121212121, 0.08371212121212121, 0.08371212121212121, 0.08371212121212121, 0.0]
    accelerations: []
    effort: []
    time_from_start: 
      secs: 0
      nsecs:  50000000
---
header: 
  seq: 10
  stamp: 
    secs: 1738887228
    nsecs: 585687398
  frame_id: ''
joint_names: 
  - joint_1
  - joint_2
  - joint_3
  - joint_4
  - joint_5
  - joint_6
  - tcp_lin
  - tcp_rot
points: 
  - 
    positions: [0.019435835629017448, 0.019435835629017448, -0.019435835629017448, 0.019435835629017448, 0.019435835629017448, 0.019435835629017448, 0.1, 0.1]
    velocities: [0.09886363636363636, 0.09886363636363636, 0.09886363636363636, 0.09886363636363636, 0.09886363636363636, 0.09886363636363636, 0.09886363636363636, 0.0]
    accelerations: []
    effort: []
    time_from_start: 
      secs: 0
      nsecs:  50000000
---
header: 
  seq: 11
  stamp: 
    secs: 1738887228
    nsecs: 635692358
  frame_id: ''
joint_names: 
  - joint_1
  - joint_2
  - joint_3
  - joint_4
  - joint_5
  - joint_6
  - tcp_lin
  - tcp_rot
points: 
  - 
    positions: [0.025136593204775022, 0.025136593204775022, -0.025136593204775022, 0.025136593204775022, 0.025136593204775022, 0.025136593204775022, 0.1, 0.1]
    velocities: [0.11401515151515151, 0.11401515151515151, 0.11401515151515151, 0.11401515151515151, 0.11401515151515151, 0.11401515151515151, 0.11401515151515151, 0.0]
    accelerations: []
    effort: []
    time_from_start: 
      secs: 0
      nsecs:  50000000
---
header: 
  seq: 12
  stamp: 
    secs: 1738887228
    nsecs: 685717821
  frame_id: ''
joint_names: 
  - joint_1
  - joint_2
  - joint_3
  - joint_4
  - joint_5
  - joint_6
  - tcp_lin
  - tcp_rot
points: 
  - 
    positions: [0.03159492653810836, 0.03159492653810836, -0.03159492653810836, 0.03159492653810836, 0.03159492653810836, 0.03159492653810836, 0.1, 0.1]
    velocities: [0.12916666666666668, 0.12916666666666668, 0.12916666666666668, 0.12916666666666668, 0.12916666666666668, 0.12916666666666668, 0.12916666666666668, 0.0]
    accelerations: []
    effort: []
    time_from_start: 
      secs: 0
      nsecs:  50000000
---
header: 
  seq: 13
  stamp: 
    secs: 1738887228
    nsecs: 735829353
  frame_id: ''
joint_names: 
  - joint_1
  - joint_2
  - joint_3
  - joint_4
  - joint_5
  - joint_6
  - tcp_lin
  - tcp_rot
points: 
  - 
    positions: [0.03881083562901745, 0.03881083562901745, -0.03881083562901745, 0.03881083562901745, 0.03881083562901745, 0.03881083562901745, 0.1, 0.1]
    velocities: [0.14431818181818182, 0.14431818181818182, 0.14431818181818182, 0.14431818181818182, 0.14431818181818182, 0.14431818181818182, 0.14431818181818182, 0.0]
    accelerations: []
    effort: []
    time_from_start: 
      secs: 0
      nsecs:  50000000
---
header: 
  seq: 14
  stamp: 
    secs: 1738887228
    nsecs: 785762310
  frame_id: ''
joint_names: 
  - joint_1
  - joint_2
  - joint_3
  - joint_4
  - joint_5
  - joint_6
  - tcp_lin
  - tcp_rot
points: 
  - 
    positions: [0.0467843204775023, 0.0467843204775023, -0.0467843204775023, 0.0467843204775023, 0.0467843204775023, 0.0467843204775023, 0.1, 0.1]
    velocities: [0.15946969696969696, 0.15946969696969696, 0.15946969696969696, 0.15946969696969696, 0.15946969696969696, 0.15946969696969696, 0.15946969696969696, 0.0]
    accelerations: []
    effort: []
    time_from_start: 
      secs: 0
      nsecs:  50000000
---
header: 
  seq: 15
  stamp: 
    secs: 1738887228
    nsecs: 835974693
  frame_id: ''
joint_names: 
  - joint_1
  - joint_2
  - joint_3
  - joint_4
  - joint_5
  - joint_6
  - tcp_lin
  - tcp_rot
points: 
  - 
    positions: [0.05551538108356291, 0.05551538108356291, -0.05551538108356291, 0.05551538108356291, 0.05551538108356291, 0.05551538108356291, 0.1, 0.1]
    velocities: [0.17462121212121212, 0.17462121212121212, 0.17462121212121212, 0.17462121212121212, 0.17462121212121212, 0.17462121212121212, 0.17462121212121212, 0.0]
    accelerations: []
    effort: []
    time_from_start: 
      secs: 0
      nsecs:  50000000
---
header: 
  seq: 16
  stamp: 
    secs: 1738887228
    nsecs: 885788917
  frame_id: ''
joint_names: 
  - joint_1
  - joint_2
  - joint_3
  - joint_4
  - joint_5
  - joint_6
  - tcp_lin
  - tcp_rot
points: 
  - 
    positions: [0.06500401744719927, 0.06500401744719927, -0.06500401744719927, 0.06500401744719927, 0.06500401744719927, 0.06500401744719927, 0.1, 0.1]
    velocities: [0.18977272727272726, 0.18977272727272726, 0.18977272727272726, 0.18977272727272726, 0.18977272727272726, 0.18977272727272726, 0.18977272727272726, 0.0]
    accelerations: []
    effort: []
    time_from_start: 
      secs: 0
      nsecs:  50000000
---
header: 
  seq: 17
  stamp: 
    secs: 1738887228
    nsecs: 935694932
  frame_id: ''
joint_names: 
  - joint_1
  - joint_2
  - joint_3
  - joint_4
  - joint_5
  - joint_6
  - tcp_lin
  - tcp_rot
points: 
  - 
    positions: [0.0752502295684114, 0.0752502295684114, -0.0752502295684114, 0.0752502295684114, 0.0752502295684114, 0.0752502295684114, 0.1, 0.1]
    velocities: [0.20492424242424243, 0.20492424242424243, 0.20492424242424243, 0.20492424242424243, 0.20492424242424243, 0.20492424242424243, 0.20492424242424243, 0.0]
    accelerations: []
    effort: []
    time_from_start: 
      secs: 0
      nsecs:  50000000
---
header: 
  seq: 18
  stamp: 
    secs: 1738887228
    nsecs: 985704660
  frame_id: ''
joint_names: 
  - joint_1
  - joint_2
  - joint_3
  - joint_4
  - joint_5
  - joint_6
  - tcp_lin
  - tcp_rot
points: 
  - 
    positions: [0.08625401744719928, 0.08625401744719928, -0.08625401744719928, 0.08625401744719928, 0.08625401744719928, 0.08625401744719928, 0.1, 0.1]
    velocities: [0.22007575757575756, 0.22007575757575756, 0.22007575757575756, 0.22007575757575756, 0.22007575757575756, 0.22007575757575756, 0.22007575757575756, 0.0]
    accelerations: []
    effort: []
    time_from_start: 
      secs: 0
      nsecs:  50000000
---
header: 
  seq: 19
  stamp: 
    secs: 1738887229
    nsecs:  35707950
  frame_id: ''
joint_names: 
  - joint_1
  - joint_2
  - joint_3
  - joint_4
  - joint_5
  - joint_6
  - tcp_lin
  - tcp_rot
points: 
  - 
    positions: [0.09801538108356292, 0.09801538108356292, -0.09801538108356292, 0.09801538108356292, 0.09801538108356292, 0.09801538108356292, 0.1, 0.1]
    velocities: [0.2352272727272727, 0.2352272727272727, 0.2352272727272727, 0.2352272727272727, 0.2352272727272727, 0.2352272727272727, 0.2352272727272727, 0.0]
    accelerations: []
    effort: []
    time_from_start: 
      secs: 0
      nsecs:  50000000
---
header: 
  seq: 20
  stamp: 
    secs: 1738887229
    nsecs:  85703611
  frame_id: ''
joint_names: 
  - joint_1
  - joint_2
  - joint_3
  - joint_4
  - joint_5
  - joint_6
  - tcp_lin
  - tcp_rot
points: 
  - 
    positions: [0.1105343204775023, 0.1105343204775023, -0.1105343204775023, 0.1105343204775023, 0.1105343204775023, 0.1105343204775023, 0.1, 0.1]
    velocities: [0.25037878787878787, 0.25037878787878787, 0.25037878787878787, 0.25037878787878787, 0.25037878787878787, 0.25037878787878787, 0.25037878787878787, 0.0]
    accelerations: []
    effort: []
    time_from_start: 
      secs: 0
      nsecs:  50000000
---
header: 
  seq: 21
  stamp: 
    secs: 1738887229
    nsecs: 135692596
  frame_id: ''
joint_names: 
  - joint_1
  - joint_2
  - joint_3
  - joint_4
  - joint_5
  - joint_6
  - tcp_lin
  - tcp_rot
points: 
  - 
    positions: [0.12380777471686563, 0.12380777471686563, -0.12380777471686563, 0.12380777471686563, 0.12380777471686563, 0.12380777471686563, 0.1, 0.1]
    velocities: [0.2654690847872666, 0.2654690847872666, 0.2654690847872666, 0.2654690847872666, 0.2654690847872666, 0.2654690847872666, 0.2654690847872666, 0.0]
    accelerations: []
    effort: []
    time_from_start: 
      secs: 0
      nsecs:  50000000
---
header: 
  seq: 22
  stamp: 
    secs: 1738887229
    nsecs: 185722589
  frame_id: ''
joint_names: 
  - joint_1
  - joint_2
  - joint_3
  - joint_4
  - joint_5
  - joint_6
  - tcp_lin
  - tcp_rot
points: 
  - 
    positions: [0.13773167278849097, 0.13773167278849097, -0.13773167278849097, 0.13773167278849097, 0.13773167278849097, 0.13773167278849097, 0.1, 0.1]
    velocities: [0.27847796143250686, 0.27847796143250686, 0.27847796143250686, 0.27847796143250686, 0.27847796143250686, 0.27847796143250686, 0.27847796143250686, 0.0]
    accelerations: []
    effort: []
    time_from_start: 
      secs: 0
      nsecs:  50000000
---
header: 
  seq: 23
  stamp: 
    secs: 1738887229
    nsecs: 235738992
  frame_id: ''
joint_names: 
  - joint_1
  - joint_2
  - joint_3
  - joint_4
  - joint_5
  - joint_6
  - tcp_lin
  - tcp_rot
points: 
  - 
    positions: [0.15215296908478726, 0.15215296908478726, -0.15215296908478726, 0.15215296908478726, 0.15215296908478726, 0.15215296908478726, 0.1, 0.1]
    velocities: [0.2884259259259259, 0.2884259259259259, 0.2884259259259259, 0.2884259259259259, 0.2884259259259259, 0.2884259259259259, 0.2884259259259259, 0.0]
    accelerations: []
    effort: []
    time_from_start: 
      secs: 0
      nsecs:  50000000
---
header: 
  seq: 24
  stamp: 
    secs: 1738887229
    nsecs: 285877704
  frame_id: ''
joint_names: 
  - joint_1
  - joint_2
  - joint_3
  - joint_4
  - joint_5
  - joint_6
  - tcp_lin
  - tcp_rot
points: 
  - 
    positions: [0.16691861799816343, 0.16691861799816343, -0.16691861799816343, 0.16691861799816343, 0.16691861799816343, 0.16691861799816343, 0.1, 0.1]
    velocities: [0.29531297826752373, 0.29531297826752373, 0.29531297826752373, 0.29531297826752373, 0.29531297826752373, 0.29531297826752373, 0.29531297826752373, 0.0]
    accelerations: []
    effort: []
    time_from_start: 
      secs: 0
      nsecs:  50000000
---
header: 
  seq: 25
  stamp: 
    secs: 1738887229
    nsecs: 335703134
  frame_id: ''
joint_names: 
  - joint_1
  - joint_2
  - joint_3
  - joint_4
  - joint_5
  - joint_6
  - tcp_lin
  - tcp_rot
points: 
  - 
    positions: [0.18187557392102843, 0.18187557392102843, -0.18187557392102843, 0.18187557392102843, 0.18187557392102843, 0.18187557392102843, 0.1, 0.1]
    velocities: [0.2991391184573003, 0.2991391184573003, 0.2991391184573003, 0.2991391184573003, 0.2991391184573003, 0.2991391184573003, 0.2991391184573003, 0.0]
    accelerations: []
    effort: []
    time_from_start: 
      secs: 0
      nsecs:  50000000
---
header: 
  seq: 26
  stamp: 
    secs: 1738887229
    nsecs: 385683536
  frame_id: ''
joint_names: 
  - joint_1
  - joint_2
  - joint_3
  - joint_4
  - joint_5
  - joint_6
  - tcp_lin
  - tcp_rot
points: 
  - 
    positions: [0.19687557392102845, 0.19687557392102845, -0.19687557392102845, 0.19687557392102845, 0.19687557392102845, 0.19687557392102845, 0.1, 0.1]
    velocities: [0.3, 0.3, 0.3, 0.3, 0.3, 0.3, 0.3, 0.0]
    accelerations: []
    effort: []
    time_from_start: 
      secs: 0
      nsecs:  50000000
---
header: 
  seq: 27
  stamp: 
    secs: 1738887229
    nsecs: 435692787
  frame_id: ''
joint_names: 
  - joint_1
  - joint_2
  - joint_3
  - joint_4
  - joint_5
  - joint_6
  - tcp_lin
  - tcp_rot
points: 
  - 
    positions: [0.21187557392102846, 0.21187557392102846, -0.21187557392102846, 0.21187557392102846, 0.21187557392102846, 0.21187557392102846, 0.1, 0.1]
    velocities: [0.3, 0.3, 0.3, 0.3, 0.3, 0.3, 0.3, 0.0]
    accelerations: []
    effort: []
    time_from_start: 
      secs: 0
      nsecs:  50000000
---
header: 
  seq: 28
  stamp: 
    secs: 1738887229
    nsecs: 485701084
  frame_id: ''
joint_names: 
  - joint_1
  - joint_2
  - joint_3
  - joint_4
  - joint_5
  - joint_6
  - tcp_lin
  - tcp_rot
points: 
  - 
    positions: [0.22687557392102847, 0.22687557392102847, -0.22687557392102847, 0.22687557392102847, 0.22687557392102847, 0.22687557392102847, 0.1, 0.1]
    velocities: [0.3, 0.3, 0.3, 0.3, 0.3, 0.3, 0.3, 0.0]
    accelerations: []
    effort: []
    time_from_start: 
      secs: 0
      nsecs:  50000000
---
header: 
  seq: 29
  stamp: 
    secs: 1738887229
    nsecs: 535826444
  frame_id: ''
joint_names: 
  - joint_1
  - joint_2
  - joint_3
  - joint_4
  - joint_5
  - joint_6
  - tcp_lin
  - tcp_rot
points: 
  - 
    positions: [0.24187557392102849, 0.24187557392102849, -0.24187557392102849, 0.24187557392102849, 0.24187557392102849, 0.24187557392102849, 0.1, 0.1]
    velocities: [0.3, 0.3, 0.3, 0.3, 0.3, 0.3, 0.3, 0.0]
    accelerations: []
    effort: []
    time_from_start: 
      secs: 0
      nsecs:  50000000
---
header: 
  seq: 30
  stamp: 
    secs: 1738887229
    nsecs: 586247444
  frame_id: ''
joint_names: 
  - joint_1
  - joint_2
  - joint_3
  - joint_4
  - joint_5
  - joint_6
  - tcp_lin
  - tcp_rot
points: 
  - 
    positions: [0.2568755739210285, 0.2568755739210285, -0.2568755739210285, 0.2568755739210285, 0.2568755739210285, 0.2568755739210285, 0.1, 0.1]
    velocities: [0.3, 0.3, 0.3, 0.3, 0.3, 0.3, 0.3, 0.0]
    accelerations: []
    effort: []
    time_from_start: 
      secs: 0
      nsecs:  50000000
---
header: 
  seq: 31
  stamp: 
    secs: 1738887229
    nsecs: 636077880
  frame_id: ''
joint_names: 
  - joint_1
  - joint_2
  - joint_3
  - joint_4
  - joint_5
  - joint_6
  - tcp_lin
  - tcp_rot
points: 
  - 
    positions: [0.2718755739210285, 0.2718755739210285, -0.2718755739210285, 0.2718755739210285, 0.2718755739210285, 0.2718755739210285, 0.1, 0.1]
    velocities: [0.3, 0.3, 0.3, 0.3, 0.3, 0.3, 0.3, 0.0]
    accelerations: []
    effort: []
    time_from_start: 
      secs: 0
      nsecs:  50000000
---
header: 
  seq: 32
  stamp: 
    secs: 1738887229
    nsecs: 685930490
  frame_id: ''
joint_names: 
  - joint_1
  - joint_2
  - joint_3
  - joint_4
  - joint_5
  - joint_6
  - tcp_lin
  - tcp_rot
points: 
  - 
    positions: [0.2868755739210285, 0.2868755739210285, -0.2868755739210285, 0.2868755739210285, 0.2868755739210285, 0.2868755739210285, 0.1, 0.1]
    velocities: [0.3, 0.3, 0.3, 0.3, 0.3, 0.3, 0.3, 0.0]
    accelerations: []
    effort: []
    time_from_start: 
      secs: 0
      nsecs:  50000000
---
header: 
  seq: 33
  stamp: 
    secs: 1738887229
    nsecs: 735709667
  frame_id: ''
joint_names: 
  - joint_1
  - joint_2
  - joint_3
  - joint_4
  - joint_5
  - joint_6
  - tcp_lin
  - tcp_rot
points: 
  - 
    positions: [0.30187557392102854, 0.30187557392102854, -0.30187557392102854, 0.30187557392102854, 0.30187557392102854, 0.30187557392102854, 0.1, 0.1]
    velocities: [0.3, 0.3, 0.3, 0.3, 0.3, 0.3, 0.3, 0.0]
    accelerations: []
    effort: []
    time_from_start: 
      secs: 0
      nsecs:  50000000
---
header: 
  seq: 34
  stamp: 
    secs: 1738887229
    nsecs: 785689115
  frame_id: ''
joint_names: 
  - joint_1
  - joint_2
  - joint_3
  - joint_4
  - joint_5
  - joint_6
  - tcp_lin
  - tcp_rot
points: 
  - 
    positions: [0.31687557392102855, 0.31687557392102855, -0.31687557392102855, 0.31687557392102855, 0.31687557392102855, 0.31687557392102855, 0.1, 0.1]
    velocities: [0.3, 0.3, 0.3, 0.3, 0.3, 0.3, 0.3, 0.0]
    accelerations: []
    effort: []
    time_from_start: 
      secs: 0
      nsecs:  50000000
---
header: 
  seq: 35
  stamp: 
    secs: 1738887229
    nsecs: 835688114
  frame_id: ''
joint_names: 
  - joint_1
  - joint_2
  - joint_3
  - joint_4
  - joint_5
  - joint_6
  - tcp_lin
  - tcp_rot
points: 
  - 
    positions: [0.33187557392102857, 0.33187557392102857, -0.33187557392102857, 0.33187557392102857, 0.33187557392102857, 0.33187557392102857, 0.1, 0.1]
    velocities: [0.3, 0.3, 0.3, 0.3, 0.3, 0.3, 0.3, 0.0]
    accelerations: []
    effort: []
    time_from_start: 
      secs: 0
      nsecs:  50000000
---
header: 
  seq: 36
  stamp: 
    secs: 1738887229
    nsecs: 885715007
  frame_id: ''
joint_names: 
  - joint_1
  - joint_2
  - joint_3
  - joint_4
  - joint_5
  - joint_6
  - tcp_lin
  - tcp_rot
points: 
  - 
    positions: [0.3468755739210286, 0.3468755739210286, -0.3468755739210286, 0.3468755739210286, 0.3468755739210286, 0.3468755739210286, 0.1, 0.1]
    velocities: [0.3, 0.3, 0.3, 0.3, 0.3, 0.3, 0.3, 0.0]
    accelerations: []
    effort: []
    time_from_start: 
      secs: 0
      nsecs:  50000000
---
header: 
  seq: 37
  stamp: 
    secs: 1738887229
    nsecs: 935711145
  frame_id: ''
joint_names: 
  - joint_1
  - joint_2
  - joint_3
  - joint_4
  - joint_5
  - joint_6
  - tcp_lin
  - tcp_rot
points: 
  - 
    positions: [0.3618755739210286, 0.3618755739210286, -0.3618755739210286, 0.3618755739210286, 0.3618755739210286, 0.3618755739210286, 0.1, 0.1]
    velocities: [0.3, 0.3, 0.3, 0.3, 0.3, 0.3, 0.3, 0.0]
    accelerations: []
    effort: []
    time_from_start: 
      secs: 0
      nsecs:  50000000
---
header: 
  seq: 38
  stamp: 
    secs: 1738887229
    nsecs: 985771179
  frame_id: ''
joint_names: 
  - joint_1
  - joint_2
  - joint_3
  - joint_4
  - joint_5
  - joint_6
  - tcp_lin
  - tcp_rot
points: 
  - 
    positions: [0.3768755739210286, 0.3768755739210286, -0.3768755739210286, 0.3768755739210286, 0.3768755739210286, 0.3768755739210286, 0.1, 0.1]
    velocities: [0.3, 0.3, 0.3, 0.3, 0.3, 0.3, 0.3, 0.0]
    accelerations: []
    effort: []
    time_from_start: 
      secs: 0
      nsecs:  50000000
---
header: 
  seq: 39
  stamp: 
    secs: 1738887230
    nsecs:  35738468
  frame_id: ''
joint_names: 
  - joint_1
  - joint_2
  - joint_3
  - joint_4
  - joint_5
  - joint_6
  - tcp_lin
  - tcp_rot
points: 
  - 
    positions: [0.3918755739210286, 0.3918755739210286, -0.3918755739210286, 0.3918755739210286, 0.3918755739210286, 0.3918755739210286, 0.1, 0.1]
    velocities: [0.3, 0.3, 0.3, 0.3, 0.3, 0.3, 0.3, 0.0]
    accelerations: []
    effort: []
    time_from_start: 
      secs: 0
      nsecs:  50000000
---
header: 
  seq: 40
  stamp: 
    secs: 1738887230
    nsecs:  85701227
  frame_id: ''
joint_names: 
  - joint_1
  - joint_2
  - joint_3
  - joint_4
  - joint_5
  - joint_6
  - tcp_lin
  - tcp_rot
points: 
  - 
    positions: [0.40687557392102863, 0.40687557392102863, -0.40687557392102863, 0.40687557392102863, 0.40687557392102863, 0.40687557392102863, 0.1, 0.1]
    velocities: [0.3, 0.3, 0.3, 0.3, 0.3, 0.3, 0.3, 0.0]
    accelerations: []
    effort: []
    time_from_start: 
      secs: 0
      nsecs:  50000000
---
header: 
  seq: 41
  stamp: 
    secs: 1738887230
    nsecs: 135699748
  frame_id: ''
joint_names: 
  - joint_1
  - joint_2
  - joint_3
  - joint_4
  - joint_5
  - joint_6
  - tcp_lin
  - tcp_rot
points: 
  - 
    positions: [0.42187557392102865, 0.42187557392102865, -0.42187557392102865, 0.42187557392102865, 0.42187557392102865, 0.42187557392102865, 0.1, 0.1]
    velocities: [0.3, 0.3, 0.3, 0.3, 0.3, 0.3, 0.3, 0.0]
    accelerations: []
    effort: []
    time_from_start: 
      secs: 0
      nsecs:  50000000
---
header: 
  seq: 42
  stamp: 
    secs: 1738887230
    nsecs: 186246395
  frame_id: ''
joint_names: 
  - joint_1
  - joint_2
  - joint_3
  - joint_4
  - joint_5
  - joint_6
  - tcp_lin
  - tcp_rot
points: 
  - 
    positions: [0.43687557392102866, 0.43687557392102866, -0.43687557392102866, 0.43687557392102866, 0.43687557392102866, 0.43687557392102866, 0.1, 0.1]
    velocities: [0.3, 0.3, 0.3, 0.3, 0.3, 0.3, 0.3, 0.0]
    accelerations: []
    effort: []
    time_from_start: 
      secs: 0
      nsecs:  50000000
---
header: 
  seq: 43
  stamp: 
    secs: 1738887230
    nsecs: 236628055
  frame_id: ''
joint_names: 
  - joint_1
  - joint_2
  - joint_3
  - joint_4
  - joint_5
  - joint_6
  - tcp_lin
  - tcp_rot
points: 
  - 
    positions: [0.4518755739210287, 0.4518755739210287, -0.4518755739210287, 0.4518755739210287, 0.4518755739210287, 0.4518755739210287, 0.1, 0.1]
    velocities: [0.3, 0.3, 0.3, 0.3, 0.3, 0.3, 0.3, 0.0]
    accelerations: []
    effort: []
    time_from_start: 
      secs: 0
      nsecs:  50000000
---
header: 
  seq: 44
  stamp: 
    secs: 1738887230
    nsecs: 285697698
  frame_id: ''
joint_names: 
  - joint_1
  - joint_2
  - joint_3
  - joint_4
  - joint_5
  - joint_6
  - tcp_lin
  - tcp_rot
points: 
  - 
    positions: [0.4668755739210287, 0.4668755739210287, -0.4668755739210287, 0.4668755739210287, 0.4668755739210287, 0.4668755739210287, 0.1, 0.1]
    velocities: [0.3, 0.3, 0.3, 0.3, 0.3, 0.3, 0.3, 0.0]
    accelerations: []
    effort: []
    time_from_start: 
      secs: 0
      nsecs:  50000000
---
header: 
  seq: 45
  stamp: 
    secs: 1738887230
    nsecs: 335863828
  frame_id: ''
joint_names: 
  - joint_1
  - joint_2
  - joint_3
  - joint_4
  - joint_5
  - joint_6
  - tcp_lin
  - tcp_rot
points: 
  - 
    positions: [0.4818755739210287, 0.4818755739210287, -0.4818755739210287, 0.4818755739210287, 0.4818755739210287, 0.4818755739210287, 0.1, 0.1]
    velocities: [0.3, 0.3, 0.3, 0.3, 0.3, 0.3, 0.3, 0.0]
    accelerations: []
    effort: []
    time_from_start: 
      secs: 0
      nsecs:  50000000
---
header: 
  seq: 46
  stamp: 
    secs: 1738887230
    nsecs: 385970354
  frame_id: ''
joint_names: 
  - joint_1
  - joint_2
  - joint_3
  - joint_4
  - joint_5
  - joint_6
  - tcp_lin
  - tcp_rot
points: 
  - 
    positions: [0.4968755739210287, 0.4968755739210287, -0.4968755739210287, 0.4968755739210287, 0.4968755739210287, 0.4968755739210287, 0.1, 0.1]
    velocities: [0.3, 0.3, 0.3, 0.3, 0.3, 0.3, 0.3, 0.0]
    accelerations: []
    effort: []
    time_from_start: 
      secs: 0
      nsecs:  50000000
---
header: 
  seq: 47
  stamp: 
    secs: 1738887230
    nsecs: 435979843
  frame_id: ''
joint_names: 
  - joint_1
  - joint_2
  - joint_3
  - joint_4
  - joint_5
  - joint_6
  - tcp_lin
  - tcp_rot
points: 
  - 
    positions: [0.5118755739210287, 0.5118755739210287, -0.5118755739210287, 0.5118755739210287, 0.5118755739210287, 0.5118755739210287, 0.1, 0.1]
    velocities: [0.3, 0.3, 0.3, 0.3, 0.3, 0.3, 0.3, 0.0]
    accelerations: []
    effort: []
    time_from_start: 
      secs: 0
      nsecs:  50000000
---
header: 
  seq: 48
  stamp: 
    secs: 1738887230
    nsecs: 485708951
  frame_id: ''
joint_names: 
  - joint_1
  - joint_2
  - joint_3
  - joint_4
  - joint_5
  - joint_6
  - tcp_lin
  - tcp_rot
points: 
  - 
    positions: [0.5268755739210287, 0.5268755739210287, -0.5268755739210287, 0.5268755739210287, 0.5268755739210287, 0.5268755739210287, 0.1, 0.1]
    velocities: [0.3, 0.3, 0.3, 0.3, 0.3, 0.3, 0.3, 0.0]
    accelerations: []
    effort: []
    time_from_start: 
      secs: 0
      nsecs:  50000000
---
header: 
  seq: 49
  stamp: 
    secs: 1738887230
    nsecs: 535689353
  frame_id: ''
joint_names: 
  - joint_1
  - joint_2
  - joint_3
  - joint_4
  - joint_5
  - joint_6
  - tcp_lin
  - tcp_rot
points: 
  - 
    positions: [0.5418755739210287, 0.5418755739210287, -0.5418755739210287, 0.5418755739210287, 0.5418755739210287, 0.5418755739210287, 0.1, 0.1]
    velocities: [0.3, 0.3, 0.3, 0.3, 0.3, 0.3, 0.3, 0.0]
    accelerations: []
    effort: []
    time_from_start: 
      secs: 0
      nsecs:  50000000
---
header: 
  seq: 50
  stamp: 
    secs: 1738887230
    nsecs: 585690975
  frame_id: ''
joint_names: 
  - joint_1
  - joint_2
  - joint_3
  - joint_4
  - joint_5
  - joint_6
  - tcp_lin
  - tcp_rot
points: 
  - 
    positions: [0.5568755739210287, 0.5568755739210287, -0.5568755739210287, 0.5568755739210287, 0.5568755739210287, 0.5568755739210287, 0.1, 0.1]
    velocities: [0.3, 0.3, 0.3, 0.3, 0.3, 0.3, 0.3, 0.0]
    accelerations: []
    effort: []
    time_from_start: 
      secs: 0
      nsecs:  50000000
---
header: 
  seq: 51
  stamp: 
    secs: 1738887230
    nsecs: 635686397
  frame_id: ''
joint_names: 
  - joint_1
  - joint_2
  - joint_3
  - joint_4
  - joint_5
  - joint_6
  - tcp_lin
  - tcp_rot
points: 
  - 
    positions: [0.5718755739210287, 0.5718755739210287, -0.5718755739210287, 0.5718755739210287, 0.5718755739210287, 0.5718755739210287, 0.1, 0.1]
    velocities: [0.3, 0.3, 0.3, 0.3, 0.3, 0.3, 0.3, 0.0]
    accelerations: []
    effort: []
    time_from_start: 
      secs: 0
      nsecs:  50000000
---
header: 
  seq: 52
  stamp: 
    secs: 1738887230
    nsecs: 685689687
  frame_id: ''
joint_names: 
  - joint_1
  - joint_2
  - joint_3
  - joint_4
  - joint_5
  - joint_6
  - tcp_lin
  - tcp_rot
points: 
  - 
    positions: [0.5868755739210287, 0.5868755739210287, -0.5868755739210287, 0.5868755739210287, 0.5868755739210287, 0.5868755739210287, 0.1, 0.1]
    velocities: [0.3, 0.3, 0.3, 0.3, 0.3, 0.3, 0.3, 0.0]
    accelerations: []
    effort: []
    time_from_start: 
      secs: 0
      nsecs:  50000000
---
header: 
  seq: 53
  stamp: 
    secs: 1738887230
    nsecs: 735700845
  frame_id: ''
joint_names: 
  - joint_1
  - joint_2
  - joint_3
  - joint_4
  - joint_5
  - joint_6
  - tcp_lin
  - tcp_rot
points: 
  - 
    positions: [0.6018755739210288, 0.6018755739210288, -0.6018755739210288, 0.6018755739210288, 0.6018755739210288, 0.6018755739210288, 0.1, 0.1]
    velocities: [0.3, 0.3, 0.3, 0.3, 0.3, 0.3, 0.3, 0.0]
    accelerations: []
    effort: []
    time_from_start: 
      secs: 0
      nsecs:  50000000
---
header: 
  seq: 54
  stamp: 
    secs: 1738887230
    nsecs: 785775899
  frame_id: ''
joint_names: 
  - joint_1
  - joint_2
  - joint_3
  - joint_4
  - joint_5
  - joint_6
  - tcp_lin
  - tcp_rot
points: 
  - 
    positions: [0.6168755739210288, 0.6168755739210288, -0.6168755739210288, 0.6168755739210288, 0.6168755739210288, 0.6168755739210288, 0.1, 0.1]
    velocities: [0.3, 0.3, 0.3, 0.3, 0.3, 0.3, 0.3, 0.0]
    accelerations: []
    effort: []
    time_from_start: 
      secs: 0
      nsecs:  50000000
---
header: 
  seq: 55
  stamp: 
    secs: 1738887230
    nsecs: 835769891
  frame_id: ''
joint_names: 
  - joint_1
  - joint_2
  - joint_3
  - joint_4
  - joint_5
  - joint_6
  - tcp_lin
  - tcp_rot
points: 
  - 
    positions: [0.6318755739210288, 0.6318755739210288, -0.6318755739210288, 0.6318755739210288, 0.6318755739210288, 0.6318755739210288, 0.1, 0.1]
    velocities: [0.3, 0.3, 0.3, 0.3, 0.3, 0.3, 0.3, 0.0]
    accelerations: []
    effort: []
    time_from_start: 
      secs: 0
      nsecs:  50000000
---
header: 
  seq: 56
  stamp: 
    secs: 1738887230
    nsecs: 885697364
  frame_id: ''
joint_names: 
  - joint_1
  - joint_2
  - joint_3
  - joint_4
  - joint_5
  - joint_6
  - tcp_lin
  - tcp_rot
points: 
  - 
    positions: [0.6468755739210288, 0.6468755739210288, -0.6468755739210288, 0.6468755739210288, 0.6468755739210288, 0.6468755739210288, 0.1, 0.1]
    velocities: [0.3, 0.3, 0.3, 0.3, 0.3, 0.3, 0.3, 0.0]
    accelerations: []
    effort: []
    time_from_start: 
      secs: 0
      nsecs:  50000000
---
header: 
  seq: 57
  stamp: 
    secs: 1738887230
    nsecs: 935693025
  frame_id: ''
joint_names: 
  - joint_1
  - joint_2
  - joint_3
  - joint_4
  - joint_5
  - joint_6
  - tcp_lin
  - tcp_rot
points: 
  - 
    positions: [0.6618755739210288, 0.6618755739210288, -0.6618755739210288, 0.6618755739210288, 0.6618755739210288, 0.6618755739210288, 0.1, 0.1]
    velocities: [0.3, 0.3, 0.3, 0.3, 0.3, 0.3, 0.3, 0.0]
    accelerations: []
    effort: []
    time_from_start: 
      secs: 0
      nsecs:  50000000
---
header: 
  seq: 58
  stamp: 
    secs: 1738887230
    nsecs: 985650062
  frame_id: ''
joint_names: 
  - joint_1
  - joint_2
  - joint_3
  - joint_4
  - joint_5
  - joint_6
  - tcp_lin
  - tcp_rot
points: 
  - 
    positions: [0.6768755739210288, 0.6768755739210288, -0.6768755739210288, 0.6768755739210288, 0.6768755739210288, 0.6768755739210288, 0.1, 0.1]
    velocities: [0.3, 0.3, 0.3, 0.3, 0.3, 0.3, 0.3, 0.0]
    accelerations: []
    effort: []
    time_from_start: 
      secs: 0
      nsecs:  50000000
---
header: 
  seq: 59
  stamp: 
    secs: 1738887231
    nsecs:  35690784
  frame_id: ''
joint_names: 
  - joint_1
  - joint_2
  - joint_3
  - joint_4
  - joint_5
  - joint_6
  - tcp_lin
  - tcp_rot
points: 
  - 
    positions: [0.6918755739210288, 0.6918755739210288, -0.6918755739210288, 0.6918755739210288, 0.6918755739210288, 0.6918755739210288, 0.1, 0.1]
    velocities: [0.3, 0.3, 0.3, 0.3, 0.3, 0.3, 0.3, 0.0]
    accelerations: []
    effort: []
    time_from_start: 
      secs: 0
      nsecs:  50000000
---
header: 
  seq: 60
  stamp: 
    secs: 1738887231
    nsecs:  86720705
  frame_id: ''
joint_names: 
  - joint_1
  - joint_2
  - joint_3
  - joint_4
  - joint_5
  - joint_6
  - tcp_lin
  - tcp_rot
points: 
  - 
    positions: [0.7068755739210288, 0.7068755739210288, -0.7068755739210288, 0.7068755739210288, 0.7068755739210288, 0.7068755739210288, 0.1, 0.1]
    velocities: [0.3, 0.3, 0.3, 0.3, 0.3, 0.3, 0.3, 0.0]
    accelerations: []
    effort: []
    time_from_start: 
      secs: 0
      nsecs:  50000000
---
header: 
  seq: 61
  stamp: 
    secs: 1738887231
    nsecs: 135851621
  frame_id: ''
joint_names: 
  - joint_1
  - joint_2
  - joint_3
  - joint_4
  - joint_5
  - joint_6
  - tcp_lin
  - tcp_rot
points: 
  - 
    positions: [0.7218755739210289, 0.7218755739210289, -0.7218755739210289, 0.7218755739210289, 0.7218755739210289, 0.7218755739210289, 0.1, 0.1]
    velocities: [0.3, 0.3, 0.3, 0.3, 0.3, 0.3, 0.3, 0.0]
    accelerations: []
    effort: []
    time_from_start: 
      secs: 0
      nsecs:  50000000
---
header: 
  seq: 62
  stamp: 
    secs: 1738887231
    nsecs: 185792922
  frame_id: ''
joint_names: 
  - joint_1
  - joint_2
  - joint_3
  - joint_4
  - joint_5
  - joint_6
  - tcp_lin
  - tcp_rot
points: 
  - 
    positions: [0.7368755739210289, 0.7368755739210289, -0.7368755739210289, 0.7368755739210289, 0.7368755739210289, 0.7368755739210289, 0.1, 0.1]
    velocities: [0.3, 0.3, 0.3, 0.3, 0.3, 0.3, 0.3, 0.0]
    accelerations: []
    effort: []
    time_from_start: 
      secs: 0
      nsecs:  50000000
---
header: 
  seq: 63
  stamp: 
    secs: 1738887231
    nsecs: 235735177
  frame_id: ''
joint_names: 
  - joint_1
  - joint_2
  - joint_3
  - joint_4
  - joint_5
  - joint_6
  - tcp_lin
  - tcp_rot
points: 
  - 
    positions: [0.7518755739210289, 0.7518755739210289, -0.7518755739210289, 0.7518755739210289, 0.7518755739210289, 0.7518755739210289, 0.1, 0.1]
    velocities: [0.3, 0.3, 0.3, 0.3, 0.3, 0.3, 0.3, 0.0]
    accelerations: []
    effort: []
    time_from_start: 
      secs: 0
      nsecs:  50000000
---
header: 
  seq: 64
  stamp: 
    secs: 1738887231
    nsecs: 285849571
  frame_id: ''
joint_names: 
  - joint_1
  - joint_2
  - joint_3
  - joint_4
  - joint_5
  - joint_6
  - tcp_lin
  - tcp_rot
points: 
  - 
    positions: [0.7668755739210289, 0.7668755739210289, -0.7668755739210289, 0.7668755739210289, 0.7668755739210289, 0.7668755739210289, 0.1, 0.1]
    velocities: [0.3, 0.3, 0.3, 0.3, 0.3, 0.3, 0.3, 0.0]
    accelerations: []
    effort: []
    time_from_start: 
      secs: 0
      nsecs:  50000000
---
header: 
  seq: 65
  stamp: 
    secs: 1738887231
    nsecs: 335710525
  frame_id: ''
joint_names: 
  - joint_1
  - joint_2
  - joint_3
  - joint_4
  - joint_5
  - joint_6
  - tcp_lin
  - tcp_rot
points: 
  - 
    positions: [0.7818755739210289, 0.7818755739210289, -0.7818755739210289, 0.7818755739210289, 0.7818755739210289, 0.7818755739210289, 0.1, 0.1]
    velocities: [0.3, 0.3, 0.3, 0.3, 0.3, 0.3, 0.3, 0.0]
    accelerations: []
    effort: []
    time_from_start: 
      secs: 0
      nsecs:  50000000
---
header: 
  seq: 66
  stamp: 
    secs: 1738887231
    nsecs: 385743141
  frame_id: ''
joint_names: 
  - joint_1
  - joint_2
  - joint_3
  - joint_4
  - joint_5
  - joint_6
  - tcp_lin
  - tcp_rot
points: 
  - 
    positions: [0.7968755739210289, 0.7968755739210289, -0.7968755739210289, 0.7968755739210289, 0.7968755739210289, 0.7968755739210289, 0.1, 0.1]
    velocities: [0.3, 0.3, 0.3, 0.3, 0.3, 0.3, 0.3, 0.0]
    accelerations: []
    effort: []
    time_from_start: 
      secs: 0
      nsecs:  50000000
---
header: 
  seq: 67
  stamp: 
    secs: 1738887231
    nsecs: 435709714
  frame_id: ''
joint_names: 
  - joint_1
  - joint_2
  - joint_3
  - joint_4
  - joint_5
  - joint_6
  - tcp_lin
  - tcp_rot
points: 
  - 
    positions: [0.8118755739210289, 0.8118755739210289, -0.8118755739210289, 0.8118755739210289, 0.8118755739210289, 0.8118755739210289, 0.1, 0.1]
    velocities: [0.3, 0.3, 0.3, 0.3, 0.3, 0.3, 0.3, 0.0]
    accelerations: []
    effort: []
    time_from_start: 
      secs: 0
      nsecs:  50000000
---
header: 
  seq: 68
  stamp: 
    secs: 1738887231
    nsecs: 485693454
  frame_id: ''
joint_names: 
  - joint_1
  - joint_2
  - joint_3
  - joint_4
  - joint_5
  - joint_6
  - tcp_lin
  - tcp_rot
points: 
  - 
    positions: [0.826875573921029, 0.826875573921029, -0.826875573921029, 0.826875573921029, 0.826875573921029, 0.826875573921029, 0.1, 0.1]
    velocities: [0.3, 0.3, 0.3, 0.3, 0.3, 0.3, 0.3, 0.0]
    accelerations: []
    effort: []
    time_from_start: 
      secs: 0
      nsecs:  50000000
---
header: 
  seq: 69
  stamp: 
    secs: 1738887231
    nsecs: 535692691
  frame_id: ''
joint_names: 
  - joint_1
  - joint_2
  - joint_3
  - joint_4
  - joint_5
  - joint_6
  - tcp_lin
  - tcp_rot
points: 
  - 
    positions: [0.841875573921029, 0.841875573921029, -0.841875573921029, 0.841875573921029, 0.841875573921029, 0.841875573921029, 0.1, 0.1]
    velocities: [0.3, 0.3, 0.3, 0.3, 0.3, 0.3, 0.3, 0.0]
    accelerations: []
    effort: []
    time_from_start: 
      secs: 0
      nsecs:  50000000
---
header: 
  seq: 70
  stamp: 
    secs: 1738887231
    nsecs: 585803031
  frame_id: ''
joint_names: 
  - joint_1
  - joint_2
  - joint_3
  - joint_4
  - joint_5
  - joint_6
  - tcp_lin
  - tcp_rot
points: 
  - 
    positions: [0.856875573921029, 0.856875573921029, -0.856875573921029, 0.856875573921029, 0.856875573921029, 0.856875573921029, 0.1, 0.1]
    velocities: [0.3, 0.3, 0.3, 0.3, 0.3, 0.3, 0.3, 0.0]
    accelerations: []
    effort: []
    time_from_start: 
      secs: 0
      nsecs:  50000000
---
header: 
  seq: 71
  stamp: 
    secs: 1738887231
    nsecs: 635766029
  frame_id: ''
joint_names: 
  - joint_1
  - joint_2
  - joint_3
  - joint_4
  - joint_5
  - joint_6
  - tcp_lin
  - tcp_rot
points: 
  - 
    positions: [0.871875573921029, 0.871875573921029, -0.871875573921029, 0.871875573921029, 0.871875573921029, 0.871875573921029, 0.1, 0.1]
    velocities: [0.3, 0.3, 0.3, 0.3, 0.3, 0.3, 0.3, 0.0]
    accelerations: []
    effort: []
    time_from_start: 
      secs: 0
      nsecs:  50000000
---
header: 
  seq: 72
  stamp: 
    secs: 1738887231
    nsecs: 685968875
  frame_id: ''
joint_names: 
  - joint_1
  - joint_2
  - joint_3
  - joint_4
  - joint_5
  - joint_6
  - tcp_lin
  - tcp_rot
points: 
  - 
    positions: [0.886875573921029, 0.886875573921029, -0.886875573921029, 0.886875573921029, 0.886875573921029, 0.886875573921029, 0.1, 0.1]
    velocities: [0.3, 0.3, 0.3, 0.3, 0.3, 0.3, 0.3, 0.0]
    accelerations: []
    effort: []
    time_from_start: 
      secs: 0
      nsecs:  50000000
---
header: 
  seq: 73
  stamp: 
    secs: 1738887231
    nsecs: 735695838
  frame_id: ''
joint_names: 
  - joint_1
  - joint_2
  - joint_3
  - joint_4
  - joint_5
  - joint_6
  - tcp_lin
  - tcp_rot
points: 
  - 
    positions: [0.901875573921029, 0.901875573921029, -0.901875573921029, 0.901875573921029, 0.901875573921029, 0.901875573921029, 0.1, 0.1]
    velocities: [0.3, 0.3, 0.3, 0.3, 0.3, 0.3, 0.3, 0.0]
    accelerations: []
    effort: []
    time_from_start: 
      secs: 0
      nsecs:  50000000
---
header: 
  seq: 74
  stamp: 
    secs: 1738887231
    nsecs: 785697221
  frame_id: ''
joint_names: 
  - joint_1
  - joint_2
  - joint_3
  - joint_4
  - joint_5
  - joint_6
  - tcp_lin
  - tcp_rot
points: 
  - 
    positions: [0.916875573921029, 0.916875573921029, -0.916875573921029, 0.916875573921029, 0.916875573921029, 0.916875573921029, 0.1, 0.1]
    velocities: [0.3, 0.3, 0.3, 0.3, 0.3, 0.3, 0.3, 0.0]
    accelerations: []
    effort: []
    time_from_start: 
      secs: 0
      nsecs:  50000000
---
header: 
  seq: 75
  stamp: 
    secs: 1738887231
    nsecs: 835686683
  frame_id: ''
joint_names: 
  - joint_1
  - joint_2
  - joint_3
  - joint_4
  - joint_5
  - joint_6
  - tcp_lin
  - tcp_rot
points: 
  - 
    positions: [0.931875573921029, 0.931875573921029, -0.931875573921029, 0.931875573921029, 0.931875573921029, 0.931875573921029, 0.1, 0.1]
    velocities: [0.3, 0.3, 0.3, 0.3, 0.3, 0.3, 0.3, 0.0]
    accelerations: []
    effort: []
    time_from_start: 
      secs: 0
      nsecs:  50000000
---
header: 
  seq: 76
  stamp: 
    secs: 1738887231
    nsecs: 885683774
  frame_id: ''
joint_names: 
  - joint_1
  - joint_2
  - joint_3
  - joint_4
  - joint_5
  - joint_6
  - tcp_lin
  - tcp_rot
points: 
  - 
    positions: [0.9468325298438941, 0.9468325298438941, -0.9468325298438941, 0.9468325298438941, 0.9468325298438941, 0.9468325298438941, 0.1, 0.1]
    velocities: [0.2991391184573003, 0.2991391184573003, 0.2991391184573003, 0.2991391184573003, 0.2991391184573003, 0.2991391184573003, 0.2991391184573003, 0.0]
    accelerations: []
    effort: []
    time_from_start: 
      secs: 0
      nsecs:  50000000
---
header: 
  seq: 77
  stamp: 
    secs: 1738887231
    nsecs: 935781478
  frame_id: ''
joint_names: 
  - joint_1
  - joint_2
  - joint_3
  - joint_4
  - joint_5
  - joint_6
  - tcp_lin
  - tcp_rot
points: 
  - 
    positions: [0.9615981787572703, 0.9615981787572703, -0.9615981787572703, 0.9615981787572703, 0.9615981787572703, 0.9615981787572703, 0.1, 0.1]
    velocities: [0.29531297826752373, 0.29531297826752373, 0.29531297826752373, 0.29531297826752373, 0.29531297826752373, 0.29531297826752373, 0.29531297826752373, 0.0]
    accelerations: []
    effort: []
    time_from_start: 
      secs: 0
      nsecs:  50000000
---
header: 
  seq: 78
  stamp: 
    secs: 1738887231
    nsecs: 986293554
  frame_id: ''
joint_names: 
  - joint_1
  - joint_2
  - joint_3
  - joint_4
  - joint_5
  - joint_6
  - tcp_lin
  - tcp_rot
points: 
  - 
    positions: [0.9760194750535666, 0.9760194750535666, -0.9760194750535666, 0.9760194750535666, 0.9760194750535666, 0.9760194750535666, 0.1, 0.1]
    velocities: [0.28842592592592586, 0.28842592592592586, 0.28842592592592586, 0.28842592592592586, 0.28842592592592586, 0.28842592592592586, 0.28842592592592586, 0.0]
    accelerations: []
    effort: []
    time_from_start: 
      secs: 0
      nsecs:  50000000
---
header: 
  seq: 79
  stamp: 
    secs: 1738887232
    nsecs:  35926580
  frame_id: ''
joint_names: 
  - joint_1
  - joint_2
  - joint_3
  - joint_4
  - joint_5
  - joint_6
  - tcp_lin
  - tcp_rot
points: 
  - 
    positions: [0.9899433731251919, 0.9899433731251919, -0.9899433731251919, 0.9899433731251919, 0.9899433731251919, 0.9899433731251919, 0.1, 0.1]
    velocities: [0.27847796143250686, 0.27847796143250686, 0.27847796143250686, 0.27847796143250686, 0.27847796143250686, 0.27847796143250686, 0.27847796143250686, 0.0]
    accelerations: []
    effort: []
    time_from_start: 
      secs: 0
      nsecs:  50000000
---
header: 
  seq: 80
  stamp: 
    secs: 1738887232
    nsecs:  85723161
  frame_id: ''
joint_names: 
  - joint_1
  - joint_2
  - joint_3
  - joint_4
  - joint_5
  - joint_6
  - tcp_lin
  - tcp_rot
points: 
  - 
    positions: [1.0032168273645552, 1.0032168273645552, -1.0032168273645552, 1.0032168273645552, 1.0032168273645552, 1.0032168273645552, 0.1, 0.1]
    velocities: [0.26546908478726666, 0.26546908478726666, 0.26546908478726666, 0.26546908478726666, 0.26546908478726666, 0.26546908478726666, 0.26546908478726666, 0.0]
    accelerations: []
    effort: []
    time_from_start: 
      secs: 0
      nsecs:  50000000
---
header: 
  seq: 81
  stamp: 
    secs: 1738887232
    nsecs: 135792970
  frame_id: ''
joint_names: 
  - joint_1
  - joint_2
  - joint_3
  - joint_4
  - joint_5
  - joint_6
  - tcp_lin
  - tcp_rot
points: 
  - 
    positions: [1.0157357667584945, 1.0157357667584945, -1.0157357667584945, 1.0157357667584945, 1.0157357667584945, 1.0157357667584945, 0.1, 0.1]
    velocities: [0.2503787878787878, 0.2503787878787878, 0.2503787878787878, 0.2503787878787878, 0.2503787878787878, 0.2503787878787878, 0.2503787878787878, 0.0]
    accelerations: []
    effort: []
    time_from_start: 
      secs: 0
      nsecs:  50000000
---
header: 
  seq: 82
  stamp: 
    secs: 1738887232
    nsecs: 185687780
  frame_id: ''
joint_names: 
  - joint_1
  - joint_2
  - joint_3
  - joint_4
  - joint_5
  - joint_6
  - tcp_lin
  - tcp_rot
points: 
  - 
    positions: [1.0274971303948581, 1.0274971303948581, -1.0274971303948581, 1.0274971303948581, 1.0274971303948581, 1.0274971303948581, 0.1, 0.1]
    velocities: [0.23522727272727273, 0.23522727272727273, 0.23522727272727273, 0.23522727272727273, 0.23522727272727273, 0.23522727272727273, 0.23522727272727273, 0.0]
    accelerations: []
    effort: []
    time_from_start: 
      secs: 0
      nsecs:  50000000
---
header: 
  seq: 83
  stamp: 
    secs: 1738887232
    nsecs: 235709667
  frame_id: ''
joint_names: 
  - joint_1
  - joint_2
  - joint_3
  - joint_4
  - joint_5
  - joint_6
  - tcp_lin
  - tcp_rot
points: 
  - 
    positions: [1.038500918273646, 1.038500918273646, -1.038500918273646, 1.038500918273646, 1.038500918273646, 1.038500918273646, 0.1, 0.1]
    velocities: [0.2200757575757577, 0.2200757575757577, 0.2200757575757577, 0.2200757575757577, 0.2200757575757577, 0.2200757575757577, 0.2200757575757577, 0.0]
    accelerations: []
    effort: []
    time_from_start: 
      secs: 0
      nsecs:  50000000
---
header: 
  seq: 84
  stamp: 
    secs: 1738887232
    nsecs: 285701274
  frame_id: ''
joint_names: 
  - joint_1
  - joint_2
  - joint_3
  - joint_4
  - joint_5
  - joint_6
  - tcp_lin
  - tcp_rot
points: 
  - 
    positions: [1.0487471303948581, 1.0487471303948581, -1.0487471303948581, 1.0487471303948581, 1.0487471303948581, 1.0487471303948581, 0.1, 0.1]
    velocities: [0.2049242424242424, 0.2049242424242424, 0.2049242424242424, 0.2049242424242424, 0.2049242424242424, 0.2049242424242424, 0.2049242424242424, 0.0]
    accelerations: []
    effort: []
    time_from_start: 
      secs: 0
      nsecs:  50000000
---
header: 
  seq: 85
  stamp: 
    secs: 1738887232
    nsecs: 335698127
  frame_id: ''
joint_names: 
  - joint_1
  - joint_2
  - joint_3
  - joint_4
  - joint_5
  - joint_6
  - tcp_lin
  - tcp_rot
points: 
  - 
    positions: [1.0582357667584945, 1.0582357667584945, -1.0582357667584945, 1.0582357667584945, 1.0582357667584945, 1.0582357667584945, 0.1, 0.1]
    velocities: [0.18977272727272732, 0.18977272727272732, 0.18977272727272732, 0.18977272727272732, 0.18977272727272732, 0.18977272727272732, 0.18977272727272732, 0.0]
    accelerations: []
    effort: []
    time_from_start: 
      secs: 0
      nsecs:  50000000
---
header: 
  seq: 86
  stamp: 
    secs: 1738887232
    nsecs: 385825395
  frame_id: ''
joint_names: 
  - joint_1
  - joint_2
  - joint_3
  - joint_4
  - joint_5
  - joint_6
  - tcp_lin
  - tcp_rot
points: 
  - 
    positions: [1.0669668273645552, 1.0669668273645552, -1.0669668273645552, 1.0669668273645552, 1.0669668273645552, 1.0669668273645552, 0.1, 0.1]
    velocities: [0.174621212121212, 0.174621212121212, 0.174621212121212, 0.174621212121212, 0.174621212121212, 0.174621212121212, 0.174621212121212, 0.0]
    accelerations: []
    effort: []
    time_from_start: 
      secs: 0
      nsecs:  50000000
---
header: 
  seq: 87
  stamp: 
    secs: 1738887232
    nsecs: 435728788
  frame_id: ''
joint_names: 
  - joint_1
  - joint_2
  - joint_3
  - joint_4
  - joint_5
  - joint_6
  - tcp_lin
  - tcp_rot
points: 
  - 
    positions: [1.07494031221304, 1.07494031221304, -1.07494031221304, 1.07494031221304, 1.07494031221304, 1.07494031221304, 0.1, 0.1]
    velocities: [0.15946969696969696, 0.15946969696969696, 0.15946969696969696, 0.15946969696969696, 0.15946969696969696, 0.15946969696969696, 0.15946969696969696, 0.0]
    accelerations: []
    effort: []
    time_from_start: 
      secs: 0
      nsecs:  50000000
---
header: 
  seq: 88
  stamp: 
    secs: 1738887232
    nsecs: 485691070
  frame_id: ''
joint_names: 
  - joint_1
  - joint_2
  - joint_3
  - joint_4
  - joint_5
  - joint_6
  - tcp_lin
  - tcp_rot
points: 
  - 
    positions: [1.0821562213039493, 1.0821562213039493, -1.0821562213039493, 1.0821562213039493, 1.0821562213039493, 1.0821562213039493, 0.1, 0.1]
    velocities: [0.14431818181818193, 0.14431818181818193, 0.14431818181818193, 0.14431818181818193, 0.14431818181818193, 0.14431818181818193, 0.14431818181818193, 0.0]
    accelerations: []
    effort: []
    time_from_start: 
      secs: 0
      nsecs:  50000000
---
header: 
  seq: 89
  stamp: 
    secs: 1738887232
    nsecs: 535699367
  frame_id: ''
joint_names: 
  - joint_1
  - joint_2
  - joint_3
  - joint_4
  - joint_5
  - joint_6
  - tcp_lin
  - tcp_rot
points: 
  - 
    positions: [1.0886145546372825, 1.0886145546372825, -1.0886145546372825, 1.0886145546372825, 1.0886145546372825, 1.0886145546372825, 0.1, 0.1]
    velocities: [0.1291666666666666, 0.1291666666666666, 0.1291666666666666, 0.1291666666666666, 0.1291666666666666, 0.1291666666666666, 0.1291666666666666, 0.0]
    accelerations: []
    effort: []
    time_from_start: 
      secs: 0
      nsecs:  50000000
---
header: 
  seq: 90
  stamp: 
    secs: 1738887232
    nsecs: 585687875
  frame_id: ''
joint_names: 
  - joint_1
  - joint_2
  - joint_3
  - joint_4
  - joint_5
  - joint_6
  - tcp_lin
  - tcp_rot
points: 
  - 
    positions: [1.09431531221304, 1.09431531221304, -1.09431531221304, 1.09431531221304, 1.09431531221304, 1.09431531221304, 0.1, 0.1]
    velocities: [0.11401515151515154, 0.11401515151515154, 0.11401515151515154, 0.11401515151515154, 0.11401515151515154, 0.11401515151515154, 0.11401515151515154, 0.0]
    accelerations: []
    effort: []
    time_from_start: 
      secs: 0
      nsecs:  50000000
---
header: 
  seq: 91
  stamp: 
    secs: 1738887232
    nsecs: 635686159
  frame_id: ''
joint_names: 
  - joint_1
  - joint_2
  - joint_3
  - joint_4
  - joint_5
  - joint_6
  - tcp_lin
  - tcp_rot
points: 
  - 
    positions: [1.0992584940312218, 1.0992584940312218, -1.0992584940312218, 1.0992584940312218, 1.0992584940312218, 1.0992584940312218, 0.1, 0.1]
    velocities: [0.09886363636363651, 0.09886363636363651, 0.09886363636363651, 0.09886363636363651, 0.09886363636363651, 0.09886363636363651, 0.09886363636363651, 0.0]
    accelerations: []
    effort: []
    time_from_start: 
      secs: 0
      nsecs:  50000000
---
header: 
  seq: 92
  stamp: 
    secs: 1738887232
    nsecs: 685698270
  frame_id: ''
joint_names: 
  - joint_1
  - joint_2
  - joint_3
  - joint_4
  - joint_5
  - joint_6
  - tcp_lin
  - tcp_rot
points: 
  - 
    positions: [1.1034441000918278, 1.1034441000918278, -1.1034441000918278, 1.1034441000918278, 1.1034441000918278, 1.1034441000918278, 0.1, 0.1]
    velocities: [0.08371212121212118, 0.08371212121212118, 0.08371212121212118, 0.08371212121212118, 0.08371212121212118, 0.08371212121212118, 0.08371212121212118, 0.0]
    accelerations: []
    effort: []
    time_from_start: 
      secs: 0
      nsecs:  50000000
---
header: 
  seq: 93
  stamp: 
    secs: 1738887232
    nsecs: 736263513
  frame_id: ''
joint_names: 
  - joint_1
  - joint_2
  - joint_3
  - joint_4
  - joint_5
  - joint_6
  - tcp_lin
  - tcp_rot
points: 
  - 
    positions: [1.106872130394858, 1.106872130394858, -1.106872130394858, 1.106872130394858, 1.106872130394858, 1.106872130394858, 0.1, 0.1]
    velocities: [0.06856060606060616, 0.06856060606060616, 0.06856060606060616, 0.06856060606060616, 0.06856060606060616, 0.06856060606060616, 0.06856060606060616, 0.0]
    accelerations: []
    effort: []
    time_from_start: 
      secs: 0
      nsecs:  50000000
---
header: 
  seq: 94
  stamp: 
    secs: 1738887232
    nsecs: 785888433
  frame_id: ''
joint_names: 
  - joint_1
  - joint_2
  - joint_3
  - joint_4
  - joint_5
  - joint_6
  - tcp_lin
  - tcp_rot
points: 
  - 
    positions: [1.1095425849403127, 1.1095425849403127, -1.1095425849403127, 1.1095425849403127, 1.1095425849403127, 1.1095425849403127, 0.1, 0.1]
    velocities: [0.05340909090909082, 0.05340909090909082, 0.05340909090909082, 0.05340909090909082, 0.05340909090909082, 0.05340909090909082, 0.05340909090909082, 0.0]
    accelerations: []
    effort: []
    time_from_start: 
      secs: 0
      nsecs:  50000000
---
header: 
  seq: 95
  stamp: 
    secs: 1738887232
    nsecs: 835936546
  frame_id: ''
joint_names: 
  - joint_1
  - joint_2
  - joint_3
  - joint_4
  - joint_5
  - joint_6
  - tcp_lin
  - tcp_rot
points: 
  - 
    positions: [1.1114554637281915, 1.1114554637281915, -1.1114554637281915, 1.1114554637281915, 1.1114554637281915, 1.1114554637281915, 0.1, 0.1]
    velocities: [0.03825757575757577, 0.03825757575757577, 0.03825757575757577, 0.03825757575757577, 0.03825757575757577, 0.03825757575757577, 0.03825757575757577, 0.0]
    accelerations: []
    effort: []
    time_from_start: 
      secs: 0
      nsecs:  50000000
---
header: 
  seq: 96
  stamp: 
    secs: 1738887232
    nsecs: 885693788
  frame_id: ''
joint_names: 
  - joint_1
  - joint_2
  - joint_3
  - joint_4
  - joint_5
  - joint_6
  - tcp_lin
  - tcp_rot
points: 
  - 
    positions: [1.11267982858892, 1.11267982858892, -1.11267982858892, 1.11267982858892, 1.11267982858892, 1.11267982858892, 0.1, 0.1]
    velocities: [0.02448729721457004, 0.02448729721457004, 0.02448729721457004, 0.02448729721457004, 0.02448729721457004, 0.02448729721457004, 0.02448729721457004, 0.0]
    accelerations: []
    effort: []
    time_from_start: 
      secs: 0
      nsecs:  50000000
---
header: 
  seq: 97
  stamp: 
    secs: 1738887232
    nsecs: 935696840
  frame_id: ''
joint_names: 
  - joint_1
  - joint_2
  - joint_3
  - joint_4
  - joint_5
  - joint_6
  - tcp_lin
  - tcp_rot
points: 
  - 
    positions: [1.1133685338230797, 1.1133685338230797, -1.1133685338230797, 1.1133685338230797, 1.1133685338230797, 1.1133685338230797, 0.1, 0.1]
    velocities: [0.013774104683195568, 0.013774104683195568, 0.013774104683195568, 0.013774104683195568, 0.013774104683195568, 0.013774104683195568, 0.013774104683195568, 0.0]
    accelerations: []
    effort: []
    time_from_start: 
      secs: 0
      nsecs:  50000000
---
header: 
  seq: 98
  stamp: 
    secs: 1738887232
    nsecs: 985688209
  frame_id: ''
joint_names: 
  - joint_1
  - joint_2
  - joint_3
  - joint_4
  - joint_5
  - joint_6
  - tcp_lin
  - tcp_rot
points: 
  - 
    positions: [1.1136746250382619, 1.1136746250382619, -1.1136746250382619, 1.1136746250382619, 1.1136746250382619, 1.1136746250382619, 0.1, 0.1]
    velocities: [0.00612182430364251, 0.00612182430364251, 0.00612182430364251, 0.00612182430364251, 0.00612182430364251, 0.00612182430364251, 0.00612182430364251, 0.0]
    accelerations: []
    effort: []
    time_from_start: 
      secs: 0
      nsecs:  50000000
---
header: 
  seq: 99
  stamp: 
    secs: 1738887233
    nsecs:  35698175
  frame_id: ''
joint_names: 
  - joint_1
  - joint_2
  - joint_3
  - joint_4
  - joint_5
  - joint_6
  - tcp_lin
  - tcp_rot
points: 
  - 
    positions: [1.1137511478420574, 1.1137511478420574, -1.1137511478420574, 1.1137511478420574, 1.1137511478420574, 1.1137511478420574, 0.1, 0.1]
    velocities: [0.0015304560759106006, 0.0015304560759106006, 0.0015304560759106006, 0.0015304560759106006, 0.0015304560759106006, 0.0015304560759106006, 0.0015304560759106006, 0.0]
    accelerations: []
    effort: []
    time_from_start: 
      secs: 0
      nsecs:  50000000
---
header: 
  seq: 100
  stamp: 
    secs: 1738887233
    nsecs:  85695028
  frame_id: ''
joint_names: 
  - joint_1
  - joint_2
  - joint_3
  - joint_4
  - joint_5
  - joint_6
  - tcp_lin
  - tcp_rot
points: 
  - 
    positions: [1.1137511478420574, 1.1137511478420574, -1.1137511478420574, 1.1137511478420574, 1.1137511478420574, 1.1137511478420574, 0.1, 0.1]
    velocities: [0.0, 0.0, 0.0, 0.0, 0.0, 0.0, 0.0, 0.0]
    accelerations: []
    effort: []
    time_from_start: 
      secs: 0
      nsecs:  50000000
---
header: 
  seq: 101
  stamp: 
    secs: 1738887233
    nsecs: 135690927
  frame_id: ''
joint_names: 
  - joint_1
  - joint_2
  - joint_3
  - joint_4
  - joint_5
  - joint_6
  - tcp_lin
  - tcp_rot
points: 
  - 
    positions: [1.1137511478420574, 1.1137511478420574, -1.1137511478420574, 1.1137511478420574, 1.1137511478420574, 1.1137511478420574, 0.1, 0.1]
    velocities: [0.0, 0.0, 0.0, 0.0, 0.0, 0.0, 0.0, 0.0]
    accelerations: []
    effort: []
    time_from_start: 
      secs: 0
      nsecs:  50000000
---
header: 
  seq: 102
  stamp: 
    secs: 1738887234
    nsecs: 186074018
  frame_id: ''
joint_names: 
  - joint_1
  - joint_2
  - joint_3
  - joint_4
  - joint_5
  - joint_6
  - tcp_lin
  - tcp_rot
points: 
  - 
    positions: [0.0, 0.0, 0.0, 0.0, 0.0, 0.0, 0.1, 0.1]
    velocities: []
    accelerations: []
    effort: []
    time_from_start: 
      secs: 3
      nsecs:         0
---
header: 
  seq: 103
  stamp: 
    secs: 1738887239
    nsecs: 190265417
  frame_id: ''
joint_names: 
  - joint_1
  - joint_2
  - joint_3
  - joint_4
  - joint_5
  - joint_6
  - tcp_lin
  - tcp_rot
points: 
  - 
    positions: [0.0, 0.0, -0.0, 0.0, 0.0, 0.0, 0.1, 0.1]
    velocities: [0.0, 0.0, 0.0, 0.0, 0.0, 0.0, 0.0, 0.0]
    accelerations: []
    effort: []
    time_from_start: 
      secs: 0
      nsecs:  33333333
---
header: 
  seq: 104
  stamp: 
    secs: 1738887239
    nsecs: 223705291
  frame_id: ''
joint_names: 
  - joint_1
  - joint_2
  - joint_3
  - joint_4
  - joint_5
  - joint_6
  - tcp_lin
  - tcp_rot
points: 
  - 
    positions: [2.2521508040178367e-05, 2.2521508040178367e-05, -2.2521508040178367e-05, 2.2521508040178367e-05, 2.2521508040178367e-05, 2.2521508040178367e-05, 0.1, 0.1]
    velocities: [0.000675645241205351, 0.000675645241205351, 0.000675645241205351, 0.000675645241205351, 0.000675645241205351, 0.000675645241205351, 0.000675645241205351, 0.0]
    accelerations: []
    effort: []
    time_from_start: 
      secs: 0
      nsecs:  33333333
---
header: 
  seq: 105
  stamp: 
    secs: 1738887239
    nsecs: 257034301
  frame_id: ''
joint_names: 
  - joint_1
  - joint_2
  - joint_3
  - joint_4
  - joint_5
  - joint_6
  - tcp_lin
  - tcp_rot
points: 
  - 
    positions: [0.00011260754020089183, 0.00011260754020089183, -0.00011260754020089183, 0.00011260754020089183, 0.00011260754020089183, 0.00011260754020089183, 0.1, 0.1]
    velocities: [0.002702580964821404, 0.002702580964821404, 0.002702580964821404, 0.002702580964821404, 0.002702580964821404, 0.002702580964821404, 0.002702580964821404, 0.0]
    accelerations: []
    effort: []
    time_from_start: 
      secs: 0
      nsecs:  33333333
---
header: 
  seq: 106
  stamp: 
    secs: 1738887239
    nsecs: 290369272
  frame_id: ''
joint_names: 
  - joint_1
  - joint_2
  - joint_3
  - joint_4
  - joint_5
  - joint_6
  - tcp_lin
  - tcp_rot
points: 
  - 
    positions: [0.0003153011125624971, 0.0003153011125624971, -0.0003153011125624971, 0.0003153011125624971, 0.0003153011125624971, 0.0003153011125624971, 0.1, 0.1]
