header: 
  seq: 243334
  stamp: 
    secs: 1738886677
    nsecs: 869578302
  frame_id: ''
name: 
  - joint_1
  - joint_2
  - joint_3
  - joint_4
  - joint_5
  - joint_6
  - tcp_lin
  - tcp_rot
position: [4.94370974759733e-09, -4.593719406415098e-13, -1.4043804959315893e-07, -2.0138011179457493e-07, -3.699052728926283e-08, -5.992124368335584e-08, 0.1, 0.1]
velocity: [4.863547733136955e-06, 5.342348728450315e-06, -3.791870924929463e-05, -6.641097968433086e-05, -5.238152075455432e-06, -6.2463494465899125e-06, 0.0, 0.0]
effort: [-14.121315000000001, -24.378, -20.828, -0.1999542857142857, 0.0, 0.304, 0.0, 0.0]
---
header: 
  seq: 243335
  stamp: 
    secs: 1738886677
    nsecs: 890447639
  frame_id: ''
name: 
  - joint_1
  - joint_2
  - joint_3
  - joint_4
  - joint_5
  - joint_6
  - tcp_lin
  - tcp_rot
position: [6.427225008424315e-08, -8.987967701288761e-08, 4.681150417017508e-08, 1.726134573817885e-07, -3.698177312770912e-08, -2.396684603576403e-07, 0.1, 0.1]
velocity: [7.679224810589953e-06, -2.3132893073951388e-05, 3.141953948313784e-06, 4.9932696525318185e-05, -2.7689098564600206e-05, -6.588700712233469e-05, 0.0, 0.0]
effort: [-14.483400000000001, -23.9, -20.9296, -0.69984, 0.051840000000000004, 0.336, 0.0, 0.0]
---
header: 
  seq: 243336
  stamp: 
    secs: 1738886677
    nsecs: 910446356
  frame_id: ''
name: 
  - joint_1
  - joint_2
  - joint_3
  - joint_4
  - joint_5
  - joint_6
  - tcp_lin
  - tcp_rot
position: [-3.527485001154203e-08, 7.741139765379409e-11, 9.327391273003775e-09, 8.547590020649271e-08, 7.535327684585093e-10, -1.7704310176326533e-07, 0.1, 0.1]
velocity: [-1.1697793869006592e-05, 3.557796944510478e-06, -1.062320752548201e-06, 1.7529884821174884e-05, -8.802272018824096e-07, -4.777265705770085e-05, 0.0, 0.0]
effort: [-14.845485000000002, -24.855999999999998, -20.9296, -0.69984, 0.051840000000000004, 0.28800000000000003, 0.0, 0.0]
---
header: 
  seq: 243337
  stamp: 
    secs: 1738886677
    nsecs: 930448778
  frame_id: ''
name: 
  - joint_1
  - joint_2
  - joint_3
  - joint_4
  - joint_5
  - joint_6
  - tcp_lin
  - tcp_rot
position: [-5.439207836626285e-08, 3.00038081236045e-08, -2.8084113039610822e-08, 2.8780940831650384e-08, 1.1097161084153414e-07, 1.7991058213717153e-07, 0.1, 0.1]
velocity: [-8.685724100278963e-06, 1.6093809696543873e-06, -5.275747591196499e-06, 1.2277497503863057e-05, 2.8120976923446654e-05, 4.116569166164005e-05, 0.0, 0.0]
effort: [-14.121315000000001, -24.855999999999998, -20.9296, -0.4332342857142857, 0.07776000000000001, 0.28800000000000003, 0.0, 0.0]
---
header: 
  seq: 243338
  stamp: 
    secs: 1738886677
    nsecs: 950456787
  frame_id: ''
name: 
  - joint_1
  - joint_2
  - joint_3
  - joint_4
  - joint_5
  - joint_6
  - tcp_lin
  - tcp_rot
position: [-5.442055814377382e-08, -2.995153731675652e-08, 1.5934992638726378e-07, 5.758068586213562e-08, 6.535718115883963e-11, 4.97283226648628e-10, 0.1, 0.1]
velocity: [-1.4762177538364932e-05, -6.083991168899009e-06, 2.5224453688026262e-05, 2.8305929021340747e-05, -7.1551452192546225e-06, 2.3760085323263174e-05, 0.0, 0.0]
effort: [-14.845485000000002, -23.9, -20.9296, -0.5665371428571429, 0.12960000000000002, 0.336, 0.0, 0.0]
---
header: 
  seq: 243339
  stamp: 
    secs: 1738886677
    nsecs: 969589050
  frame_id: ''
name: 
  - joint_1
  - joint_2
  - joint_3
  - joint_4
  - joint_5
  - joint_6
  - tcp_lin
  - tcp_rot
position: [6.425973238002902e-08, -3.000858667677781e-08, -2.83200027512256e-08, -2.2811712416827549e-07, 3.662672702633474e-08, -1.1959554131429661e-07, 0.1, 0.1]
velocity: [1.768713962256072e-05, -8.33558293408008e-06, -2.203126696812173e-07, -1.8227381993685368e-05, 1.6115735772770097e-05, -2.0737837447840466e-05, 0.0, 0.0]
effort: [-14.483400000000001, -25.334, -20.9296, -0.69984, 0.07776000000000001, 0.272, 0.0, 0.0]
---
header: 
  seq: 243340
  stamp: 
    secs: 1738886677
    nsecs: 990447005
  frame_id: ''
name: 
  - joint_1
  - joint_2
  - joint_3
  - joint_4
  - joint_5
  - joint_6
  - tcp_lin
  - tcp_rot
position: [8.405560614571669e-08, -2.9965187249841745e-08, 9.369145800696426e-09, -2.8755279713108913e-08, 5.770503721275292e-12, -2.3974276561575486e-07, 0.1, 0.1]
velocity: [1.9654674584544215e-05, -6.532478042182116e-06, 4.662567845915061e-06, 1.824056080252159e-05, 7.747946437257776e-06, -6.432244107739123e-05, 0.0, 0.0]
effort: [-14.121315000000001, -24.616999999999997, -21.0312, -0.6665142857142857, -0.025920000000000002, 0.304, 0.0, 0.0]
---
header: 
  seq: 243341
  stamp: 
    secs: 1738886678
    nsecs:  10445345
  frame_id: ''
name: 
  - joint_1
  - joint_2
  - joint_3
  - joint_4
  - joint_5
  - joint_6
  - tcp_lin
  - tcp_rot
position: [2.4716200665821324e-08, -4.1121399002708857e-13, 1.5915765045130106e-07, 2.8766280923807445e-08, 4.910789574894244e-12, -6.946796528530669e-13, 0.1, 0.1]
velocity: [5.44966421575943e-06, 2.7743955950901254e-06, 1.554678474088062e-05, 1.644523693990147e-05, 3.8083942375457586e-06, 4.669354362645502e-06, 0.0, 0.0]
effort: [-14.845485000000002, -24.139, -20.9296, -0.5998628571428571, 0.025920000000000002, 0.336, 0.0, 0.0]
---
header: 
  seq: 243342
  stamp: 
    secs: 1738886678
    nsecs:  30446914
  frame_id: ''
name: 
  - joint_1
  - joint_2
  - joint_3
  - joint_4
  - joint_5
  - joint_6
  - tcp_lin
  - tcp_rot
position: [2.4716979899284317e-08, -2.9956344962384155e-08, -6.554130124431377e-08, -3.164561331499191e-07, -5.5775400723242235e-12, 3.974650603940045e-13, 0.1, 0.1]
velocity: [4.9028144224830475e-06, -8.724415505511938e-06, -1.2928159893392877e-05, -3.00857567456659e-05, 8.91189971998008e-06, 1.9517773258338314e-06, 0.0, 0.0]
effort: [-15.931740000000001, -24.616999999999997, -20.828, -0.69984, 0.0, 0.272, 0.0, 0.0]
---
header: 
  seq: 243343
  stamp: 
    secs: 1738886678
    nsecs:  50447002
  frame_id: ''
name: 
  - joint_1
  - joint_2
  - joint_3
  - joint_4
  - joint_5
  - joint_6
  - tcp_lin
  - tcp_rot
position: [-3.460797726354694e-08, 8.670676708717683e-14, 8.425812652628652e-08, -5.753706009396748e-08, -3.6992382794135264e-08, -5.55593011793982e-12, 0.1, 0.1]
velocity: [-1.850872172558749e-06, 2.3286287372372145e-06, 2.7767946932643253e-05, -1.8854756352147992e-05, 2.9287004597361763e-06, 3.09595089867713e-05, 0.0, 0.0]
effort: [-14.483400000000001, -24.139, -20.726399999999998, -0.7331657142857143, -0.025920000000000002, 0.32, 0.0, 0.0]
---
header: 
  seq: 243344
  stamp: 
    secs: 1738886678
    nsecs:  70448338
  frame_id: ''
name: 
  - joint_1
  - joint_2
  - joint_3
  - joint_4
  - joint_5
  - joint_6
  - tcp_lin
  - tcp_rot
position: [6.305459690310756e-08, -5.357626942600757e-10, 8.73329579449291e-09, 4.5822625120415585e-07, -3.703529765473358e-08, 6.133540133185468e-08, 0.1, 0.1]
velocity: [1.877056697916607e-05, 2.8299721904564797e-06, 5.507540600473439e-06, 0.00013274234568734101, -3.05990929508133e-06, 1.2479842648055618e-05, 0.0, 0.0]
effort: [-14.121315000000001, -23.660999999999998, -20.6248, -0.29993142857142857, 0.025920000000000002, 0.32, 0.0, 0.0]
---
header: 
  seq: 243345
  stamp: 
    secs: 1738886678
    nsecs:  90445261
  frame_id: ''
name: 
  - joint_1
  - joint_2
  - joint_3
  - joint_4
  - joint_5
  - joint_6
  - tcp_lin
  - tcp_rot
position: [4.93704498215344e-09, -5.97256110499952e-13, -1.0300810005235678e-07, -3.741064031805489e-07, -1.1103052330655557e-07, -6.008332348106011e-08, 0.1, 0.1]
velocity: [-1.2747244551276971e-06, 1.6084802007136148e-06, -2.5134635057988232e-05, -0.00010095677810489776, -4.7216677264457566e-05, -4.64527953086923e-05, 0.0, 0.0]
effort: [-15.207570000000002, -24.855999999999998, -20.9296, -0.7664914285714286, 0.0, 0.304, 0.0, 0.0]
---
header: 
  seq: 243346
  stamp: 
    secs: 1738886678
    nsecs: 110445382
  frame_id: ''
name: 
  - joint_1
  - joint_2
  - joint_3
  - joint_4
  - joint_5
  - joint_6
  - tcp_lin
  - tcp_rot
position: [-7.416311723493994e-08, 4.611055942493615e-12, -1.0299709893338673e-07, -1.1510156753319812e-07, 1.4795388543551645e-07, -5.99171913853983e-08, 0.1, 0.1]
velocity: [-1.921922569426349e-05, 1.6188159403306633e-06, -2.779200077337697e-05, -6.599591471762765e-05, 3.4045055616535435e-05, -2.4267029241984563e-05, 0.0, 0.0]
effort: [-15.931740000000001, -23.9, -20.6248, -0.5665371428571429, 0.051840000000000004, 0.32, 0.0, 0.0]
---
header: 
  seq: 243347
  stamp: 
    secs: 1738886678
    nsecs: 129537390
  frame_id: ''
name: 
  - joint_1
  - joint_2
  - joint_3
  - joint_4
  - joint_5
  - joint_6
  - tcp_lin
  - tcp_rot
position: [2.4743956654149333e-08, -3.0027869438013254e-08, 1.0212134586284994e-08, -1.1420369759654321e-07, -7.36563919715298e-08, -5.931478986405856e-08, 0.1, 0.1]
velocity: [1.697495345530386e-06, -4.755954219224898e-06, -1.3123488245983167e-05, -2.4420578933807008e-05, -1.6651105097588916e-05, -9.864613644455822e-06, 0.0, 0.0]
effort: [-13.397145000000002, -23.9, -20.9296, -0.16662857142857143, 0.051840000000000004, 0.352, 0.0, 0.0]
---
header: 
  seq: 243348
  stamp: 
    secs: 1738886678
    nsecs: 150810497
  frame_id: ''
name: 
  - joint_1
  - joint_2
  - joint_3
  - joint_4
  - joint_5
  - joint_6
  - tcp_lin
  - tcp_rot
position: [8.404845029759929e-08, 2.996430861954487e-08, 9.380704847438605e-09, 5.75441254953798e-08, 3.699994233218357e-08, -1.1984788712390114e-07, 0.1, 0.1]
velocity: [1.6030452647245116e-05, 8.990181515270307e-06, 1.1179376761879462e-05, 1.972505664932098e-05, 8.973328756905307e-06, -2.8617348343937714e-05, 0.0, 0.0]
effort: [-15.207570000000002, -24.378, -20.828, -0.5998628571428571, 0.025920000000000002, 0.256, 0.0, 0.0]
---
header: 
  seq: 243349
  stamp: 
    secs: 1738886678
    nsecs: 169574877
  frame_id: ''
name: 
  - joint_1
  - joint_2
  - joint_3
  - joint_4
  - joint_5
  - joint_6
  - tcp_lin
  - tcp_rot
position: [6.402327795594393e-08, 2.978077222523451e-08, 4.6581226542584475e-08, -1.709494713257212e-07, -3.640551635105768e-08, 5.947269913873231e-08, 0.1, 0.1]
velocity: [1.2841492783572833e-05, 8.62382503812195e-06, 1.098020298104145e-05, -3.818933854542775e-05, -5.914089665428048e-06, 9.044805257357568e-06, 0.0, 0.0]
effort: [-14.483400000000001, -24.378, -20.9296, -0.13330285714285714, 0.051840000000000004, 0.304, 0.0, 0.0]
---
header: 
  seq: 243350
  stamp: 
    secs: 1738886678
    nsecs: 190545367
  frame_id: ''
name: 
  - joint_1
  - joint_2
  - joint_3
  - joint_4
  - joint_5
  - joint_6
  - tcp_lin
  - tcp_rot
position: [2.4717651644503258e-08, -2.995970266890049e-08, -2.807793126092319e-08, 5.7546027866152105e-08, 3.697328688029143e-08, -5.993637690392176e-08, 0.1, 0.1]
velocity: [-3.471868040354246e-06, -6.153638309829063e-06, 2.7888143048469013e-06, 5.368851783374278e-05, -3.374383574684451e-06, -1.092275684444807e-05, 0.0, 0.0]
effort: [-15.569655000000003, -23.9, -20.828, -1.5329828571428572, 0.025920000000000002, 0.32, 0.0, 0.0]
---
header: 
  seq: 243351
  stamp: 
    secs: 1738886678
    nsecs: 210445777
  frame_id: ''
name: 
  - joint_1
  - joint_2
  - joint_3
  - joint_4
  - joint_5
  - joint_6
  - tcp_lin
  - tcp_rot
position: [2.4718385693029047e-08, -8.988427172464942e-08, 8.426575505948716e-08, 2.8758626505620905e-08, 7.398050956687762e-08, 5.992796521224696e-08, 0.1, 0.1]
velocity: [2.5117999914193583e-07, -2.650964857042137e-05, 1.579550763073399e-05, -4.215767520195192e-05, 2.4724473046699962e-05, 3.142935451654065e-05, 0.0, 0.0]
effort: [-14.483400000000001, -23.9, -20.9296, -0.4332342857142857, 0.025920000000000002, 0.272, 0.0, 0.0]
---
header: 
  seq: 243352
  stamp: 
    secs: 1738886678
    nsecs: 230445884
  frame_id: ''
name: 
  - joint_1
  - joint_2
  - joint_3
  - joint_4
  - joint_5
  - joint_6
  - tcp_lin
  - tcp_rot
position: [8.426435460695772e-08, 8.941734171428079e-08, -6.609941727996234e-08, -2.5598820985092185e-07, 1.093776553972687e-07, 2.1543150497601533e-09, 0.1, 0.1]
velocity: [1.5928966721252593e-05, 2.6340868661055537e-05, -3.44601728408501e-06, -4.577594620743353e-05, 3.26105662997949e-05, -2.3045799056919787e-05, 0.0, 0.0]
effort: [-15.207570000000002, -23.9, -20.828, -0.36658285714285715, 0.051840000000000004, 0.28800000000000003, 0.0, 0.0]
---
header: 
  seq: 243353
  stamp: 
    secs: 1738886678
    nsecs: 250445622
  frame_id: ''
name: 
  - joint_1
  - joint_2
  - joint_3
  - joint_4
  - joint_5
  - joint_6
  - tcp_lin
  - tcp_rot
position: [4.448120035492283e-08, -2.996356835403629e-08, -2.8105162063152386e-08, 1.4380457500932327e-07, -3.69917686140687e-08, -1.1985198191343288e-07, 0.1, 0.1]
velocity: [1.8370329871066316e-05, -8.372799203692609e-06, -1.0280199681806412e-05, 3.50498111140577e-05, -9.50936226322775e-06, -2.7146489806608732e-05, 0.0, 0.0]
effort: [-14.483400000000001, -24.139, -20.726399999999998, -1.3330285714285715, 0.025920000000000002, 0.336, 0.0, 0.0]
---
header: 
  seq: 243354
  stamp: 
    secs: 1738886678
    nsecs: 270445212
  frame_id: ''
name: 
  - joint_1
  - joint_2
  - joint_3
  - joint_4
  - joint_5
  - joint_6
  - tcp_lin
  - tcp_rot
position: [8.405338149744596e-08, -2.9958828053055836e-08, -2.808537184079242e-08, -1.4385228549445412e-07, -3.699424632496385e-08, 2.793716787744526e-11, 0.1, 0.1]
velocity: [1.671972415160635e-05, -7.078469349172752e-06, -1.0849510787452642e-05, -2.209254347166917e-05, -1.2954296963640993e-05, 5.940815595490173e-06, 0.0, 0.0]
effort: [-14.845485000000002, -24.139, -20.9296, -0.69984, 0.025920000000000002, 0.272, 0.0, 0.0]
---
header: 
  seq: 243355
  stamp: 
    secs: 1738886678
    nsecs: 289654673
  frame_id: ''
name: 
  - joint_1
  - joint_2
  - joint_3
  - joint_4
  - joint_5
  - joint_6
  - tcp_lin
  - tcp_rot
position: [8.449119036658092e-08, 9.10197069895892e-08, -2.809783919636853e-08, 4.6130670469908276e-07, 3.6566567735318794e-08, 5.980883276112184e-08, 0.1, 0.1]
velocity: [2.206980916454069e-05, 2.461920818181638e-05, 7.074976529817124e-07, 0.00011588596409035794, -1.7894769701309103e-06, 9.246368292482734e-06, 0.0, 0.0]
effort: [-14.483400000000001, -24.139, -20.6248, -0.69984, 0.025920000000000002, 0.272, 0.0, 0.0]
---
header: 
  seq: 243356
  stamp: 
    secs: 1738886678
    nsecs: 310444987
  frame_id: ''
name: 
  - joint_1
  - joint_2
  - joint_3
  - joint_4
  - joint_5
  - joint_6
  - tcp_lin
  - tcp_rot
position: [4.4496005779577045e-08, 8.988214237192083e-08, 4.681172875694515e-08, 1.7260817293319162e-07, 8.927021453342947e-13, -5.992397671643571e-08, 0.1, 0.1]
velocity: [4.797638762091258e-06, 1.7944301866169478e-05, 9.721433768089461e-06, 6.7139647008827e-05, -1.7445762312048067e-06, 7.369267035935373e-06, 0.0, 0.0]
effort: [-14.483400000000001, -23.9, -20.726399999999998, -0.5998628571428571, 0.025920000000000002, 0.32, 0.0, 0.0]
---
header: 
  seq: 243357
  stamp: 
    secs: 1738886678
    nsecs: 330445259
  frame_id: ''
name: 
  - joint_1
  - joint_2
  - joint_3
  - joint_4
  - joint_5
  - joint_6
  - tcp_lin
  - tcp_rot
position: [-1.4838831408533e-08, -2.9945991136096254e-08, 9.36139610090299e-09, -2.8776705998872034e-07, -3.6983879861459473e-08, 1.1987806058639436e-07, 0.1, 0.1]
velocity: [-2.5521664381353875e-06, -6.562397100443998e-06, 3.203378619489868e-06, -8.726639431174043e-05, -1.120393639832159e-05, 3.0028708178364784e-05, 0.0, 0.0]
effort: [-14.845485000000002, -24.139, -20.9296, -0.3999085714285714, 0.0, 0.28800000000000003, 0.0, 0.0]
---
header: 
  seq: 243358
  stamp: 
    secs: 1738886678
    nsecs: 350450509
  frame_id: ''
name: 
  - joint_1
  - joint_2
  - joint_3
  - joint_4
  - joint_5
  - joint_6
  - tcp_lin
  - tcp_rot
position: [2.4722766347096566e-08, 8.990006628217987e-08, 9.348069742684362e-09, -4.315506599503254e-07, -4.2198632830848233e-13, 4.393064589328201e-11, 0.1, 0.1]
velocity: [1.1458491211645521e-06, 2.8898957587508183e-05, -1.6265153276497398e-05, -9.909240043302041e-05, 2.778183459944171e-06, 1.0584073974137382e-05, 0.0, 0.0]
effort: [-15.207570000000002, -23.9, -20.9296, -0.6665142857142857, 0.051840000000000004, 0.272, 0.0, 0.0]
---
header: 
  seq: 243359
  stamp: 
    secs: 1738886678
    nsecs: 370445359
  frame_id: ''
name: 
  - joint_1
  - joint_2
  - joint_3
  - joint_4
  - joint_5
  - joint_6
  - tcp_lin
  - tcp_rot
position: [2.4711164110185508e-08, -1.121264195660328e-11, 4.6807057995138324e-08, 1.4381538625933064e-07, -3.6986483850303556e-08, 2.3972792603783557e-07, 0.1, 0.1]
velocity: [4.860089703054659e-06, 1.535477977284581e-06, 1.7760962031739806e-05, 5.0436292211291395e-05, -5.243790510516449e-06, 5.782838108959611e-05, 0.0, 0.0]
effort: [-15.569655000000003, -24.378, -21.0312, -0.5998628571428571, 0.07776000000000001, 0.304, 0.0, 0.0]
---
header: 
  seq: 243360
  stamp: 
    secs: 1738886678
    nsecs: 390446435
  frame_id: ''
name: 
  - joint_1
  - joint_2
  - joint_3
  - joint_4
  - joint_5
  - joint_6
  - tcp_lin
  - tcp_rot
position: [-3.452201902236734e-08, -2.9840519614194196e-08, -6.563357401177861e-08, -4.0252345190566833e-07, -3.6820194410037e-08, -1.7957593795392337e-07, 0.1, 0.1]
velocity: [-5.386845744493763e-06, -1.1523934773942658e-05, -1.1117632934960393e-06, -0.00010703640100987726, -5.451839963462424e-06, -4.534235689698909e-05, 0.0, 0.0]
effort: [-15.207570000000002, -24.139, -20.726399999999998, -0.1999542857142857, 0.07776000000000001, 0.272, 0.0, 0.0]
---
header: 
  seq: 243361
  stamp: 
    secs: 1738886678
    nsecs: 410445432
  frame_id: ''
name: 
  - joint_1
  - joint_2
  - joint_3
  - joint_4
  - joint_5
  - joint_6
  - tcp_lin
  - tcp_rot
position: [-7.416075532047395e-08, 2.998423447540567e-08, -2.8097859708163304e-08, -2.5886584554170796e-07, -7.395454605767274e-08, 1.7987427845238986e-07, 0.1, 0.1]
velocity: [-1.7641724022837567e-05, 6.777801294606347e-06, -1.5374592335689123e-05, -6.0535773757991065e-05, -1.2745180217357643e-05, 5.061021978238015e-05, 0.0, 0.0]
effort: [-14.845485000000002, -24.139, -20.828, -0.5332114285714286, 0.025920000000000002, 0.304, 0.0, 0.0]
---
header: 
  seq: 243362
  stamp: 
    secs: 1738886678
    nsecs: 430445519
  frame_id: ''
name: 
  - joint_1
  - joint_2
  - joint_3
  - joint_4
  - joint_5
  - joint_6
  - tcp_lin
  - tcp_rot
position: [-5.4377859873556444e-08, 2.994782637071611e-08, -2.8076940606823216e-08, 2.881405975868713e-08, -3.6973449345761506e-08, 3.5947424473659644e-07, 0.1, 0.1]
velocity: [-1.6717562536199994e-05, 1.142402135739685e-05, 4.763831065460561e-06, -5.749749151212342e-05, -1.7243584240335795e-05, 9.968851049335597e-05, 0.0, 0.0]
effort: [-13.397145000000002, -24.855999999999998, -21.1328, -0.09997714285714285, 0.051840000000000004, 0.32, 0.0, 0.0]
---
header: 
  seq: 243363
  stamp: 
    secs: 1738886678
    nsecs: 449730283
  frame_id: ''
name: 
  - joint_1
  - joint_2
  - joint_3
  - joint_4
  - joint_5
  - joint_6
  - tcp_lin
  - tcp_rot
position: [-5.47136518000012e-08, 3.003093414633176e-08, -6.385252642963037e-08, -3.1511497102654596e-07, -3.706902778924266e-08, -8.101910758003365e-11, 0.1, 0.1]
velocity: [-9.485630879318025e-06, 5.838744481555889e-06, -2.623169234884879e-05, -9.529760583371771e-05, -4.69425944272498e-06, -2.4137344035385324e-06, 0.0, 0.0]
effort: [-15.569655000000003, -24.616999999999997, -20.9296, -0.23328, 0.025920000000000002, 0.28800000000000003, 0.0, 0.0]
---
header: 
  seq: 243364
  stamp: 
    secs: 1738886678
    nsecs: 470445530
  frame_id: ''
name: 
  - joint_1
  - joint_2
  - joint_3
  - joint_4
  - joint_5
  - joint_6
  - tcp_lin
  - tcp_rot
position: [6.427266969415063e-08, -2.997323297120916e-08, -1.0299232925961515e-07, -2.8745767691627587e-08, 3.720919264682372e-12, 2.717022293577501e-11, 0.1, 0.1]
velocity: [1.2781574640843903e-05, -1.4273278925117856e-05, -1.3303726397840037e-05, 3.892177613248702e-05, 5.981750509800811e-06, 1.3285430060207761e-05, 0.0, 0.0]
effort: [-16.293825000000002, -23.9, -20.828, -0.6331885714285714, 0.15552000000000002, 0.304, 0.0, 0.0]
---
header: 
  seq: 243365
  stamp: 
    secs: 1738886678
    nsecs: 490445816
  frame_id: ''
name: 
  - joint_1
  - joint_2
  - joint_3
  - joint_4
  - joint_5
  - joint_6
  - tcp_lin
  - tcp_rot
position: [-3.46130425845618e-08, 2.8579714109907743e-11, 4.685540316030875e-08, -2.8718641926142915e-08, -2.7468843096739956e-11, -4.6870019929340527e-11, 0.1, 0.1]
velocity: [-1.4706656440414865e-05, 1.152315481053639e-05, 2.1382471149108002e-05, 1.6650840442107562e-05, -1.504979455924797e-05, -1.291224914881722e-05, 0.0, 0.0]
effort: [-14.483400000000001, -24.378, -20.828, -0.3999085714285714, 0.07776000000000001, 0.32, 0.0, 0.0]
---
header: 
  seq: 243366
  stamp: 
    secs: 1738886678
    nsecs: 510471736
  frame_id: ''
name: 
  - joint_1
  - joint_2
  - joint_3
  - joint_4
  - joint_5
  - joint_6
  - tcp_lin
  - tcp_rot
position: [-3.4612775385847686e-08, 1.4981580939629373e-07, 4.6808805479274416e-08, 1.438478499775812e-07, -3.699441140253122e-08, 5.990481691840029e-08, 0.1, 0.1]
velocity: [-7.910287300038911e-06, 4.250714328739308e-05, 1.0866637303632204e-05, 1.2421647977150034e-05, -9.951486344969788e-06, -7.483993134293502e-06, 0.0, 0.0]
effort: [-14.845485000000002, -23.9, -20.9296, -0.29993142857142857, -0.025920000000000002, 0.304, 0.0, 0.0]
---
header: 
  seq: 243367
  stamp: 
    secs: 1738886678
    nsecs: 530445206
  frame_id: ''
name: 
  - joint_1
  - joint_2
  - joint_3
  - joint_4
  - joint_5
  - joint_6
  - tcp_lin
  - tcp_rot
position: [2.471812920741618e-08, 1.6282014455754294e-13, -1.0299630377190378e-07, 2.2895531277317966e-11, 7.398110782447635e-08, 1.198501819838156e-07, 0.1, 0.1]
velocity: [7.383335822779406e-07, -1.85037501311814e-06, -3.4266445825276036e-05, 2.7519498911848933e-05, 2.3892180274682664e-05, 2.97675146159334e-05, 0.0, 0.0]
effort: [-15.207570000000002, -23.660999999999998, -21.1328, -0.33325714285714286, 0.051840000000000004, 0.336, 0.0, 0.0]
---
header: 
  seq: 243368
  stamp: 
    secs: 1738886678
    nsecs: 549633142
  frame_id: ''
name: 
  - joint_1
  - joint_2
  - joint_3
  - joint_4
  - joint_5
  - joint_6
  - tcp_lin
  - tcp_rot
position: [-1.3765220915307234e-08, -3.044024591019199e-08, 4.778805024242057e-08, -3.5031486277887694e-08, -6.81385049447549e-08, 1.102743886658746e-07, 0.1, 0.1]
velocity: [-7.869470820903496e-06, -6.077765496306661e-06, 5.395211888563148e-06, -2.045386759090138e-05, -1.0738958922212317e-05, 2.3426047852461227e-05, 0.0, 0.0]
effort: [-14.483400000000001, -24.855999999999998, -20.9296, -0.49988571428571427, 0.025920000000000002, 0.304, 0.0, 0.0]
---
header: 
  seq: 243369
  stamp: 
    secs: 1738886678
    nsecs: 570445522
  frame_id: ''
name: 
  - joint_1
  - joint_2
  - joint_3
  - joint_4
  - joint_5
  - joint_6
  - tcp_lin
  - tcp_rot
position: [2.4728441349088793e-08, -2.9978407275215344e-08, 4.683384190528728e-08, -1.1519495077115581e-07, -3.698650229936592e-08, -7.573189800524309e-12, 0.1, 0.1]
velocity: [8.265484158688597e-06, -5.806775699313387e-06, 9.762698233216626e-06, -1.0083087741953214e-05, -2.4989275784435346e-06, 1.0241484918626979e-05, 0.0, 0.0]
effort: [-15.569655000000003, -23.422, -20.6248, -0.6331885714285714, 0.025920000000000002, 0.336, 0.0, 0.0]
---
header: 
  seq: 243370
  stamp: 
    secs: 1738886678
    nsecs: 590445190
  frame_id: ''
name: 
  - joint_1
  - joint_2
  - joint_3
  - joint_4
  - joint_5
  - joint_6
  - tcp_lin
  - tcp_rot
position: [-1.4842692769361975e-08, 2.996523331951331e-08, -6.555311996873374e-08, 1.7263308593463198e-07, 1.121271453845783e-12, 5.992043299109417e-08, 0.1, 0.1]
velocity: [-8.714944254190251e-06, 7.945030366196038e-06, -7.01490289339565e-06, 4.579193813587723e-05, -5.29718801000568e-06, 3.2742667774868616e-06, 0.0, 0.0]
effort: [-14.483400000000001, -25.095, -20.6248, -0.8331428571428571, 0.025920000000000002, 0.304, 0.0, 0.0]
---
header: 
  seq: 243371
  stamp: 
    secs: 1738886678
    nsecs: 609483056
  frame_id: ''
name: 
  - joint_1
  - joint_2
  - joint_3
  - joint_4
  - joint_5
  - joint_6
  - tcp_lin
  - tcp_rot
position: [-1.4831415085026025e-08, -2.9965229456468445e-08, 1.2173132104529262e-07, -5.7530324921032575e-08, -3.697297289058553e-08, 5.994114161436207e-08, 0.1, 0.1]
velocity: [-2.5409208225676027e-06, -6.640039885155922e-06, 2.9908692606868277e-05, -5.505808653931645e-06, -2.1722648658479963e-06, 2.0093734648559992e-05, 0.0, 0.0]
effort: [-14.483400000000001, -23.183, -20.828, -0.7331657142857143, 0.0, 0.272, 0.0, 0.0]
---
header: 
  seq: 243372
  stamp: 
    secs: 1738886678
    nsecs: 630446003
  frame_id: ''
name: 
  - joint_1
  - joint_2
  - joint_3
  - joint_4
  - joint_5
  - joint_6
  - tcp_lin
  - tcp_rot
position: [-3.460794343538315e-08, -2.996061271704212e-08, 9.362590600272044e-09, 2.013814144869305e-07, 2.8288596045455957e-13, 2.3968512153709674e-07, 0.1, 0.1]
velocity: [-6.356704749738762e-06, -1.1619358568849656e-05, -5.437921848756024e-06, 7.966765711109322e-05, 4.882119629095999e-06, 7.0452411377737e-05, 0.0, 0.0]
effort: [-14.845485000000002, -23.9, -20.828, -0.6331885714285714, 0.10368000000000001, 0.352, 0.0, 0.0]
---
header: 
  seq: 243373
  stamp: 
    secs: 1738886678
    nsecs: 650447389
  frame_id: ''
name: 
  - joint_1
  - joint_2
  - joint_3
  - joint_4
  - joint_5
  - joint_6
  - tcp_lin
  - tcp_rot
position: [-5.4394363962929035e-08, -2.994024805741549e-08, 9.36603037632649e-09, -2.3003202831490006e-07, 3.6992769403403744e-08, -1.4379077018692575e-10, 0.1, 0.1]
velocity: [-6.149776682223613e-06, -9.79485001622907e-06, 8.274344681128483e-06, -8.358289656859461e-05, 1.0903112368107258e-05, 4.741065509542006e-06, 0.0, 0.0]
effort: [-14.845485000000002, -23.9, -20.5232, -0.6665142857142857, -0.10368000000000001, 0.28800000000000003, 0.0, 0.0]
---
header: 
  seq: 243374
  stamp: 
    secs: 1738886678
    nsecs: 670461299
  frame_id: ''
name: 
  - joint_1
  - joint_2
  - joint_3
  - joint_4
  - joint_5
  - joint_6
  - tcp_lin
  - tcp_rot
position: [4.449810936672276e-08, -2.996141639449368e-08, 8.426134267900762e-08, 2.873745514548226e-08, 7.211877531406557e-12, -3.2061233433706846e-13, 0.1, 0.1]
velocity: [3.3926533139557827e-06, -8.842555837908387e-06, 8.934360251367004e-06, -9.125822323770158e-06, 1.1467518630654546e-06, -3.34174812796558e-06, 0.0, 0.0]
effort: [-15.207570000000002, -23.9, -20.9296, -0.7664914285714286, 0.051840000000000004, 0.336, 0.0, 0.0]
---
header: 
  seq: 243375
  stamp: 
    secs: 1738886678
    nsecs: 690445330
  frame_id: ''
name: 
  - joint_1
  - joint_2
  - joint_3
  - joint_4
  - joint_5
  - joint_6
  - tcp_lin
  - tcp_rot
position: [4.4494650096708746e-08, 3.0068752313014226e-12, 8.426231932074909e-08, -1.726305190081841e-07, -3.8622080097390775e-12, -1.198574962835312e-07, 0.1, 0.1]
velocity: [1.1435216117464939e-05, 2.1214509787663723e-06, 1.6304025703910685e-05, -6.147152560605435e-05, -1.2202233734952531e-06, -3.864817738972755e-05, 0.0, 0.0]
effort: [-15.569655000000003, -25.095, -20.828, -0.2666057142857143, 0.051840000000000004, 0.32, 0.0, 0.0]
---
header: 
  seq: 243376
  stamp: 
    secs: 1738886678
    nsecs: 710447308
  frame_id: ''
name: 
  - joint_1
  - joint_2
  - joint_3
  - joint_4
  - joint_5
  - joint_6
  - tcp_lin
  - tcp_rot
position: [2.528228071133384e-08, -2.9626011744467607e-08, -6.468777461126606e-08, 6.314610641098779e-10, -3.6997209421431986e-08, -8.185141726792331e-10, 0.1, 0.1]
velocity: [4.550978573956197e-07, -6.1926956014305405e-06, -1.4439375940971264e-05, 1.6238520725256462e-05, -2.3665162519162316e-07, 1.0506478805946237e-06, 0.0, 0.0]
effort: [-14.483400000000001, -24.855999999999998, -21.2344, -0.4332342857142857, 0.051840000000000004, 0.304, 0.0, 0.0]
---
header: 
  seq: 243377
  stamp: 
    secs: 1738886678
    nsecs: 730445241
  frame_id: ''
name: 
  - joint_1
  - joint_2
  - joint_3
  - joint_4
  - joint_5
  - joint_6
  - tcp_lin
  - tcp_rot
position: [4.9432727739786095e-09, 1.6225389334816913e-12, 9.3629686248372e-09, 4.027536006476337e-07, 7.397570344678788e-08, 1.1984374651405268e-07, 0.1, 0.1]
velocity: [7.5971462711328795e-06, -2.3020732686724632e-06, 4.980281176786575e-06, 5.7756246992407816e-05, 1.998908018673881e-05, 2.541069250486139e-05, 0.0, 0.0]
effort: [-15.207570000000002, -24.139, -20.6248, -0.8664685714285714, 0.07776000000000001, 0.28800000000000003, 0.0, 0.0]
---
header: 
  seq: 243378
  stamp: 
    secs: 1738886678
    nsecs: 750447083
  frame_id: ''
name: 
  - joint_1
  - joint_2
  - joint_3
  - joint_4
  - joint_5
  - joint_6
  - tcp_lin
  - tcp_rot
position: [2.4755297315376318e-08, 1.9060553718984496e-11, 8.425347039900451e-08, -1.4406770185220336e-07, 3.70561978418324e-08, -5.986741040680866e-08, 0.1, 0.1]
velocity: [1.002849079667545e-05, 3.395189237766586e-06, 1.4771861124976616e-05, -6.160237617706467e-05, 1.640231515317512e-05, -1.4922423203870304e-05, 0.0, 0.0]
effort: [-14.845485000000002, -24.855999999999998, -20.9296, -0.9664457142857142, 0.025920000000000002, 0.256, 0.0, 0.0]
---
header: 
  seq: 243379
  stamp: 
    secs: 1738886678
    nsecs: 769484015
  frame_id: ''
name: 
  - joint_1
  - joint_2
  - joint_3
  - joint_4
  - joint_5
  - joint_6
  - tcp_lin
  - tcp_rot
position: [6.429019082365968e-08, 1.2925481034308708e-12, -1.0308272595092884e-07, -4.319064571873445e-07, -3.695854098884349e-08, 3.559200279762088e-11, 0.1, 0.1]
velocity: [1.569559122570477e-05, -1.7111991562102828e-06, -2.7103589612100227e-05, -0.00013904106873197355, -2.4961959701915712e-06, 1.3722512495903366e-05, 0.0, 0.0]
effort: [-14.483400000000001, -23.422, -20.6248, -0.8664685714285714, 0.025920000000000002, 0.28800000000000003, 0.0, 0.0]
---
header: 
  seq: 243380
  stamp: 
    secs: 1738886678
    nsecs: 790445395
  frame_id: ''
name: 
  - joint_1
  - joint_2
  - joint_3
  - joint_4
  - joint_5
  - joint_6
  - tcp_lin
  - tcp_rot
position: [-1.4829874936359851e-08, -2.99660621061699e-08, -2.8112711181628685e-08, 3.7399760656002307e-07, -7.725088984726146e-12, -3.5966439916641154e-07, 0.1, 0.1]
velocity: [-8.27704192466696e-06, -8.14313276716824e-06, -1.4412137822096367e-05, 4.050672443151901e-05, -6.335885030635873e-06, -0.00011295861361648645, 0.0, 0.0]
effort: [-14.845485000000002, -24.139, -20.726399999999998, -0.6331885714285714, 0.07776000000000001, 0.32, 0.0, 0.0]
---
header: 
  seq: 243381
  stamp: 
    secs: 1738886678
    nsecs: 810445316
  frame_id: ''
name: 
  - joint_1
  - joint_2
  - joint_3
  - joint_4
  - joint_5
  - joint_6
  - tcp_lin
  - tcp_rot
position: [-3.4603964536941264e-08, 1.1771988462624267e-11, -6.552932765856028e-08, -3.73966655670187e-07, 3.697424460143271e-08, 7.819008280383339e-12, 0.1, 0.1]
velocity: [-1.191386849477446e-05, -7.359487046835634e-06, -9.000988499240263e-06, -0.00010081247056794868, 1.2087241981294768e-05, -5.089324854770137e-06, 0.0, 0.0]
effort: [-14.845485000000002, -24.378, -20.6248, -0.16662857142857143, 0.10368000000000001, 0.32, 0.0, 0.0]
---
header: 
  seq: 243382
  stamp: 
    secs: 1738886678
    nsecs: 830454723
  frame_id: ''
name: 
  - joint_1
  - joint_2
  - joint_3
  - joint_4
  - joint_5
  - joint_6
  - tcp_lin
  - tcp_rot
position: [2.4720102916149345e-08, 2.996084298014291e-08, 9.362676436294498e-09, -2.8768574515058535e-08, 7.397718401345261e-08, 1.7976407758711677e-07, 0.1, 0.1]
velocity: [7.979213297047511e-06, 7.5751071484435715e-06, -7.806063450753417e-08, 2.338872047018886e-06, 2.02764190994596e-05, 4.815220351721921e-05, 0.0, 0.0]
effort: [-15.207570000000002, -24.855999999999998, -20.828, -1.5996342857142856, 0.025920000000000002, 0.304, 0.0, 0.0]
---
header: 
  seq: 243383
  stamp: 
    secs: 1738886678
    nsecs: 850445632
  frame_id: ''
name: 
  - joint_1
  - joint_2
  - joint_3
  - joint_4
  - joint_5
  - joint_6
  - tcp_lin
  - tcp_rot
position: [-1.4826863182660121e-08, -2.9965385352989074e-08, 1.5913584995466263e-07, -5.2900302940819176e-11, -3.7008422897400734e-08, -5.994937261587532e-08, 0.1, 0.1]
velocity: [-7.031663389699683e-06, -1.203155221472944e-05, 3.822069212830192e-05, 1.1604585193657535e-05, -1.3131225843086914e-05, -1.0692056218466048e-05, 0.0, 0.0]
effort: [-14.845485000000002, -25.095, -20.6248, -0.49988571428571427, 0.07776000000000001, 0.32, 0.0, 0.0]
---
header: 
  seq: 243384
  stamp: 
    secs: 1738886678
    nsecs: 870445485
  frame_id: ''
name: 
  - joint_1
  - joint_2
  - joint_3
  - joint_4
  - joint_5
  - joint_6
  - tcp_lin
  - tcp_rot
position: [2.4692992817710164e-08, -2.9963035534699987e-08, -1.0303679166264893e-07, 4.313164625098535e-07, -7.396178925602414e-08, -5.3019439240339945e-11, 0.1, 0.1]
velocity: [1.1316831058288631e-05, -2.5651480782333863e-06, -1.2294160446118293e-05, 8.934682211585313e-05, -2.3052824032062314e-05, 1.59270341377155e-06, 0.0, 0.0]
effort: [-17.017995000000003, -24.855999999999998, -21.0312, -0.9997714285714285, 0.025920000000000002, 0.336, 0.0, 0.0]
---
header: 
  seq: 243385
  stamp: 
    secs: 1738886678
    nsecs: 890445751
  frame_id: ''
name: 
  - joint_1
  - joint_2
  - joint_3
  - joint_4
  - joint_5
  - joint_6
  - tcp_lin
  - tcp_rot
position: [2.4704336744193045e-08, -2.999405389911077e-08, 4.683189903225256e-08, 3.4547932251946484e-07, -8.652076551502439e-11, -5.995105974772626e-08, 0.1, 0.1]
velocity: [4.284582788633502e-06, -8.251818189520617e-06, 8.875865492855097e-06, 0.00015358640646191677, -1.4468214144478711e-05, -1.3739171629759367e-05, 0.0, 0.0]
effort: [-15.207570000000002, -24.855999999999998, -21.0312, -0.6331885714285714, 0.025920000000000002, 0.272, 0.0, 0.0]
---
header: 
  seq: 243386
  stamp: 
    secs: 1738886678
    nsecs: 910445430
  frame_id: ''
name: 
  - joint_1
  - joint_2
  - joint_3
  - joint_4
  - joint_5
  - joint_6
  - tcp_lin
  - tcp_rot
position: [2.471834721337874e-08, -2.997112623682796e-08, -1.0299877554286533e-07, 1.4391036634743248e-07, 1.1098791940778131e-07, -1.7977988527177438e-07, 0.1, 0.1]
velocity: [2.9322227262308513e-06, -1.0452917007524481e-05, -2.0199119258961533e-05, 4.927695979266134e-05, 3.173004647545506e-05, -2.94098232791055e-05, 0.0, 0.0]
effort: [-15.207570000000002, -24.139, -20.6248, 0.36658285714285715, 0.025920000000000002, 0.304, 0.0, 0.0]
---
header: 
  seq: 243387
  stamp: 
    secs: 1738886678
    nsecs: 929641019
  frame_id: ''
name: 
  - joint_1
  - joint_2
  - joint_3
  - joint_4
  - joint_5
  - joint_6
  - tcp_lin
  - tcp_rot
position: [-3.406593642614434e-08, -3.0051781444259784e-08, 9.391040475104228e-09, -3.079886713881515e-08, 7.435034714398036e-08, -1.1972961944046017e-07, 0.1, 0.1]
velocity: [-7.575915569984676e-07, -1.3910293814668596e-05, -3.3983250482742425e-06, 1.1326362174445117e-05, 1.808512292237424e-05, -1.414637130334516e-05, 0.0, 0.0]
effort: [-14.483400000000001, -24.378, -20.726399999999998, -0.7664914285714286, 0.07776000000000001, 0.336, 0.0, 0.0]
---
header: 
  seq: 243388
  stamp: 
    secs: 1738886678
    nsecs: 950446543
  frame_id: ''
name: 
  - joint_1
  - joint_2
  - joint_3
  - joint_4
  - joint_5
  - joint_6
  - tcp_lin
  - tcp_rot
position: [2.4730886951447124e-08, -2.9959005118228537e-08, 8.427067420210754e-08, 2.302505749608691e-07, -7.597419108459296e-13, 2.0305252186117633e-11, 0.1, 0.1]
velocity: [1.0528560785544557e-05, -4.129343416955989e-06, 1.997193239117114e-05, 4.921380060303767e-05, 2.0124469590357894e-06, 6.116083124252111e-06, 0.0, 0.0]
effort: [-15.207570000000002, -24.139, -20.9296, -0.7331657142857143, 0.07776000000000001, 0.32, 0.0, 0.0]
---
header: 
  seq: 243389
  stamp: 
    secs: 1738886678
    nsecs: 970446082
  frame_id: ''
name: 
  - joint_1
  - joint_2
  - joint_3
  - joint_4
  - joint_5
  - joint_6
  - tcp_lin
  - tcp_rot
position: [8.4047837086621e-08, 1.4881444606133795e-12, 9.367793987983384e-09, -3.7399758914105606e-07, -3.698637807194018e-08, 5.131639535131762e-12, 0.1, 0.1]
velocity: [1.853602911414722e-05, -1.961180195576949e-07, 8.615198115058221e-06, -0.00011462231866383152, -2.977273116310533e-06, 1.5886928197696936e-05, 0.0, 0.0]
effort: [-14.483400000000001, -24.378, -20.9296, -0.5998628571428571, 0.07776000000000001, 0.28800000000000003, 0.0, 0.0]
---
header: 
  seq: 243390
  stamp: 
    secs: 1738886678
    nsecs: 990449136
  frame_id: ''
name: 
  - joint_1
  - joint_2
  - joint_3
  - joint_4
  - joint_5
  - joint_6
  - tcp_lin
  - tcp_rot
position: [-1.4827668705888044e-08, 2.99649687818577e-08, 4.681305246169738e-08, -2.3008356446382912e-07, 7.39729895729961e-08, -2.9968540562448236e-07, 0.1, 0.1]
velocity: [-8.599954495781696e-07, 8.783296913162202e-06, 1.573995873042512e-06, -1.5812088500681911e-06, 1.7834450999157313e-05, -9.586229087214546e-05, 0.0, 0.0]
effort: [-15.569655000000003, -24.616999999999997, -20.828, -0.8331428571428571, 0.025920000000000002, 0.304, 0.0, 0.0]
---
header: 
  seq: 243391
  stamp: 
    secs: 1738886679
    nsecs:  10445509
  frame_id: ''
name: 
  - joint_1
  - joint_2
  - joint_3
  - joint_4
  - joint_5
  - joint_6
  - tcp_lin
  - tcp_rot
position: [2.4720128651083025e-08, -2.9961894648118675e-08, 4.682152358091228e-08, 8.632413855907793e-08, 1.1061574146058695e-11, -5.991691161927778e-08, 0.1, 0.1]
velocity: [-3.032831370061461e-06, -9.166401175630144e-06, 2.2559790644890716e-05, 3.541544737193702e-05, 1.210941922118625e-05, -5.951502269675796e-06, 0.0, 0.0]
effort: [-15.207570000000002, -25.573, -20.828, -0.69984, 0.051840000000000004, 0.32, 0.0, 0.0]
---
header: 
  seq: 243392
  stamp: 
    secs: 1738886679
    nsecs:  29616415
  frame_id: ''
name: 
  - joint_1
  - joint_2
  - joint_3
  - joint_4
  - joint_5
  - joint_6
  - tcp_lin
  - tcp_rot
position: [-1.4746440175644848e-08, -2.994396717730383e-08, 9.0996458802478e-09, 5.466346940892566e-07, 3.724831909624569e-08, -1.7680298345677215e-11, 0.1, 0.1]
velocity: [-9.059235540274733e-07, -3.915789129955488e-06, -1.1772710186872332e-05, 4.9542939123525596e-05, 1.116978729689945e-05, 6.186187162110339e-06, 0.0, 0.0]
effort: [-15.931740000000001, -23.9, -20.726399999999998, -0.4332342857142857, 0.07776000000000001, 0.304, 0.0, 0.0]
---
header: 
  seq: 243393
  stamp: 
    secs: 1738886679
    nsecs:  50446187
  frame_id: ''
name: 
  - joint_1
  - joint_2
  - joint_3
  - joint_4
  - joint_5
  - joint_6
  - tcp_lin
  - tcp_rot
position: [-3.461521021168522e-08, -2.995949062084259e-08, -6.555495863912282e-08, 8.626627587989807e-08, -1.4795930468153843e-07, 1.1985783239684522e-07, 0.1, 0.1]
velocity: [-1.586899429714377e-05, -6.396268251862732e-06, -1.5730719310899225e-05, 7.184667071734877e-06, -3.885421681812952e-05, 2.712611032459149e-05, 0.0, 0.0]
effort: [-14.845485000000002, -24.378, -21.0312, -0.5998628571428571, 0.025920000000000002, 0.256, 0.0, 0.0]
---
header: 
  seq: 243394
  stamp: 
    secs: 1738886679
    nsecs:  70445467
  frame_id: ''
name: 
  - joint_1
  - joint_2
  - joint_3
  - joint_4
  - joint_5
  - joint_6
  - tcp_lin
  - tcp_rot
position: [-1.48472814255709e-08, 8.648434453750731e-12, -2.8115346367867542e-08, -1.1514000669889107e-07, -3.700766400335941e-08, -5.99348143231981e-08, 0.1, 0.1]
velocity: [-1.02514610925638e-05, 2.2482217386005504e-06, -2.4837018071434922e-05, 7.4397678962260925e-06, -1.2084106196140104e-05, -1.5973757881550294e-05, 0.0, 0.0]
effort: [-15.931740000000001, -24.378, -20.32, -0.2666057142857143, 0.025920000000000002, 0.304, 0.0, 0.0]
---
header: 
  seq: 243395
  stamp: 
    secs: 1738886679
    nsecs:  89520148
  frame_id: ''
name: 
  - joint_1
  - joint_2
  - joint_3
  - joint_4
  - joint_5
  - joint_6
  - tcp_lin
  - tcp_rot
position: [2.3211948391501996e-08, -3.124817887615816e-08, 8.345643908446915e-09, -1.4327272162934533e-07, 3.597535457231487e-08, 1.2511807416451934e-07, 0.1, 0.1]
velocity: [5.546217586120492e-07, -8.485837193194856e-06, 2.904705309191056e-06, -2.1845342646668714e-05, 2.964927893617057e-06, 2.999221258555088e-05, 0.0, 0.0]
effort: [-15.207570000000002, -24.378, -20.9296, -0.23328, 0.051840000000000004, 0.24, 0.0, 0.0]
---
header: 
  seq: 243396
  stamp: 
    secs: 1738886679
    nsecs: 110445365
  frame_id: ''
name: 
  - joint_1
  - joint_2
  - joint_3
  - joint_4
  - joint_5
  - joint_6
  - tcp_lin
  - tcp_rot
position: [4.932852729160379e-09, -2.997634549123808e-08, 8.426041738126203e-08, -1.1504430358446533e-07, 3.701113689773862e-08, -5.993315605140174e-08, 0.1, 0.1]
velocity: [-5.611110457292694e-06, -1.1822083546893551e-05, 1.1166242984321972e-05, -3.561637146909123e-05, 4.5183840357004975e-06, -2.3267786471999077e-05, 0.0, 0.0]
effort: [-14.483400000000001, -24.378, -20.828, -0.23328, 0.051840000000000004, 0.224, 0.0, 0.0]
---
header: 
  seq: 243397
  stamp: 
    secs: 1738886679
    nsecs: 130445378
  frame_id: ''
name: 
  - joint_1
  - joint_2
  - joint_3
  - joint_4
  - joint_5
  - joint_6
  - tcp_lin
  - tcp_rot
position: [-5.4378745597398357e-08, -1.2051410101298243e-11, -1.4044687383009954e-07, -1.4386449906671126e-07, -1.1196543247479668e-12, 2.6664095397115072e-11, 0.1, 0.1]
velocity: [-1.7132755003297896e-05, 7.0607491889853485e-06, -2.9551925605991222e-05, -5.447901588129089e-06, -4.904085891554522e-06, -2.897380309046316e-06, 0.0, 0.0]
effort: [-15.207570000000002, -24.139, -21.0312, -0.7331657142857143, 0.12960000000000002, 0.336, 0.0, 0.0]
---
header: 
  seq: 243398
  stamp: 
    secs: 1738886679
    nsecs: 150456221
  frame_id: ''
name: 
  - joint_1
  - joint_2
  - joint_3
  - joint_4
  - joint_5
  - joint_6
  - tcp_lin
  - tcp_rot
position: [-7.415284630680825e-08, -2.997086727312182e-08, -6.555691321880898e-08, 1.1510558223243974e-07, -5.136787145358156e-12, -5.991855335683644e-08, 0.1, 0.1]
velocity: [-1.4107704229916754e-05, -9.744512579649214e-06, -2.3799018142137647e-05, 2.3050121460732657e-05, -1.1961651067291186e-05, -1.2536270039652159e-05, 0.0, 0.0]
effort: [-15.569655000000003, -24.616999999999997, -20.6248, -0.33325714285714286, 0.07776000000000001, 0.28800000000000003, 0.0, 0.0]
---
header: 
  seq: 243399
  stamp: 
    secs: 1738886679
    nsecs: 170445439
  frame_id: ''
name: 
  - joint_1
  - joint_2
  - joint_3
  - joint_4
  - joint_5
  - joint_6
  - tcp_lin
  - tcp_rot
position: [4.945974045004454e-09, -2.995969245637313e-08, 4.681647011987129e-08, -2.8811712616935462e-08, 7.398706961800531e-08, 4.947338066882019e-12, 0.1, 0.1]
velocity: [4.089516233175289e-06, -6.8859819602057e-06, 1.3053282994394542e-05, -5.7474409465153555e-06, 2.911013057001102e-05, 2.0871877989823826e-05, 0.0, 0.0]
effort: [-14.483400000000001, -23.422, -20.828, -0.23328, 0.025920000000000002, 0.272, 0.0, 0.0]
---
header: 
  seq: 243400
  stamp: 
    secs: 1738886679
    nsecs: 190445333
  frame_id: ''
name: 
  - joint_1
  - joint_2
  - joint_3
  - joint_4
  - joint_5
  - joint_6
  - tcp_lin
  - tcp_rot
position: [6.424633979577976e-08, -3.001591539719042e-08, 8.970374282202473e-09, 3.4109781210641096e-07, 3.713406773767322e-08, 1.1868758858733831e-07, 0.1, 0.1]
velocity: [1.8601413174122635e-05, -5.097500177892811e-06, 4.344400228436065e-06, 4.3793670434949425e-05, 1.3366840611602587e-05, 1.61101575009389e-05, 0.0, 0.0]
effort: [-15.207570000000002, -24.139, -21.0312, -0.33325714285714286, 0.025920000000000002, 0.32, 0.0, 0.0]
---
header: 
  seq: 243401
  stamp: 
    secs: 1738886679
    nsecs: 210446183
  frame_id: ''
name: 
  - joint_1
  - joint_2
  - joint_3
  - joint_4
  - joint_5
  - joint_6
  - tcp_lin
  - tcp_rot
position: [4.944396568336494e-09, -2.996015824151879e-08, -6.553592385360853e-08, -2.0137824115165108e-07, -3.698847587432295e-08, 9.14657809775692e-14, 0.1, 0.1]
velocity: [-5.762682503778348e-07, -1.095030020551358e-05, -1.834867708025299e-05, -7.139455810606129e-05, -5.894144272138079e-06, 4.279621385924734e-06, 0.0, 0.0]
effort: [-15.207570000000002, -24.855999999999998, -21.1328, -0.8331428571428571, 0.07776000000000001, 0.304, 0.0, 0.0]
---
header: 
  seq: 243402
  stamp: 
    secs: 1738886679
    nsecs: 230445750
  frame_id: ''
name: 
  - joint_1
  - joint_2
  - joint_3
  - joint_4
  - joint_5
  - joint_6
  - tcp_lin
  - tcp_rot
position: [-1.4829896626678922e-08, -2.995918893170971e-08, -2.8123076769600296e-08, -2.3013378813230055e-07, -3.7000002428257814e-08, -4.0132809688926996e-11, 0.1, 0.1]
velocity: [-5.785185003044713e-06, -3.853194583224707e-06, -1.4286717619672533e-05, -4.459109843692779e-05, -4.375062686660929e-06, -7.486559469874172e-06, 0.0, 0.0]
effort: [-16.655910000000002, -24.616999999999997, -20.726399999999998, -0.4332342857142857, -0.025920000000000002, 0.272, 0.0, 0.0]
---
header: 
  seq: 243403
  stamp: 
    secs: 1738886679
    nsecs: 249739545
  frame_id: ''
name: 
  - joint_1
  - joint_2
  - joint_3
  - joint_4
  - joint_5
  - joint_6
  - tcp_lin
  - tcp_rot
position: [4.349570111705593e-08, -2.658728939123593e-08, 4.6385637176658445e-08, -2.6681811073310255e-08, 3.730264275994506e-08, -1.7430694010772305e-07, 0.1, 0.1]
velocity: [6.853448977607313e-06, -1.0939585583727872e-05, 1.9624618132902272e-05, 2.9385928443825887e-06, 8.180448254450666e-06, -5.564086316712658e-05, 0.0, 0.0]
effort: [-15.207570000000002, -24.616999999999997, -20.9296, -0.7664914285714286, 0.07776000000000001, 0.272, 0.0, 0.0]
---
header: 
  seq: 243404
  stamp: 
    secs: 1738886679
    nsecs: 270445725
  frame_id: ''
name: 
  - joint_1
  - joint_2
  - joint_3
  - joint_4
  - joint_5
  - joint_6
  - tcp_lin
  - tcp_rot
position: [-5.437874029810158e-08, -8.988565527539735e-08, 1.217205681496821e-07, 4.027880369084131e-07, -8.246097478485326e-12, -5.993800877250873e-08, 0.1, 0.1]
velocity: [-7.246713408932137e-06, -2.3634727472864166e-05, 2.2064248011267465e-05, 0.0001648305216700261, 1.4348309596175552e-06, -2.5383723285288898e-05, 0.0, 0.0]
effort: [-15.931740000000001, -24.378, -20.6248, -0.8664685714285714, 0.051840000000000004, 0.32, 0.0, 0.0]
---
header: 
  seq: 243405
  stamp: 
    secs: 1738886679
    nsecs: 290445324
  frame_id: ''
name: 
  - joint_1
  - joint_2
  - joint_3
  - joint_4
  - joint_5
  - joint_6
  - tcp_lin
  - tcp_rot
position: [-1.4832653593789849e-08, -2.9963686767698335e-08, 4.6818730365763124e-08, -1.1506471027221988e-07, 7.397996812933502e-08, -1.797892708346779e-07, 0.1, 0.1]
velocity: [-8.97417168498785e-06, -1.1116281578876303e-05, 2.875108513119764e-05, 4.276168180782111e-05, 2.2929786406721494e-05, -7.46978780936377e-05, 0.0, 0.0]
effort: [-14.483400000000001, -23.660999999999998, -20.828, -0.7664914285714286, 0.051840000000000004, 0.336, 0.0, 0.0]
---
header: 
  seq: 243406
  stamp: 
    secs: 1738886679
    nsecs: 310448486
  frame_id: ''
name: 
  - joint_1
  - joint_2
  - joint_3
  - joint_4
  - joint_5
  - joint_6
  - tcp_lin
  - tcp_rot
position: [-9.393872618263554e-08, 1.1050626588104958e-12, 4.681592881970997e-08, -8.630360399432654e-08, -1.5334425631896455e-12, -1.1984591904254503e-07, 0.1, 0.1]
velocity: [-2.6969952392322635e-05, 3.2218759728650723e-06, 1.3246105780529431e-05, -3.288205717155471e-05, 1.1980606128103957e-07, -3.1183721721028165e-05, 0.0, 0.0]
effort: [-14.121315000000001, -23.9, -20.6248, -0.5665371428571429, -0.025920000000000002, 0.336, 0.0, 0.0]
---
header: 
  seq: 243407
  stamp: 
    secs: 1738886679
    nsecs: 330446323
  frame_id: ''
name: 
  - joint_1
  - joint_2
  - joint_3
  - joint_4
  - joint_5
  - joint_6
  - tcp_lin
  - tcp_rot
position: [-5.43834031628304e-08, -2.995969226871041e-08, 9.356573525493505e-09, -2.876162037296494e-08, -3.6987187585929485e-08, 1.1986077018235452e-07, 0.1, 0.1]
velocity: [-5.159957832134026e-06, -9.925361248179525e-06, -5.561872623253194e-06, 5.645712737594222e-06, -1.322940552273361e-05, 2.9277912814425634e-05, 0.0, 0.0]
effort: [-14.845485000000002, -24.139, -20.6248, -0.6331885714285714, 0.07776000000000001, 0.352, 0.0, 0.0]
---
header: 
  seq: 243408
  stamp: 
    secs: 1738886679
    nsecs: 350448851
  frame_id: ''
name: 
  - joint_1
  - joint_2
  - joint_3
  - joint_4
  - joint_5
  - joint_6
  - tcp_lin
  - tcp_rot
position: [4.929074910597358e-09, 2.996424352847498e-08, 4.680038236270822e-08, 2.8876975841084622e-08, -1.4410087006113599e-11, 1.7970077069631348e-07, 0.1, 0.1]
velocity: [5.940584217139124e-06, 8.858035555910366e-06, 8.140837361389942e-06, -1.320572040349545e-06, 3.1961988950748327e-06, 3.327137436420091e-05, 0.0, 0.0]
effort: [-14.121315000000001, -25.095, -20.9296, -0.69984, 0.051840000000000004, 0.336, 0.0, 0.0]
---
header: 
  seq: 243409
  stamp: 
    secs: 1738886679
    nsecs: 370445822
  frame_id: ''
name: 
  - joint_1
  - joint_2
  - joint_3
  - joint_4
  - joint_5
  - joint_6
  - tcp_lin
  - tcp_rot
position: [6.427185386168784e-08, 9.241514734594229e-15, 4.681334721538115e-08, -8.630659635707404e-08, 3.698860650035106e-08, 1.198427797096186e-07, 0.1, 0.1]
velocity: [1.3939163312565314e-05, -2.308000529735614e-06, 8.15029158970086e-06, -3.892843483758204e-06, 9.890834160346096e-06, 4.864419171168757e-05, 0.0, 0.0]
effort: [-15.569655000000003, -23.9, -21.1328, -0.06665142857142857, 0.07776000000000001, 0.368, 0.0, 0.0]
---
header: 
  seq: 243410
  stamp: 
    secs: 1738886679
    nsecs: 390445886
  frame_id: ''
name: 
  - joint_1
  - joint_2
  - joint_3
  - joint_4
  - joint_5
  - joint_6
  - tcp_lin
  - tcp_rot
position: [4.449141108999928e-08, 2.996807323394247e-08, 4.6840508335335187e-08, 1.4392422381249012e-07, 7.395292200001003e-08, 2.396921523127118e-07, 0.1, 0.1]
velocity: [1.4907399745420083e-05, 4.9218774160093424e-06, 2.1937653157696186e-05, 4.770005035878346e-05, 5.2719001450832755e-06, 3.4448262015030514e-05, 0.0, 0.0]
effort: [-13.759230000000002, -24.378, -20.828, -0.46656, 0.10368000000000001, 0.304, 0.0, 0.0]
---
header: 
  seq: 243411
  stamp: 
    secs: 1738886679
    nsecs: 409550913
  frame_id: ''
name: 
  - joint_1
  - joint_2
  - joint_3
  - joint_4
  - joint_5
  - joint_6
  - tcp_lin
  - tcp_rot
position: [2.439425699590977e-08, -2.990815888830698e-08, -6.600191704779136e-08, 1.4725295460703428e-07, -3.6634931092125895e-08, -4.286086702958212e-10, 0.1, 0.1]
velocity: [-2.0660974244168312e-06, -5.799891395479803e-06, -2.1035449220330867e-05, 6.878728177171455e-05, -3.565652630795384e-06, -1.1498796765854243e-05, 0.0, 0.0]
effort: [-13.759230000000002, -24.139, -21.0312, -0.4332342857142857, 0.025920000000000002, 0.304, 0.0, 0.0]
---
header: 
  seq: 243412
  stamp: 
    secs: 1738886679
    nsecs: 430445464
  frame_id: ''
name: 
  - joint_1
  - joint_2
  - joint_3
  - joint_4
  - joint_5
  - joint_6
  - tcp_lin
  - tcp_rot
position: [8.404458065968622e-08, 6.07560703418822e-11, 9.479367917123557e-09, -1.1523195816433993e-07, -3.701319980721741e-08, 5.991219916410117e-08, 0.1, 0.1]
velocity: [2.2827036465881106e-05, 1.8259043666603254e-06, 7.605460980973045e-07, -2.240305435498622e-05, -1.3225949486689736e-05, 8.54160226032555e-06, 0.0, 0.0]
effort: [-14.121315000000001, -24.616999999999997, -20.9296, 0.29993142857142857, 0.07776000000000001, 0.304, 0.0, 0.0]
---
header: 
  seq: 243413
  stamp: 
    secs: 1738886679
    nsecs: 450447893
  frame_id: ''
name: 
  - joint_1
  - joint_2
  - joint_3
  - joint_4
  - joint_5
  - joint_6
  - tcp_lin
  - tcp_rot
position: [-5.438149418457618e-08, -2.996229698264292e-08, -1.4044071853576474e-07, 2.878173282153337e-08, -1.4795684272352754e-07, 5.995582300761965e-08, 0.1, 0.1]
velocity: [-7.0777968929318866e-06, -1.0264434615736983e-05, -3.08267237897907e-05, -4.0754874187287415e-06, -3.486036927131718e-05, 2.5201923175107666e-05, 0.0, 0.0]
effort: [-14.483400000000001, -24.616999999999997, -20.726399999999998, -0.5332114285714286, 0.025920000000000002, 0.304, 0.0, 0.0]
---
header: 
  seq: 243414
  stamp: 
    secs: 1738886679
    nsecs: 470463807
  frame_id: ''
name: 
  - joint_1
  - joint_2
  - joint_3
  - joint_4
  - joint_5
  - joint_6
  - tcp_lin
  - tcp_rot
position: [4.955384003497727e-09, -2.995458975728074e-08, 4.681192422946239e-08, -4.0279115572284074e-07, -3.698780115772461e-08, 5.992070444863882e-08, 0.1, 0.1]
velocity: [1.2329179296890082e-05, -5.04259750720421e-06, 8.528708775053247e-06, -0.00011701213250702149, -3.2158698499433992e-06, 2.482359563583655e-06, 0.0, 0.0]
effort: [-14.845485000000002, -24.378, -21.0312, -0.5998628571428571, 0.051840000000000004, 0.272, 0.0, 0.0]
---
header: 
  seq: 243415
  stamp: 
    secs: 1738886679
    nsecs: 490445688
  frame_id: ''
name: 
  - joint_1
  - joint_2
  - joint_3
  - joint_4
  - joint_5
  - joint_6
  - tcp_lin
  - tcp_rot
position: [2.472112445815967e-08, -1.4981407968381496e-07, -6.554130162725683e-08, -5.753519735989508e-08, 3.698791008629856e-08, 5.990902669333204e-08, 0.1, 0.1]
velocity: [7.75099426005583e-06, -3.5656653301732555e-05, -1.1385469576844465e-05, -2.2833068052838663e-05, 4.4569035345063385e-06, 2.859079059108768e-06, 0.0, 0.0]
effort: [-14.845485000000002, -24.378, -20.726399999999998, -0.49988571428571427, 0.07776000000000001, 0.256, 0.0, 0.0]
---
header: 
  seq: 243416
  stamp: 
    secs: 1738886679
    nsecs: 510446228
  frame_id: ''
name: 
  - joint_1
  - joint_2
  - joint_3
  - joint_4
  - joint_5
  - joint_6
  - tcp_lin
  - tcp_rot
position: [4.944463583419432e-09, -2.99744498035163e-08, -6.555342052316325e-08, 2.3025700073747116e-07, -3.6938717581012764e-08, -6.005459937969964e-08, 0.1, 0.1]
velocity: [-1.085394921983516e-06, -8.968816151676248e-06, -1.5866719640773672e-05, 7.027815585564867e-05, -1.1411285103181416e-06, -3.766344926303608e-05, 0.0, 0.0]
effort: [-15.569655000000003, -24.378, -20.828, -0.3999085714285714, 0.0, 0.304, 0.0, 0.0]
---
header: 
  seq: 243417
  stamp: 
    secs: 1738886679
    nsecs: 530445915
  frame_id: ''
name: 
  - joint_1
  - joint_2
  - joint_3
  - joint_4
  - joint_5
  - joint_6
  - tcp_lin
  - tcp_rot
position: [4.4500633569935556e-08, 2.996726542708379e-08, 9.359624480096018e-09, 3.4520580140475196e-07, -3.6965116330821156e-08, 1.798273904023502e-07, 0.1, 0.1]
velocity: [5.24040419196143e-06, 9.443231267226546e-06, 9.347327002052183e-06, 8.631630000567793e-05, 2.8584053905526855e-06, 4.373876782692117e-05, 0.0, 0.0]
effort: [-15.931740000000001, -24.616999999999997, -20.9296, -0.1999542857142857, 0.07776000000000001, 0.304, 0.0, 0.0]
---
header: 
  seq: 243418
  stamp: 
    secs: 1738886679
    nsecs: 550447970
  frame_id: ''
name: 
  - joint_1
  - joint_2
  - joint_3
  - joint_4
  - joint_5
  - joint_6
  - tcp_lin
  - tcp_rot
position: [-1.4829368907888352e-08, 1.9003711954182165e-12, 9.363895452810233e-09, -2.8714931510552726e-08, -7.395123663285979e-08, 5.99184747141853e-08, 0.1, 0.1]
velocity: [-5.208924801252016e-06, -3.818216737268193e-06, -2.4489957878425477e-06, -2.1802787340838406e-05, -1.4192370645610577e-05, 5.3310880921995306e-06, 0.0, 0.0]
effort: [-15.207570000000002, -24.378, -20.726399999999998, -0.2666057142857143, 0.051840000000000004, 0.28800000000000003, 0.0, 0.0]
---
header: 
  seq: 243419
  stamp: 
    secs: 1738886679
    nsecs: 569554977
  frame_id: ''
name: 
  - joint_1
  - joint_2
  - joint_3
  - joint_4
  - joint_5
  - joint_6
  - tcp_lin
  - tcp_rot
position: [8.40095852912339e-08, -2.989078400524647e-08, -1.4446095734088639e-07, -3.494754798263307e-07, -3.8513980832259e-08, -2.4536251283194515e-07, 0.1, 0.1]
velocity: [2.17012518045706e-05, -4.311262636131849e-06, -4.915622557657548e-05, -0.00010853314217801579, -1.6141951285606457e-05, -6.670785415915649e-05, 0.0, 0.0]
effort: [-14.121315000000001, -24.139, -20.828, -0.69984, 0.051840000000000004, 0.272, 0.0, 0.0]
---
header: 
  seq: 243420
  stamp: 
    secs: 1738886679
    nsecs: 590445406
  frame_id: ''
name: 
  - joint_1
  - joint_2
  - joint_3
  - joint_4
  - joint_5
  - joint_6
  - tcp_lin
  - tcp_rot
position: [2.4727176523007108e-08, 2.996707526428334e-08, 9.352160468219274e-09, 1.0570988382755983e-11, 3.698710958554168e-08, 1.1986499130909848e-07, 0.1, 0.1]
velocity: [9.378561129434517e-06, 2.833690768197013e-06, 6.3565405784655256e-06, 1.3494482225540291e-05, 5.166990335049269e-06, 2.511844649982183e-05, 0.0, 0.0]
effort: [-15.569655000000003, -24.855999999999998, -20.726399999999998, -0.8997942857142857, 0.051840000000000004, 0.32, 0.0, 0.0]
---
header: 
  seq: 243421
  stamp: 
    secs: 1738886679
    nsecs: 610445502
  frame_id: ''
name: 
  - joint_1
  - joint_2
  - joint_3
  - joint_4
  - joint_5
  - joint_6
  - tcp_lin
  - tcp_rot
position: [2.4708259708720956e-08, -8.086670366739596e-12, 9.360805139191074e-09, -1.7265570768280846e-07, 3.7004872872594984e-08, -2.9964738403619096e-07, 0.1, 0.1]
velocity: [3.7887457625299263e-06, 6.02260376064275e-08, 6.943770777732097e-06, -6.900199005949732e-05, 1.2635886098712466e-05, -8.466487107691649e-05, 0.0, 0.0]
effort: [-15.569655000000003, -23.9, -20.6248, -0.4332342857142857, 0.025920000000000002, 0.336, 0.0, 0.0]
---
header: 
  seq: 243422
  stamp: 
    secs: 1738886679
    nsecs: 630564382
  frame_id: ''
name: 
  - joint_1
  - joint_2
  - joint_3
  - joint_4
  - joint_5
  - joint_6
  - tcp_lin
  - tcp_rot
position: [4.936381896395835e-09, -8.566680725490129e-12, 4.68167611195989e-08, 5.7513167346202685e-08, 3.699455044842e-08, 1.19850707605671e-07, 0.1, 0.1]
velocity: [-6.912622791159268e-06, -8.561839282058231e-06, 5.3557038851327375e-06, 2.889629618182836e-05, 1.5119661898832858e-05, 3.9592697175116e-05, 0.0, 0.0]
effort: [-14.121315000000001, -24.139, -21.1328, -0.8997942857142857, 0.025920000000000002, 0.28800000000000003, 0.0, 0.0]
---
header: 
  seq: 243423
  stamp: 
    secs: 1738886679
    nsecs: 650623685
  frame_id: ''
name: 
  - joint_1
  - joint_2
  - joint_3
  - joint_4
  - joint_5
  - joint_6
  - tcp_lin
  - tcp_rot
position: [6.42778017302161e-08, 3.885930703560889e-12, 9.34649455355382e-09, -8.636235751070021e-08, -3.4631574441702303e-12, 5.993860639839487e-08, 0.1, 0.1]
velocity: [2.0383684895477833e-05, 4.620064172028736e-06, -6.81494740823668e-06, -3.612501634670978e-05, -1.4422112729886297e-05, 5.850219935602614e-06, 0.0, 0.0]
effort: [-15.931740000000001, -25.095, -20.9296, -0.29993142857142857, 0.025920000000000002, 0.32, 0.0, 0.0]
---
header: 
  seq: 243424
  stamp: 
    secs: 1738886679
    nsecs: 670445379
  frame_id: ''
name: 
  - joint_1
  - joint_2
  - joint_3
  - joint_4
  - joint_5
  - joint_6
  - tcp_lin
  - tcp_rot
position: [2.4719644586040707e-08, 1.0287507082911427e-12, 9.36276435402564e-09, 1.7260977215130052e-07, 3.6988466544619424e-08, 2.396818068454298e-07, 0.1, 0.1]
velocity: [1.1142432360975914e-05, 3.308621745111097e-07, 1.1682752248931046e-06, 4.620090659850989e-05, 4.396617488325568e-06, 4.323253361583298e-05, 0.0, 0.0]
effort: [-15.207570000000002, -24.616999999999997, -20.726399999999998, -0.4332342857142857, -0.051840000000000004, 0.32, 0.0, 0.0]
---
header: 
  seq: 243425
  stamp: 
    secs: 1738886679
    nsecs: 690445913
  frame_id: ''
name: 
  - joint_1
  - joint_2
  - joint_3
  - joint_4
  - joint_5
  - joint_6
  - tcp_lin
  - tcp_rot
position: [4.93985264409668e-09, -6.733957760236332e-12, 9.354561067663218e-09, 1.2407657685529083e-11, 1.1097639101879234e-07, -6.555858137451673e-11, 0.1, 0.1]
velocity: [-2.35173496153281e-06, -1.593035872886616e-06, -3.2517148219579612e-06, -2.3547387621475285e-05, 2.6215542876885636e-05, -2.3300427306724696e-05, 0.0, 0.0]
effort: [-14.121315000000001, -24.378, -20.828, -0.6331885714285714, 0.025920000000000002, 0.304, 0.0, 0.0]
---
header: 
  seq: 243426
  stamp: 
    secs: 1738886679
    nsecs: 710445982
  frame_id: ''
name: 
  - joint_1
  - joint_2
  - joint_3
  - joint_4
  - joint_5
  - joint_6
  - tcp_lin
  - tcp_rot
position: [-1.4834640823396158e-08, 8.99009783804933e-08, 9.361304052082403e-09, 5.7508960024650885e-08, 9.869434874086313e-12, 1.7975258189783e-07, 0.1, 0.1]
velocity: [-1.0311999762741601e-05, 2.1642354051490813e-05, 4.87255065090404e-06, 1.4427841571665961e-05, 2.0802958311127333e-06, 3.8229629372844323e-05, 0.0, 0.0]
effort: [-14.845485000000002, -23.422, -20.828, -0.6665142857142857, 0.0, 0.28800000000000003, 0.0, 0.0]
---
header: 
  seq: 243427
  stamp: 
    secs: 1738886679
    nsecs: 729503311
  frame_id: ''
name: 
  - joint_1
  - joint_2
  - joint_3
  - joint_4
  - joint_5
  - joint_6
  - tcp_lin
  - tcp_rot
position: [2.435919801031983e-08, -2.9660801079757836e-08, 8.393845785144547e-08, -1.728155756733035e-07, -7.323168654668941e-08, -5.995493221485982e-08, 0.1, 0.1]
velocity: [1.9313578222141015e-05, -1.0222556546379184e-05, 2.11564537464953e-05, -3.4302869688516296e-05, -2.4291707397452378e-05, -5.737655959236827e-06, 0.0, 0.0]
effort: [-14.845485000000002, -24.616999999999997, -20.9296, -0.69984, -0.051840000000000004, 0.336, 0.0, 0.0]
---
header: 
  seq: 243428
  stamp: 
    secs: 1738886679
    nsecs: 750446189
  frame_id: ''
name: 
  - joint_1
  - joint_2
