header: 
  seq: 270705
  stamp: 
    secs: 1738887225
    nsecs: 289562218
  frame_id: ''
name: 
  - joint_1
  - joint_2
  - joint_3
  - joint_4
  - joint_5
  - joint_6
  - tcp_lin
  - tcp_rot
position: [6.42666781117713e-08, 8.972682819267517e-08, 9.132828476922501e-09, 1.351766925667194e-10, -2.2210486621053118e-07, -6.00880473163198e-08, -1.1102230246251565e-16, -1.1102230246251565e-16]
velocity: [1.7477709050208656e-05, 2.327631788924147e-05, 1.3645045224232598e-05, 3.953776833844743e-07, -3.7876103218372734e-05, -1.1027411312997897e-05, 0.0, 0.0]
effort: [-12.310890000000002, -25.573, -18.389599999999998, -2.066194285714286, -0.9849600000000001, -0.16, 0.0, 0.0]
---
header: 
  seq: 270706
  stamp: 
    secs: 1738887225
    nsecs: 310456789
  frame_id: ''
name: 
  - joint_1
  - joint_2
  - joint_3
  - joint_4
  - joint_5
  - joint_6
  - tcp_lin
  - tcp_rot
position: [2.4708332160140994e-08, -2.992741986906959e-08, -6.557920064000363e-08, 2.881283181229822e-08, -1.1106521441219414e-07, 2.397202013120216e-07, -1.1102230246251565e-16, -1.1102230246251565e-16]
velocity: [2.3008593593256773e-06, -3.15957822348765e-06, -3.532198689508002e-05, 5.98944928021378e-05, -6.829805145790741e-05, 5.1911653806699635e-05, 0.0, 0.0]
effort: [-13.035060000000001, -26.529, -18.4912, -2.666057142857143, -1.08864, -0.192, 0.0, 0.0]
---
header: 
  seq: 270707
  stamp: 
    secs: 1738887225
    nsecs: 330446331
  frame_id: ''
name: 
  - joint_1
  - joint_2
  - joint_3
  - joint_4
  - joint_5
  - joint_6
  - tcp_lin
  - tcp_rot
position: [4.451010412994558e-08, 1.2416413562963626e-11, 9.405921999923403e-09, 2.8774392770580345e-07, -2.5898669377758566e-07, -5.994222665536463e-08, -1.1102230246251565e-16, -1.1102230246251565e-16]
velocity: [7.431453355925369e-06, 1.9179117715746334e-06, 1.4672142756987029e-05, 7.315675989113054e-05, -6.77780562206506e-05, -1.2264553439048421e-05, 0.0, 0.0]
effort: [-11.586720000000001, -26.051, -18.4912, -2.09952, -0.9590400000000001, -0.192, 0.0, 0.0]
---
header: 
  seq: 270708
  stamp: 
    secs: 1738887225
    nsecs: 349640641
  frame_id: ''
name: 
  - joint_1
  - joint_2
  - joint_3
  - joint_4
  - joint_5
  - joint_6
  - tcp_lin
  - tcp_rot
position: [-3.464456410289883e-08, 7.796635731803706e-13, 1.2172560590903516e-07, -5.47146183523886e-07, 4.070708822258444e-07, -6.003156313293994e-08, -1.1102230246251565e-16, -1.1102230246251565e-16]
velocity: [-3.8035669563841712e-06, -7.442651233297545e-07, 2.800697366838535e-05, -0.00013675833820796815, 0.00010557861570700067, -1.0777955144984821e-05, 0.0, 0.0]
effort: [-11.948805000000002, -26.051, -18.084799999999998, -2.6327314285714287, -1.08864, -0.176, 0.0, 0.0]
---
header: 
  seq: 270709
  stamp: 
    secs: 1738887225
    nsecs: 369883509
  frame_id: ''
name: 
  - joint_1
  - joint_2
  - joint_3
  - joint_4
  - joint_5
  - joint_6
  - tcp_lin
  - tcp_rot
position: [-1.3543190206402426e-08, 2.979550726487956e-08, 8.890023943816275e-09, 4.3963785101090293e-07, -2.604156874200947e-07, -6.212245430074691e-08, -1.1102230246251565e-16, -1.1102230246251565e-16]
velocity: [-3.06524568559963e-06, 8.420139143951688e-06, -1.546416913206734e-05, 0.00012172763157511891, -7.892858530122573e-05, -1.2507840296194813e-05, 0.0, 0.0]
effort: [-12.672975000000001, -26.29, -18.1864, -2.2994742857142856, -1.06272, -0.192, 0.0, 0.0]
---
header: 
  seq: 270710
  stamp: 
    secs: 1738887225
    nsecs: 390446181
  frame_id: ''
name: 
  - joint_1
  - joint_2
  - joint_3
  - joint_4
  - joint_5
  - joint_6
  - tcp_lin
  - tcp_rot
position: [4.4485965260623764e-08, -4.679753995370403e-12, -6.554352006547035e-08, 1.1510898905078075e-07, -3.6955747690107824e-08, -9.828915864177487e-12, -1.1102230246251565e-16, -1.1102230246251565e-16]
velocity: [3.7126595792432205e-06, -2.2979287529308737e-07, -6.978381507649756e-06, 4.201230991571056e-05, 1.473811451191634e-05, 2.4977395524122265e-06, 0.0, 0.0]
effort: [-13.397145000000002, -26.29, -18.389599999999998, -2.3661257142857144, -0.9849600000000001, -0.16, 0.0, 0.0]
---
header: 
  seq: 270711
  stamp: 
    secs: 1738887225
    nsecs: 409742745
  frame_id: ''
name: 
  - joint_1
  - joint_2
  - joint_3
  - joint_4
  - joint_5
  - joint_6
  - tcp_lin
  - tcp_rot
position: [4.433542746087297e-08, -4.2974846716096156e-10, 4.71961818324857e-08, -8.897051103888883e-08, 6.848933454872236e-08, -4.5329546169634035e-11, -1.1102230246251565e-16, -1.1102230246251565e-16]
velocity: [1.0517837157383225e-05, -1.3152667980273388e-06, 1.1766327423930486e-05, -2.3622703218426597e-05, -3.7136015329303695e-06, 2.4405031400868807e-06, 0.0, 0.0]
effort: [-13.397145000000002, -26.529, -18.1864, -3.399222857142857, -0.9590400000000001, -0.192, 0.0, 0.0]
---
header: 
  seq: 270712
  stamp: 
    secs: 1738887225
    nsecs: 430445454
  frame_id: ''
name: 
  - joint_1
  - joint_2
  - joint_3
  - joint_4
  - joint_5
  - joint_6
  - tcp_lin
  - tcp_rot
position: [4.95302157264409e-09, -2.995934165290736e-08, -2.5279498291604024e-07, -2.0137956263617052e-07, -2.219483373950076e-07, -1.1987910159747452e-07, -1.1102230246251565e-16, -1.1102230246251565e-16]
velocity: [1.39599186565463e-05, -8.814490637899335e-06, -5.527698148853655e-05, -6.80303480387585e-05, -5.3380089078879385e-05, -3.38692163940592e-05, 0.0, 0.0]
effort: [-11.586720000000001, -26.051, -18.796, -2.56608, -1.06272, -0.14400000000000002, 0.0, 0.0]
---
header: 
  seq: 270713
  stamp: 
    secs: 1738887225
    nsecs: 450447089
  frame_id: ''
name: 
  - joint_1
  - joint_2
  - joint_3
  - joint_4
  - joint_5
  - joint_6
  - tcp_lin
  - tcp_rot
position: [4.9460721046678165e-09, -2.9955448074486333e-08, 4.678312146267374e-08, -3.7388940636705155e-07, 2.589795715756696e-07, -2.076614262249992e-12, -1.1102230246251565e-16, -1.1102230246251565e-16]
velocity: [9.043916811932388e-06, -7.780144790436756e-06, 1.8613941473613438e-05, -9.60812639771067e-05, 4.3104174936511064e-05, -9.011745278467238e-06, 0.0, 0.0]
effort: [-13.759230000000002, -26.768, -18.5928, -2.2994742857142856, -0.9590400000000001, -0.16, 0.0, 0.0]
---
header: 
  seq: 270714
  stamp: 
    secs: 1738887225
    nsecs: 470447577
  frame_id: ''
name: 
  - joint_1
  - joint_2
  - joint_3
  - joint_4
  - joint_5
  - joint_6
  - tcp_lin
  - tcp_rot
position: [2.4721004198769928e-08, 1.5899927857779866e-12, -1.404405178902624e-07, 8.63156179513675e-08, 4.681742474207563e-12, 7.466507734177912e-14, -1.1102230246251565e-16, -1.1102230246251565e-16]
velocity: [1.5471923759908322e-06, 2.859981590027465e-06, -3.0957028091195096e-05, 4.006045863257021e-05, -5.813035557979789e-06, -1.2897775955857248e-06, 0.0, 0.0]
effort: [-14.121315000000001, -25.573, -18.389599999999998, -2.1994971428571426, -1.1664, -0.176, 0.0, 0.0]
---
header: 
  seq: 270715
  stamp: 
    secs: 1738887225
    nsecs: 490445962
  frame_id: ''
name: 
  - joint_1
  - joint_2
  - joint_3
  - joint_4
  - joint_5
  - joint_6
  - tcp_lin
  - tcp_rot
position: [2.4727158533943766e-08, 5.510955900764665e-12, -2.8099443418034282e-08, 2.8817647466756027e-08, 2.959622855074033e-07, 1.0291713553705161e-11, -1.1102230246251565e-16, -1.1102230246251565e-16]
velocity: [2.297194427689974e-05, 2.221167675951943e-06, -1.744403089749977e-05, 1.261600649691206e-05, 9.062857928513477e-05, 8.121978486798608e-06, 0.0, 0.0]
effort: [-13.397145000000002, -26.29, -18.389599999999998, -1.8995657142857143, -0.9072000000000001, -0.176, 0.0, 0.0]
---
header: 
  seq: 270716
  stamp: 
    secs: 1738887225
    nsecs: 510447893
  frame_id: ''
name: 
  - joint_1
  - joint_2
  - joint_3
  - joint_4
  - joint_5
  - joint_6
  - tcp_lin
  - tcp_rot
position: [5.574403876888225e-09, 8.810459585898574e-08, 1.0233301169636582e-08, 2.536178999104875e-07, -2.546869835074503e-07, 1.7486997171636658e-07, -1.1102230246251565e-16, -1.1102230246251565e-16]
velocity: [5.028697953989937e-06, 2.064296128907326e-05, -3.3453103784464983e-06, 5.241970120069061e-05, -9.428499625686813e-05, 4.912010708984142e-05, 0.0, 0.0]
effort: [-12.310890000000002, -26.29, -18.1864, -2.599405714285714, -1.06272, -0.192, 0.0, 0.0]
---
header: 
  seq: 270717
  stamp: 
    secs: 1738887225
    nsecs: 530446336
  frame_id: ''
name: 
  - joint_1
  - joint_2
  - joint_3
  - joint_4
  - joint_5
  - joint_6
  - tcp_lin
  - tcp_rot
position: [4.895328817600078e-09, 2.997465570170494e-08, 4.686820571452139e-08, 3.453947551524468e-07, -2.2201730830996896e-07, 6.0051117988941e-08, -1.1102230246251565e-16, -1.1102230246251565e-16]
velocity: [-8.125961030625089e-07, 7.280988782489821e-06, 2.4124774208593287e-05, 0.0001001519444719445, -4.4605441314796045e-05, 3.054414210309597e-05, 0.0, 0.0]
effort: [-11.586720000000001, -26.768, -18.796, -2.466102857142857, -0.8553600000000001, -0.192, 0.0, 0.0]
---
header: 
  seq: 270718
  stamp: 
    secs: 1738887225
    nsecs: 550458280
  frame_id: ''
name: 
  - joint_1
  - joint_2
  - joint_3
  - joint_4
  - joint_5
  - joint_6
  - tcp_lin
  - tcp_rot
position: [4.4453976081602944e-08, -3.000210766600103e-08, -6.581955328760523e-08, -2.592355952520377e-07, 2.585805364189904e-07, -6.029731676011528e-08, -1.1102230246251565e-16, -1.1102230246251565e-16]
velocity: [4.42839835780149e-06, -5.9204590476929675e-06, -2.469782927139323e-05, -4.570778245729015e-05, 4.8213186617963643e-05, -2.137585483188203e-05, 0.0, 0.0]
effort: [-11.948805000000002, -26.529, -18.389599999999998, -2.79936, -0.9590400000000001, -0.176, 0.0, 0.0]
---
header: 
  seq: 270719
  stamp: 
    secs: 1738887225
    nsecs: 569542061
  frame_id: ''
name: 
  - joint_1
  - joint_2
  - joint_3
  - joint_4
  - joint_5
  - joint_6
  - tcp_lin
  - tcp_rot
position: [2.4575249708958765e-08, -2.983629270401134e-08, 9.17706812846574e-09, 4.888619537572156e-07, -3.731954726522223e-08, 4.688815711377091e-12, -1.1102230246251565e-16, -1.1102230246251565e-16]
velocity: [8.108003037323283e-06, -1.792464357470595e-05, 7.286505673811122e-06, 7.567878586470659e-05, -1.1353946038919306e-05, 4.752265928558814e-07, 0.0, 0.0]
effort: [-13.035060000000001, -26.051, -18.4912, -2.4327771428571427, -0.9849600000000001, -0.192, 0.0, 0.0]
---
header: 
  seq: 270720
  stamp: 
    secs: 1738887225
    nsecs: 590445668
  frame_id: ''
name: 
  - joint_1
  - joint_2
  - joint_3
  - joint_4
  - joint_5
  - joint_6
  - tcp_lin
  - tcp_rot
position: [4.449078876576297e-08, -2.9963531558938535e-08, -2.8087440467759526e-08, -3.4520144193781564e-07, 4.8748356022573986e-11, 7.67841051935431e-12, -1.1102230246251565e-16, -1.1102230246251565e-16]
velocity: [1.1302303516908687e-05, -1.1881796290423943e-05, -3.580212163057756e-06, -5.4988887799701575e-05, 3.5651722021920186e-05, 1.3091990142838471e-05, 0.0, 0.0]
effort: [-11.586720000000001, -26.529, -18.5928, -2.699382857142857, -1.06272, -0.16, 0.0, 0.0]
---
header: 
  seq: 270721
  stamp: 
    secs: 1738887225
    nsecs: 610445326
  frame_id: ''
name: 
  - joint_1
  - joint_2
  - joint_3
  - joint_4
  - joint_5
  - joint_6
  - tcp_lin
  - tcp_rot
position: [-1.4829906353004654e-08, 8.986944126917465e-08, 8.424785822871916e-08, 1.726311687463201e-07, -1.1093340116082348e-07, -4.5006069716310655e-11, -1.1102230246251565e-16, -1.1102230246251565e-16]
velocity: [-4.206021934946445e-06, 2.7061433705216357e-05, 2.6904519322025147e-05, 2.7853672527382687e-05, -5.615085399807531e-05, 1.8564527944486177e-05, 0.0, 0.0]
effort: [-12.672975000000001, -26.29, -18.288, -2.7327085714285713, -1.06272, -0.16, 0.0, 0.0]
---
header: 
  seq: 270722
  stamp: 
    secs: 1738887225
    nsecs: 630458514
  frame_id: ''
name: 
  - joint_1
  - joint_2
  - joint_3
  - joint_4
  - joint_5
  - joint_6
  - tcp_lin
  - tcp_rot
position: [-1.4830536951210057e-08, 2.997468976330571e-08, -6.555744539717856e-08, -2.8796249830314004e-08, -2.589476798588523e-07, -5.995266738429624e-08, -1.1102230246251565e-16, -1.1102230246251565e-16]
velocity: [-5.160722949211087e-06, 8.743161139866447e-06, -7.087349360293836e-06, -4.409062127912615e-05, -4.2040741256842214e-05, -5.548784898704227e-06, 0.0, 0.0]
effort: [-13.759230000000002, -26.051, -18.1864, -2.56608, -0.9849600000000001, -0.16, 0.0, 0.0]
---
header: 
  seq: 270723
  stamp: 
    secs: 1738887225
    nsecs: 650446724
  frame_id: ''
name: 
  - joint_1
  - joint_2
  - joint_3
  - joint_4
  - joint_5
  - joint_6
  - tcp_lin
  - tcp_rot
position: [6.426976020512049e-08, 1.1981337610838973e-07, 9.362495377931751e-09, 5.754610425570685e-08, 4.069268482073222e-07, -5.988995551699096e-08, -1.1102230246251565e-16, -1.1102230246251565e-16]
velocity: [1.3455106114469499e-05, 3.1778629765927706e-05, -5.510979521219564e-07, 2.6422615801771333e-05, 9.362491410377717e-05, -2.4698139932185874e-05, 0.0, 0.0]
effort: [-14.121315000000001, -26.768, -18.389599999999998, -2.7327085714285713, -0.9849600000000001, -0.192, 0.0, 0.0]
---
header: 
  seq: 270724
  stamp: 
    secs: 1738887225
    nsecs: 670445929
  frame_id: ''
name: 
  - joint_1
  - joint_2
  - joint_3
  - joint_4
  - joint_5
  - joint_6
  - tcp_lin
  - tcp_rot
position: [-1.452826684572049e-08, 2.875970121667433e-08, 8.468102346347922e-08, -1.1248352673738139e-07, -3.649675298671727e-09, -5.0725487270057945e-09, -1.1102230246251565e-16, -1.1102230246251565e-16]
velocity: [-6.097130478470915e-06, 5.71609505314403e-06, 1.9124561849100104e-05, -2.675265599698223e-05, 1.9920817637417562e-05, 1.0761828326631543e-05, 0.0, 0.0]
effort: [-12.672975000000001, -26.051, -18.1864, -3.26592, -1.06272, -0.192, 0.0, 0.0]
---
header: 
  seq: 270725
  stamp: 
    secs: 1738887225
    nsecs: 690446072
  frame_id: ''
name: 
  - joint_1
  - joint_2
  - joint_3
  - joint_4
  - joint_5
  - joint_6
  - tcp_lin
  - tcp_rot
position: [2.4713332582088014e-08, 3.888433961099854e-12, 1.5915169071120193e-07, 1.7260389966196997e-07, 1.479199669560511e-07, -8.221749592000957e-12, -1.1102230246251565e-16, -1.1102230246251565e-16]
velocity: [6.085308453214585e-06, 1.3957676146245105e-06, 3.844951715134322e-05, 4.728490282943872e-05, 6.325180478993293e-05, -6.367419023173559e-06, 0.0, 0.0]
effort: [-13.035060000000001, -26.051, -18.288, -2.7327085714285713, -0.9849600000000001, -0.20800000000000002, 0.0, 0.0]
---
header: 
  seq: 270726
  stamp: 
    secs: 1738887225
    nsecs: 710446286
  frame_id: ''
name: 
  - joint_1
  - joint_2
  - joint_3
  - joint_4
  - joint_5
  - joint_6
  - tcp_lin
  - tcp_rot
position: [-5.441671927789555e-08, 2.997764285951092e-08, 9.333295717840881e-09, 5.7593602538750494e-08, -1.850481678474877e-07, -5.9910322945051e-08, -1.1102230246251565e-16, -1.1102230246251565e-16]
velocity: [-2.1672295316983722e-05, 1.0386615707010826e-05, -3.7878121281013538e-06, 2.1891227282219728e-05, -6.301232230234664e-05, -1.2418196237444648e-05, 0.0, 0.0]
effort: [-13.035060000000001, -25.811999999999998, -18.694399999999998, -2.466102857142857, -1.08864, -0.192, 0.0, 0.0]
---
header: 
  seq: 270727
  stamp: 
    secs: 1738887225
    nsecs: 729744110
  frame_id: ''
name: 
  - joint_1
  - joint_2
  - joint_3
  - joint_4
  - joint_5
  - joint_6
  - tcp_lin
  - tcp_rot
position: [5.102570213989381e-09, 3.650824069975742e-10, -6.714752279998777e-08, 1.4134469897313902e-07, -3.7655911686507516e-08, -1.8205924579963493e-07, -1.1102230246251565e-16, -1.1102230246251565e-16]
velocity: [6.614266596612418e-06, 3.808368301635119e-07, -1.8855130164277274e-05, 1.8872140215528578e-06, -1.9673005818203442e-05, -5.267621315493637e-05, 0.0, 0.0]
effort: [-10.500465000000002, -26.051, -18.288, -2.8660114285714284, -1.01088, -0.16, 0.0, 0.0]
---
header: 
  seq: 270728
  stamp: 
    secs: 1738887225
    nsecs: 750450548
  frame_id: ''
name: 
  - joint_1
  - joint_2
  - joint_3
  - joint_4
  - joint_5
  - joint_6
  - tcp_lin
  - tcp_rot
position: [4.449990809586936e-08, -2.996473516102388e-08, 9.356515906148353e-09, 2.877537827221835e-08, 2.9589045754821317e-07, -5.993563119620372e-08, -1.1102230246251565e-16, -1.1102230246251565e-16]
velocity: [1.7408319336163554e-05, -1.646504096025431e-05, -1.0735746447879549e-05, 1.691187853341905e-05, 5.9251934505448765e-05, -2.869194475078181e-05, 0.0, 0.0]
effort: [-13.035060000000001, -25.573, -18.4912, -2.4327771428571427, -0.9849600000000001, -0.128, 0.0, 0.0]
---
header: 
  seq: 270729
  stamp: 
    secs: 1738887225
    nsecs: 770445646
  frame_id: ''
name: 
  - joint_1
  - joint_2
  - joint_3
  - joint_4
  - joint_5
  - joint_6
  - tcp_lin
  - tcp_rot
position: [4.9464582407822745e-09, -2.9955332038630446e-08, -6.554378469829259e-08, 5.753145079684136e-08, 1.1093199357187401e-07, 1.797327716861535e-07, -1.1102230246251565e-16, -1.1102230246251565e-16]
velocity: [4.937386049379984e-06, -7.602727899274253e-06, -1.3117367703298599e-05, 2.650815576017824e-05, 3.933446734625088e-05, 5.348001289121577e-05, 0.0, 0.0]
effort: [-11.948805000000002, -25.573, -18.4912, -1.8329142857142857, -1.11456, -0.14400000000000002, 0.0, 0.0]
---
header: 
  seq: 270730
  stamp: 
    secs: 1738887225
    nsecs: 790463425
  frame_id: ''
name: 
  - joint_1
  - joint_2
  - joint_3
  - joint_4
  - joint_5
  - joint_6
  - tcp_lin
  - tcp_rot
position: [4.944045226754878e-09, 2.996060508498732e-08, -6.553874187500658e-08, 1.1507173140626015e-07, 2.2192693362249793e-07, 5.991989373829306e-08, -1.1102230246251565e-16, -1.1102230246251565e-16]
velocity: [7.274540871182386e-06, 5.160680455580664e-06, -1.696443374975718e-06, 6.901457429358502e-05, 8.580647156216085e-05, 2.5541446824191774e-05, 0.0, 0.0]
effort: [-12.672975000000001, -26.29, -18.389599999999998, -2.3994514285714286, -0.9849600000000001, -0.176, 0.0, 0.0]
---
header: 
  seq: 270731
  stamp: 
    secs: 1738887225
    nsecs: 810445395
  frame_id: ''
name: 
  - joint_1
  - joint_2
  - joint_3
  - joint_4
  - joint_5
  - joint_6
  - tcp_lin
  - tcp_rot
position: [8.405115599911954e-08, -2.996370467041195e-08, 4.681251096878486e-08, -1.43864091720387e-07, -2.2194497353253973e-07, -7.659067390698613e-12, -1.1102230246251565e-16, -1.1102230246251565e-16]
velocity: [2.7379562859623713e-05, -1.1847169913344832e-05, 1.3290861208973387e-05, -6.006858258882349e-05, -6.811852311717134e-05, -2.6405351213551272e-06, 0.0, 0.0]
effort: [-12.672975000000001, -25.573, -18.084799999999998, -2.666057142857143, -0.9849600000000001, -0.192, 0.0, 0.0]
---
header: 
  seq: 270732
  stamp: 
    secs: 1738887225
    nsecs: 830445854
  frame_id: ''
name: 
  - joint_1
  - joint_2
  - joint_3
  - joint_4
  - joint_5
  - joint_6
  - tcp_lin
  - tcp_rot
position: [-9.394332866426904e-08, 2.996347092017579e-08, 4.680835879947486e-08, 2.8683337470618332e-08, -2.5884311036638004e-07, -7.893122601017306e-11, -1.1102230246251565e-16, -1.1102230246251565e-16]
velocity: [-1.732334981797846e-05, 6.188799777930478e-06, 2.7635845725961087e-05, 1.3227581976866317e-05, -5.830985217192192e-05, 2.465009389464213e-06, 0.0, 0.0]
effort: [-12.672975000000001, -26.29, -18.288, -2.3661257142857144, -1.06272, -0.176, 0.0, 0.0]
---
header: 
  seq: 270733
  stamp: 
    secs: 1738887225
    nsecs: 850446949
  frame_id: ''
name: 
  - joint_1
  - joint_2
  - joint_3
  - joint_4
  - joint_5
  - joint_6
  - tcp_lin
  - tcp_rot
position: [-1.4832300570179068e-08, -2.995838261361644e-08, -1.0298452028709836e-07, 1.1507417131442197e-07, 2.5892863063600735e-07, -5.991921385478228e-08, -1.1102230246251565e-16, -1.1102230246251565e-16]
velocity: [-7.705032336409072e-06, -1.0349570638722707e-05, -3.819103587084995e-05, 1.3044036194332712e-05, 4.658012595256316e-05, -1.644292430807497e-05, 0.0, 0.0]
effort: [-12.672975000000001, -26.29, -18.4912, -2.4994285714285716, -1.06272, -0.176, 0.0, 0.0]
---
header: 
  seq: 270734
  stamp: 
    secs: 1738887225
    nsecs: 870445472
  frame_id: ''
name: 
  - joint_1
  - joint_2
  - joint_3
  - joint_4
  - joint_5
  - joint_6
  - tcp_lin
  - tcp_rot
position: [4.947787947167836e-09, -6.270241753486883e-12, -1.7788237287099062e-07, -2.589113509662197e-07, -7.397929383631734e-08, -5.991731054467626e-08, -1.1102230246251565e-16, -1.1102230246251565e-16]
velocity: [2.072942291369165e-06, -7.315106914610405e-07, -3.945866662298387e-05, -6.200076385594402e-05, -2.4844884465985065e-05, -1.7900434130286412e-05, 0.0, 0.0]
effort: [-13.397145000000002, -26.768, -18.4912, -2.6327314285714287, -1.01088, -0.176, 0.0, 0.0]
---
header: 
  seq: 270735
  stamp: 
    secs: 1738887225
    nsecs: 889477836
  frame_id: ''
name: 
  - joint_1
  - joint_2
  - joint_3
  - joint_4
  - joint_5
  - joint_6
  - tcp_lin
  - tcp_rot
position: [-1.4867014853946623e-08, 3.006357148569601e-08, -6.566433618142727e-08, 5.716191641131939e-08, -7.37343675859226e-08, -5.977574450198557e-08, -1.1102230246251565e-16, -1.1102230246251565e-16]
velocity: [-2.275290052710544e-06, 9.09166073704254e-06, -1.1860084282136092e-05, 1.2672984479070344e-05, -9.514567328690995e-06, -1.0514581708263167e-05, 0.0, 0.0]
effort: [-12.310890000000002, -26.051, -18.796, -2.56608, -1.06272, -0.192, 0.0, 0.0]
---
header: 
  seq: 270736
  stamp: 
    secs: 1738887225
    nsecs: 910445162
  frame_id: ''
name: 
  - joint_1
  - joint_2
  - joint_3
  - joint_4
  - joint_5
  - joint_6
  - tcp_lin
  - tcp_rot
position: [2.4718710544545337e-08, 2.9958308384294906e-08, -6.553931792007599e-08, 2.0137568257989837e-07, -3.698732089459312e-07, -2.396767770752763e-07, -1.1102230246251565e-16, -1.1102230246251565e-16]
velocity: [1.2552107843451467e-05, 1.0167677789310638e-05, -1.3002635254005517e-05, 5.501068429044465e-05, -0.0001062758012270826, -6.907573220574174e-05, 0.0, 0.0]
effort: [-13.397145000000002, -25.811999999999998, -18.288, -2.4994285714285716, -0.9590400000000001, -0.176, 0.0, 0.0]
---
header: 
  seq: 270737
  stamp: 
    secs: 1738887225
    nsecs: 930446002
  frame_id: ''
name: 
  - joint_1
  - joint_2
  - joint_3
  - joint_4
  - joint_5
  - joint_6
  - tcp_lin
  - tcp_rot
position: [2.472574681228598e-08, -6.477623063023244e-13, -6.553672077828056e-08, 5.755804211216029e-08, -2.589704779895181e-07, 1.5291927322817096e-11, -1.1102230246251565e-16, -1.1102230246251565e-16]
velocity: [1.5543632368351702e-06, 2.020065847953922e-06, -6.300657621134745e-06, -7.080292725289873e-06, -5.8652554415601305e-05, 1.196295932533975e-05, 0.0, 0.0]
effort: [-13.759230000000002, -26.051, -18.4912, -1.5329828571428572, -0.9590400000000001, -0.16, 0.0, 0.0]
---
header: 
  seq: 270738
  stamp: 
    secs: 1738887225
    nsecs: 950468710
  frame_id: ''
name: 
  - joint_1
  - joint_2
  - joint_3
  - joint_4
  - joint_5
  - joint_6
  - tcp_lin
  - tcp_rot
position: [6.427024472622322e-08, -1.2089739537665787e-14, 4.680850242809821e-08, -8.628288958164853e-08, 4.0687037299962505e-07, 1.7975882464005898e-07, -1.1102230246251565e-16, -1.1102230246251565e-16]
velocity: [1.3673348881275784e-05, 1.0419109667092627e-07, 4.603730586330023e-06, 8.429368549251837e-07, 8.659070373816359e-05, 3.925595543003618e-05, 0.0, 0.0]
effort: [-12.672975000000001, -25.334, -18.389599999999998, -2.9659885714285714, -0.9849600000000001, -0.128, 0.0, 0.0]
---
header: 
  seq: 270739
  stamp: 
    secs: 1738887225
    nsecs: 970445605
  frame_id: ''
name: 
  - joint_1
  - joint_2
  - joint_3
  - joint_4
  - joint_5
  - joint_6
  - tcp_lin
  - tcp_rot
position: [-5.4382491741848334e-08, -2.996028329867882e-08, 4.6812227210570206e-08, -8.634543136771291e-08, 1.1098240898968672e-07, -5.993514809363916e-08, -1.1102230246251565e-16, -1.1102230246251565e-16]
velocity: [-9.753786592055743e-06, -2.0030214600524166e-06, 8.234234065718862e-06, -3.5884664532002767e-05, 2.3953855832378276e-05, -1.9714088037179233e-05, 0.0, 0.0]
effort: [-11.586720000000001, -26.29, -18.1864, -1.999542857142857, -1.06272, -0.224, 0.0, 0.0]
---
header: 
  seq: 270740
  stamp: 
    secs: 1738887225
    nsecs: 990446826
  frame_id: ''
name: 
  - joint_1
  - joint_2
  - joint_3
  - joint_4
  - joint_5
  - joint_6
  - tcp_lin
  - tcp_rot
position: [-1.5995607382293283e-08, -4.7003474723372413e-11, -1.0493563289840298e-07, -2.928785814433796e-08, 1.777229087275608e-07, 5.8933164644344966e-08, -1.1102230246251565e-16, -1.1102230246251565e-16]
velocity: [3.8303489903828e-06, -2.1518798415631902e-06, -1.822891310653023e-05, 3.9931163580207025e-06, 6.325394469718781e-05, 1.2945859787883053e-05, 0.0, 0.0]
effort: [-13.397145000000002, -25.811999999999998, -18.694399999999998, -2.79936, -1.01088, -0.224, 0.0, 0.0]
---
header: 
  seq: 270741
  stamp: 
    secs: 1738887226
    nsecs:  10445705
  frame_id: ''
name: 
  - joint_1
  - joint_2
  - joint_3
  - joint_4
  - joint_5
  - joint_6
  - tcp_lin
  - tcp_rot
position: [4.944669902518091e-09, 8.988081336147564e-08, 4.681376561134957e-08, 1.438420035286285e-07, -3.328933406468007e-07, 1.1984091124815785e-07, -1.1102230246251565e-16, -1.1102230246251565e-16]
velocity: [-5.9382821752448906e-06, 2.613934437493848e-05, 3.890550227530232e-06, 3.2608040090040754e-05, -0.00010146726024113826, 3.577202279138482e-05, 0.0, 0.0]
effort: [-11.586720000000001, -26.29, -18.4912, -2.4994285714285716, -1.01088, -0.14400000000000002, 0.0, 0.0]
---
header: 
  seq: 270742
  stamp: 
    secs: 1738887226
    nsecs:  30445338
  frame_id: ''
name: 
  - joint_1
  - joint_2
  - joint_3
  - joint_4
  - joint_5
  - joint_6
  - tcp_lin
  - tcp_rot
position: [2.4718919426907413e-08, -2.9969384727729507e-08, -1.4042580089015122e-07, 8.633167698375875e-08, -1.4795067029120492e-07, -5.993839967657321e-08, -1.1102230246251565e-16, -1.1102230246251565e-16]
velocity: [6.041250012757945e-06, -7.419261247880054e-06, -1.0417420886116045e-05, 2.0685806297448373e-05, -1.6248879843883606e-05, -1.703748838524851e-05, 0.0, 0.0]
effort: [-13.397145000000002, -25.573, -18.796, -2.2994742857142856, -1.0368000000000002, -0.176, 0.0, 0.0]
---
header: 
  seq: 270743
  stamp: 
    secs: 1738887226
    nsecs:  49538905
  frame_id: ''
name: 
  - joint_1
  - joint_2
  - joint_3
  - joint_4
  - joint_5
  - joint_6
  - tcp_lin
  - tcp_rot
position: [1.2337388711001472e-07, -2.986350785558735e-08, -2.8281752721426777e-08, 1.4253557509936125e-07, 3.317338813493503e-07, 2.1602062323121202e-10, -1.1102230246251565e-16, -1.1102230246251565e-16]
velocity: [2.7556724431819974e-05, -7.67427388936674e-06, -6.34861511131669e-06, 1.8536855534984626e-05, 0.000104017529000186, -1.0294835662814361e-05, 0.0, 0.0]
effort: [-10.86255, -25.334, -18.288, -3.1326171428571428, -1.06272, -0.176, 0.0, 0.0]
---
header: 
  seq: 270744
  stamp: 
    secs: 1738887226
    nsecs:  70445436
  frame_id: ''
name: 
  - joint_1
  - joint_2
  - joint_3
  - joint_4
  - joint_5
  - joint_6
  - tcp_lin
  - tcp_rot
position: [-1.4832276012851371e-08, 2.996109345226972e-08, 9.379184353139338e-09, 1.438625296433361e-07, 7.393766115441614e-08, -5.990018174042675e-08, -1.1102230246251565e-16, -1.1102230246251565e-16]
velocity: [-2.4286630855997933e-06, 4.089823663948257e-06, -2.21523027606677e-05, 2.6956168896352745e-06, 3.1013519351201106e-05, -1.7811257056502064e-05, 0.0, 0.0]
effort: [-11.586720000000001, -26.051, -18.389599999999998, -2.79936, -1.06272, -0.14400000000000002, 0.0, 0.0]
---
header: 
  seq: 270745
  stamp: 
    secs: 1738887226
    nsecs:  90445191
  frame_id: ''
name: 
  - joint_1
  - joint_2
  - joint_3
  - joint_4
  - joint_5
  - joint_6
  - tcp_lin
  - tcp_rot
position: [4.9347774931570965e-09, 8.99025589195367e-08, 9.341343894348609e-09, 3.198706302424319e-11, 2.9599985216292107e-07, -8.87904028409429e-13, -1.1102230246251565e-16, -1.1102230246251565e-16]
velocity: [2.3055568247025805e-06, 2.4980462154873563e-05, -1.539703881598538e-05, 2.7231636056998735e-05, 9.491131460707275e-05, 4.0345736612438315e-06, 0.0, 0.0]
effort: [-11.948805000000002, -25.811999999999998, -18.288, -2.1328457142857142, -1.06272, -0.176, 0.0, 0.0]
---
header: 
  seq: 270746
  stamp: 
    secs: 1738887226
    nsecs: 110454587
  frame_id: ''
name: 
  - joint_1
  - joint_2
  - joint_3
  - joint_4
  - joint_5
  - joint_6
  - tcp_lin
  - tcp_rot
position: [4.940310891567858e-09, -3.075325944015606e-11, -1.4044423960890793e-07, -2.8788550167099863e-08, -3.7008298615469014e-08, -1.1983624752835788e-07, -1.1102230246251565e-16, -1.1102230246251565e-16]
velocity: [1.0245600441510395e-05, -4.1496089964828715e-06, -2.6003665325528982e-05, -2.2468160802474515e-06, -1.8366923654923203e-05, -1.674379359457484e-05, 0.0, 0.0]
effort: [-13.035060000000001, -26.29, -18.5928, -2.699382857142857, -0.9849600000000001, -0.20800000000000002, 0.0, 0.0]
---
header: 
  seq: 270747
  stamp: 
    secs: 1738887226
    nsecs: 130445177
  frame_id: ''
name: 
  - joint_1
  - joint_2
  - joint_3
  - joint_4
  - joint_5
  - joint_6
  - tcp_lin
  - tcp_rot
position: [-7.416124308897304e-08, 6.1836716045381566e-12, 9.392989827936771e-09, 5.754358858413448e-08, -1.4796988184857435e-07, 5.994335005024999e-08, -1.1102230246251565e-16, -1.1102230246251565e-16]
velocity: [-1.3167919380263986e-05, 1.510986077657205e-06, 1.0335075858769707e-05, 2.920368910971388e-05, -3.513422019158429e-05, 1.7598942858718438e-05, 0.0, 0.0]
effort: [-12.672975000000001, -27.006999999999998, -18.694399999999998, -2.2661485714285714, -0.9849600000000001, -0.176, 0.0, 0.0]
---
header: 
  seq: 270748
  stamp: 
    secs: 1738887226
    nsecs: 149477240
  frame_id: ''
name: 
  - joint_1
  - joint_2
  - joint_3
  - joint_4
  - joint_5
  - joint_6
  - tcp_lin
  - tcp_rot
position: [2.5612583672320664e-08, -2.8945044073907714e-08, -1.766808303364987e-07, -1.7305736035699024e-07, 3.600748098660657e-07, 1.5154331757522176e-10, -1.1102230246251565e-16, -1.1102230246251565e-16]
velocity: [3.884328235890696e-06, -4.143601431260667e-06, -4.223497358573637e-05, -1.2129450538527166e-05, 0.00011688619748193058, 4.105657531537258e-06, 0.0, 0.0]
effort: [-13.397145000000002, -26.768, -18.694399999999998, -2.3661257142857144, -0.9590400000000001, -0.176, 0.0, 0.0]
---
header: 
  seq: 270749
  stamp: 
    secs: 1738887226
    nsecs: 170445317
  frame_id: ''
name: 
  - joint_1
  - joint_2
  - joint_3
  - joint_4
  - joint_5
  - joint_6
  - tcp_lin
  - tcp_rot
position: [-5.4398496034647493e-08, -2.99596716470689e-08, 9.355840421777392e-09, 4.0275614641828703e-07, -7.394873658183185e-08, 2.1412789512696374e-11, -1.1102230246251565e-16, -1.1102230246251565e-16]
velocity: [-1.9911205204574005e-05, -4.826960014465748e-06, -5.747221696181494e-07, 8.92603273863248e-05, -2.901536203001154e-06, 4.292901630282085e-06, 0.0, 0.0]
effort: [-13.035060000000001, -26.051, -18.389599999999998, -1.7329371428571427, -1.0368000000000002, -0.16, 0.0, 0.0]
---
header: 
  seq: 270750
  stamp: 
    secs: 1738887226
    nsecs: 190445246
  frame_id: ''
name: 
  - joint_1
  - joint_2
  - joint_3
  - joint_4
  - joint_5
  - joint_6
  - tcp_lin
  - tcp_rot
position: [4.4492711818246305e-08, 3.602763359387427e-14, 9.364374888546003e-09, 2.3014895033540838e-07, 2.589003441355665e-07, -1.7975616091835162e-07, -1.1102230246251565e-16, -1.1102230246251565e-16]
velocity: [1.8091097089409334e-05, 6.961790032409187e-07, -4.773841342775996e-06, 7.13991555369573e-05, 9.569787243489335e-05, -4.1014229035832045e-05, 0.0, 0.0]
effort: [-13.035060000000001, -25.573, -18.4912, -2.4994285714285716, -0.9331200000000001, -0.192, 0.0, 0.0]
---
header: 
  seq: 270751
  stamp: 
    secs: 1738887226
    nsecs: 209725229
  frame_id: ''
name: 
  - joint_1
  - joint_2
  - joint_3
  - joint_4
  - joint_5
  - joint_6
  - tcp_lin
  - tcp_rot
position: [-3.4723839721091865e-08, 3.002121749193732e-08, 4.73211632814864e-08, 9.016727542379386e-11, -3.7837832322768254e-08, -1.452034892407271e-11, -1.1102230246251565e-16, -1.1102230246251565e-16]
velocity: [-1.4837678520866067e-05, 5.876673974904529e-06, 2.8963637348627156e-05, -3.301481925186072e-06, -3.842276892039443e-05, 5.752101532464216e-06, 0.0, 0.0]
effort: [-12.672975000000001, -26.29, -18.5928, -2.1328457142857142, -0.9331200000000001, -0.128, 0.0, 0.0]
---
header: 
  seq: 270752
  stamp: 
    secs: 1738887226
    nsecs: 230446179
  frame_id: ''
name: 
  - joint_1
  - joint_2
  - joint_3
  - joint_4
  - joint_5
  - joint_6
  - tcp_lin
  - tcp_rot
position: [8.404642026215648e-08, -2.9974371311085155e-08, 4.680407964392577e-08, -8.630198937217724e-08, -2.9592634603184035e-07, 1.19867287942045e-07, -1.1102230246251565e-16, -1.1102230246251565e-16]
velocity: [1.0486559542629394e-05, -1.3088938855596545e-05, -2.9971879615415866e-06, -3.4108476173708173e-06, -7.081377811598355e-05, 4.614124955015881e-05, 0.0, 0.0]
effort: [-13.035060000000001, -25.573, -18.694399999999998, -2.5327542857142857, -0.9590400000000001, -0.20800000000000002, 0.0, 0.0]
---
header: 
  seq: 270753
  stamp: 
    secs: 1738887226
    nsecs: 250446170
  frame_id: ''
name: 
  - joint_1
  - joint_2
  - joint_3
  - joint_4
  - joint_5
  - joint_6
  - tcp_lin
  - tcp_rot
position: [6.427168424183807e-08, -1.8402132239256537e-13, -2.808811630800962e-08, -5.7538733050502415e-08, 2.21932450887136e-07, -2.673727117128143e-14, -1.1102230246251565e-16, -1.1102230246251565e-16]
velocity: [1.7612284620893535e-05, 2.341861545188903e-06, -1.3266523926123963e-05, 3.479000966585649e-05, 2.0727762972600728e-05, -4.043885166684201e-06, 0.0, 0.0]
effort: [-11.948805000000002, -25.573, -18.389599999999998, -2.3661257142857144, -0.9331200000000001, -0.176, 0.0, 0.0]
---
header: 
  seq: 270754
  stamp: 
    secs: 1738887226
    nsecs: 270447752
  frame_id: ''
name: 
  - joint_1
  - joint_2
  - joint_3
  - joint_4
  - joint_5
  - joint_6
  - tcp_lin
  - tcp_rot
position: [4.952449297356903e-09, -7.2748633639634896e-12, 4.6789440986972496e-08, -2.5890118874426725e-07, -3.6969670794646064e-08, -5.995887032623632e-08, -1.1102230246251565e-16, -1.1102230246251565e-16]
velocity: [2.656309192951405e-06, 1.756332504609517e-06, -7.976149650312175e-06, -4.646685595931142e-05, -7.465573059491255e-06, -1.5205470757898993e-05, 0.0, 0.0]
effort: [-11.586720000000001, -26.051, -18.288, -2.666057142857143, -1.01088, -0.24, 0.0, 0.0]
---
header: 
  seq: 270755
  stamp: 
    secs: 1738887226
    nsecs: 290446211
  frame_id: ''
name: 
  - joint_1
  - joint_2
  - joint_3
  - joint_4
  - joint_5
  - joint_6
  - tcp_lin
  - tcp_rot
position: [2.4719798108180094e-08, 4.58395282168576e-16, -2.527924611525668e-07, 2.589185516456853e-07, 2.589203015367026e-07, -3.9409762873943227e-13, -1.1102230246251565e-16, -1.1102230246251565e-16]
velocity: [-1.4380900157234285e-07, 4.578934446731036e-07, -4.5023455238995906e-05, 1.2041359092628978e-05, 9.508087921561946e-05, 9.73020654995359e-07, 0.0, 0.0]
effort: [-13.397145000000002, -26.529, -18.8976, -3.0659657142857144, -1.08864, -0.16, 0.0, 0.0]
---
header: 
  seq: 270756
  stamp: 
    secs: 1738887226
    nsecs: 310446822
  frame_id: ''
name: 
  - joint_1
  - joint_2
  - joint_3
  - joint_4
  - joint_5
  - joint_6
  - tcp_lin
  - tcp_rot
position: [-3.396630427419945e-08, -5.692555487896044e-10, 1.2332122838448864e-07, 2.0522320594578247e-07, -2.1823777054442877e-07, 7.062702997165914e-11, -1.1102230246251565e-16, -1.1102230246251565e-16]
velocity: [-1.2509506649921451e-05, 5.888501739000472e-06, 3.1481655768937123e-05, 1.9509996913793445e-05, -6.672031005495517e-05, 3.170954269060871e-06, 0.0, 0.0]
effort: [-12.310890000000002, -27.006999999999998, -18.5928, -2.8993371428571426, -0.9849600000000001, -0.16, 0.0, 0.0]
---
header: 
  seq: 270757
  stamp: 
    secs: 1738887226
    nsecs: 330445388
  frame_id: ''
name: 
  - joint_1
  - joint_2
  - joint_3
  - joint_4
  - joint_5
  - joint_6
  - tcp_lin
  - tcp_rot
position: [2.4736635932650354e-08, -3.8645793751260074e-12, 4.681850410703949e-08, 1.15034194285638e-07, -3.69928853327381e-07, -1.7978788996605597e-07, -1.1102230246251565e-16, -1.1102230246251565e-16]
velocity: [9.415255878422038e-06, -9.276889982331542e-06, 1.0012380535283775e-05, -1.2289655851937365e-05, -8.985667468790732e-05, -4.844112248419971e-05, 0.0, 0.0]
effort: [-13.035060000000001, -25.811999999999998, -18.5928, -2.2661485714285714, -0.9072000000000001, -0.192, 0.0, 0.0]
---
header: 
  seq: 270758
  stamp: 
    secs: 1738887226
    nsecs: 350468062
  frame_id: ''
name: 
  - joint_1
  - joint_2
  - joint_3
  - joint_4
  - joint_5
  - joint_6
  - tcp_lin
  - tcp_rot
position: [4.945848635532761e-09, -2.9963846627303455e-08, 1.5918511935358185e-07, 2.8760667025368503e-08, 2.958804014668013e-07, 7.725324177125371e-13, -1.1102230246251565e-16, -1.1102230246251565e-16]
velocity: [7.419992601732752e-06, -8.173043248739762e-06, 5.700961502104816e-05, -4.12269567350187e-06, 6.423832392208267e-05, -5.127968771022855e-06, 0.0, 0.0]
effort: [-13.759230000000002, -26.529, -18.389599999999998, -2.3994514285714286, -1.11456, -0.20800000000000002, 0.0, 0.0]
---
header: 
  seq: 270759
  stamp: 
    secs: 1738887226
    nsecs: 369500223
  frame_id: ''
name: 
  - joint_1
  - joint_2
  - joint_3
  - joint_4
  - joint_5
  - joint_6
  - tcp_lin
  - tcp_rot
position: [-7.41388559221576e-08, -2.9215816741662455e-08, 1.0495174501171963e-08, 3.1189412301998685e-07, -1.502918684720707e-07, -1.202579957508607e-07, -1.1102230246251565e-16, -1.1102230246251565e-16]
velocity: [-1.752566978476899e-05, -1.1398548307986091e-05, -1.4638467508762698e-06, 0.00010153946465969264, -3.655598406824133e-05, -2.5127601427926028e-05, 0.0, 0.0]
effort: [-11.586720000000001, -26.529, -18.288, -2.2661485714285714, -1.11456, -0.192, 0.0, 0.0]
---
header: 
  seq: 270760
  stamp: 
    secs: 1738887226
    nsecs: 390444953
  frame_id: ''
name: 
  - joint_1
  - joint_2
  - joint_3
  - joint_4
  - joint_5
  - joint_6
  - tcp_lin
  - tcp_rot
position: [4.4493618689446364e-08, -2.9958984688794016e-08, 9.360205818307203e-09, -2.301251671653875e-07, 1.479464772762184e-07, -2.3966027902685584e-07, -1.1102230246251565e-16, -1.1102230246251565e-16]
velocity: [1.214060615598785e-05, -1.0851825813778242e-05, 7.571715048220967e-06, -4.8172474042939856e-05, 6.41896629921507e-05, -6.640318665249167e-05, 0.0, 0.0]
effort: [-13.397145000000002, -26.051, -18.5928, -2.3661257142857144, -1.06272, -0.176, 0.0, 0.0]
---
header: 
  seq: 270761
  stamp: 
    secs: 1738887226
    nsecs: 410445285
  frame_id: ''
name: 
  - joint_1
  - joint_2
  - joint_3
  - joint_4
  - joint_5
  - joint_6
  - tcp_lin
  - tcp_rot
position: [-1.4831448395641688e-08, 1.2879209462962146e-11, -6.556517324150832e-08, -2.589552403523833e-07, -2.220183155009235e-07, 5.996731919477192e-08, -1.1102230246251565e-16, -1.1102230246251565e-16]
velocity: [-1.0366257862443223e-06, 3.3579143486122393e-06, -2.0282054626276992e-05, -6.79325565871874e-05, -7.676343657712158e-05, 2.4422113209668857e-05, 0.0, 0.0]
effort: [-11.948805000000002, -26.051, -18.5928, -3.03264, -1.01088, -0.192, 0.0, 0.0]
---
header: 
  seq: 270762
  stamp: 
    secs: 1738887226
    nsecs: 430452799
  frame_id: ''
name: 
  - joint_1
  - joint_2
  - joint_3
  - joint_4
  - joint_5
  - joint_6
  - tcp_lin
  - tcp_rot
position: [-1.4841354507476799e-08, 1.3753494786562004e-12, -6.552508106084986e-08, -2.3009359940026595e-07, -1.8492794958519593e-07, -1.7988644342156387e-07, -1.1102230246251565e-16, -1.1102230246251565e-16]
velocity: [-1.1147105638215998e-05, -4.161343708964839e-06, -3.8047506348884425e-06, 2.9139967190460337e-06, -4.170791416431353e-05, -4.723711774032855e-05, 0.0, 0.0]
effort: [-13.035060000000001, -26.529, -18.1864, -2.3661257142857144, -0.9849600000000001, -0.16, 0.0, 0.0]
---
header: 
  seq: 270763
  stamp: 
    secs: 1738887226
    nsecs: 450446099
  frame_id: ''
name: 
  - joint_1
  - joint_2
  - joint_3
  - joint_4
  - joint_5
  - joint_6
  - tcp_lin
  - tcp_rot
position: [2.475125974742384e-08, 2.991901605380494e-08, 4.6819775412085125e-08, 8.622279735462494e-08, 2.591462355995892e-07, -1.5889044747172266e-13, -1.1102230246251565e-16, -1.1102230246251565e-16]
velocity: [2.6301009318421893e-06, 3.982975656569014e-06, 8.622311926287015e-06, 3.158180338850503e-05, 4.7861738161883866e-05, -2.142184942480255e-07, 0.0, 0.0]
effort: [-11.948805000000002, -26.29, -18.389599999999998, -2.666057142857143, -0.9849600000000001, -0.16, 0.0, 0.0]
---
header: 
  seq: 270764
  stamp: 
    secs: 1738887226
    nsecs: 469499819
  frame_id: ''
name: 
  - joint_1
  - joint_2
  - joint_3
  - joint_4
  - joint_5
  - joint_6
  - tcp_lin
  - tcp_rot
position: [-7.419313233778314e-08, -2.857883187460096e-08, 4.70219985710766e-08, -5.192172698735541e-08, -7.69918657568802e-08, -5.9322996897622155e-08, -1.1102230246251565e-16, -1.1102230246251565e-16]
velocity: [-2.229718503595667e-05, -1.1162938621849965e-05, 1.609454039202985e-05, -4.618447333749548e-05, -1.5441817036707933e-05, -1.2769302724024975e-05, 0.0, 0.0]
effort: [-13.397145000000002, -26.529, -18.389599999999998, -2.2661485714285714, -1.06272, -0.16, 0.0, 0.0]
---
header: 
  seq: 270765
  stamp: 
    secs: 1738887226
    nsecs: 490446426
  frame_id: ''
name: 
  - joint_1
  - joint_2
  - joint_3
  - joint_4
  - joint_5
  - joint_6
  - tcp_lin
  - tcp_rot
position: [8.40509117887765e-08, 2.9955309337772707e-08, -1.4044319377751266e-07, 1.4384811002050842e-07, 2.9592758028102e-07, 3.7117736267973905e-13, -1.1102230246251565e-16, -1.1102230246251565e-16]
velocity: [2.315506665407959e-05, 7.112287662460254e-07, -3.9625907349190724e-05, 5.268380858372371e-06, 9.315808570807153e-05, -4.3101730757759174e-06, 0.0, 0.0]
effort: [-12.310890000000002, -26.29, -18.4912, -2.699382857142857, -0.9849600000000001, -0.16, 0.0, 0.0]
---
header: 
  seq: 270766
  stamp: 
    secs: 1738887226
    nsecs: 510445444
  frame_id: ''
name: 
  - joint_1
  - joint_2
  - joint_3
  - joint_4
  - joint_5
  - joint_6
  - tcp_lin
  - tcp_rot
position: [-5.439684417276687e-08, 1.4085917869719502e-13, 4.6808622713184005e-08, 8.636754206305697e-08, -1.4798208274328043e-07, -5.9988886495511e-08, -1.1102230246251565e-16, -1.1102230246251565e-16]
velocity: [-1.7351514741436904e-05, -4.5511647957339827e-07, 1.5370289962236425e-05, 6.047510890937645e-05, -5.526881113837645e-05, -2.062243245988063e-05, 0.0, 0.0]
effort: [-12.310890000000002, -26.768, -18.4912, -2.699382857142857, -1.06272, -0.176, 0.0, 0.0]
---
header: 
  seq: 270767
  stamp: 
    secs: 1738887226
    nsecs: 529558879
  frame_id: ''
name: 
  - joint_1
  - joint_2
  - joint_3
  - joint_4
  - joint_5
  - joint_6
  - tcp_lin
  - tcp_rot
position: [-1.4834741458732487e-08, -2.995824302615434e-08, 4.684071365243166e-08, 1.1506773129343115e-07, -1.4794722893175784e-07, 5.993619796644998e-08, -1.1102230246251565e-16, -1.1102230246251565e-16]
velocity: [-9.730729420081187e-06, -8.178301307216606e-06, 1.4620459468908083e-05, 2.5278601030903687e-05, -2.2423770913281242e-05, 6.341862110808786e-06, 0.0, 0.0]
effort: [-13.759230000000002, -26.29, -18.5928, -2.7327085714285713, -1.01088, -0.224, 0.0, 0.0]
---
header: 
  seq: 270768
  stamp: 
    secs: 1738887226
    nsecs: 550449938
  frame_id: ''
name: 
  - joint_1
  - joint_2
  - joint_3
  - joint_4
  - joint_5
  - joint_6
  - tcp_lin
  - tcp_rot
position: [6.42721983151209e-08, -2.9959362981999124e-08, 9.338376994539964e-09, -1.1507230738848212e-07, 1.8489431273322738e-07, 1.569272425759549e-12, -1.1102230246251565e-16, -1.1102230246251565e-16]
velocity: [1.809553951433995e-05, -5.492433987485476e-06, -1.2366436555725051e-06, -1.169415914350491e-05, 3.1942887787849095e-05, -7.179824437520838e-06, 0.0, 0.0]
effort: [-14.121315000000001, -26.529, -17.9832, -2.1994971428571426, -0.9849600000000001, -0.176, 0.0, 0.0]
---
header: 
  seq: 270769
  stamp: 
    secs: 1738887226
    nsecs: 570445094
  frame_id: ''
name: 
  - joint_1
  - joint_2
  - joint_3
  - joint_4
  - joint_5
  - joint_6
  - tcp_lin
  - tcp_rot
position: [4.4507811585097954e-08, 3.485391539003748e-12, -2.8083235222658326e-08, -2.301547987391461e-07, 1.1098774732554335e-07, 1.7978009223868018e-07, -1.1102230246251565e-16, -1.1102230246251565e-16]
velocity: [2.3490427889958807e-05, 2.1546825306162493e-06, -7.872227431507362e-07, -4.579914505120004e-05, 4.08085487414601e-05, 4.6383042838323654e-05, 0.0, 0.0]
effort: [-12.310890000000002, -26.529, -18.8976, -2.699382857142857, -1.06272, -0.16, 0.0, 0.0]
---
header: 
  seq: 270770
  stamp: 
    secs: 1738887226
    nsecs: 590453369
  frame_id: ''
name: 
  - joint_1
  - joint_2
  - joint_3
  - joint_4
  - joint_5
  - joint_6
  - tcp_lin
  - tcp_rot
position: [-3.4595484265229695e-08, -2.9974189451248417e-08, 8.425614261589737e-08, 5.178391474436784e-07, 2.2202471855518117e-07, 1.7975330009884622e-07, -1.1102230246251565e-16, -1.1102230246251565e-16]
velocity: [-1.853792134927404e-06, -1.4528534093939135e-05, 2.6477254043664263e-05, 0.00010761150315870543, 9.151413943658601e-05, 3.362171300045866e-05, 0.0, 0.0]
effort: [-13.035060000000001, -26.529, -18.4912, -2.699382857142857, -0.9849600000000001, -0.192, 0.0, 0.0]
---
header: 
  seq: 270771
  stamp: 
    secs: 1738887226
    nsecs: 610445529
  frame_id: ''
name: 
  - joint_1
  - joint_2
  - joint_3
  - joint_4
  - joint_5
  - joint_6
  - tcp_lin
  - tcp_rot
position: [4.449051900474207e-08, 2.996714108698301e-08, 9.366802864411645e-09, 1.726129189926791e-07, -2.959381044879737e-07, -2.996641204638503e-07, -1.1102230246251565e-16, -1.1102230246251565e-16]
velocity: [1.0939622045433383e-06, 1.0096168051444444e-05, 6.184600708422875e-06, -4.656080344372215e-06, -9.579683799406206e-05, -9.619533169635465e-05, 0.0, 0.0]
effort: [-14.121315000000001, -26.529, -18.4912, -2.4327771428571427, -1.0368000000000002, -0.192, 0.0, 0.0]
---
header: 
  seq: 270772
  stamp: 
    secs: 1738887226
    nsecs: 630445466
  frame_id: ''
name: 
  - joint_1
  - joint_2
  - joint_3
  - joint_4
  - joint_5
  - joint_6
  - tcp_lin
  - tcp_rot
position: [4.4506558611909116e-08, -2.995382271310998e-08, 9.385446342837844e-09, -3.453351182028965e-07, -3.6998148821604595e-07, 4.6196463187601344e-11, -1.1102230246251565e-16, -1.1102230246251565e-16]
velocity: [6.850345220748295e-06, -8.397799721064264e-06, 1.3218956019303667e-05, -0.00012160615714433299, -7.46953894135939e-05, 1.0668409931908948e-05, 0.0, 0.0]
effort: [-11.224635000000001, -26.529, -18.5928, -2.2661485714285714, -0.9590400000000001, -0.16, 0.0, 0.0]
---
header: 
  seq: 270773
  stamp: 
    secs: 1738887226
    nsecs: 650451442
  frame_id: ''
name: 
  - joint_1
  - joint_2
  - joint_3
  - joint_4
  - joint_5
  - joint_6
  - tcp_lin
  - tcp_rot
position: [-3.460454010110809e-08, 1.7916990792722655e-12, 9.367731253255226e-09, -2.01386210732856e-07, 1.47961813909657e-07, -1.0525325136518429e-11, -1.1102230246251565e-16, -1.1102230246251565e-16]
velocity: [-4.421299152201421e-06, -7.527193432960795e-07, 7.52028839788257e-06, -5.5932038248344236e-05, 2.6200994003493603e-05, 8.189929632280971e-06, 0.0, 0.0]
effort: [-12.672975000000001, -26.29, -18.389599999999998, -2.2994742857142856, -0.9849600000000001, -0.176, 0.0, 0.0]
---
header: 
  seq: 270774
  stamp: 
    secs: 1738887226
    nsecs: 670445345
  frame_id: ''
name: 
  - joint_1
  - joint_2
  - joint_3
  - joint_4
  - joint_5
  - joint_6
  - tcp_lin
  - tcp_rot
position: [-9.392346938928337e-08, -2.9991658560653985e-08, 8.427465816643677e-08, 3.164319529897408e-07, -3.7006790418847384e-08, 1.1999379687677837e-07, -1.1102230246251565e-16, -1.1102230246251565e-16]
velocity: [-2.0735282336354888e-05, -7.408589666395443e-06, 1.9580224014772646e-05, 9.788236798925071e-05, -5.8446152776048325e-06, 4.367857690812201e-05, 0.0, 0.0]
effort: [-12.672975000000001, -26.29, -18.288, -2.066194285714286, -1.0368000000000002, -0.176, 0.0, 0.0]
---
header: 
  seq: 270775
  stamp: 
    secs: 1738887226
    nsecs: 689622643
  frame_id: ''
name: 
  - joint_1
  - joint_2
  - joint_3
  - joint_4
  - joint_5
  - joint_6
  - tcp_lin
  - tcp_rot
position: [-3.491112963731099e-08, -3.345140494677018e-11, -1.4010941865501464e-07, -2.0249050179716618e-07, -1.0915597114852106e-07, 2.4527812465942924e-07, -1.1102230246251565e-16, -1.1102230246251565e-16]
velocity: [-9.971952907525256e-06, 2.422843953034695e-06, -2.7629555180611217e-05, -3.959578241645252e-05, -1.4681455176220714e-05, 8.774833450656398e-05, 0.0, 0.0]
effort: [-11.586720000000001, -26.768, -18.389599999999998, -2.4994285714285716, -0.9590400000000001, -0.16, 0.0, 0.0]
---
header: 
  seq: 270776
  stamp: 
    secs: 1738887226
    nsecs: 710445660
  frame_id: ''
name: 
  - joint_1
  - joint_2
  - joint_3
  - joint_4
  - joint_5
  - joint_6
  - tcp_lin
  - tcp_rot
position: [2.471917187955715e-08, 8.989598961487362e-08, 4.682430706997151e-08, -4.315650252116807e-07, -2.589329500759022e-07, -2.3971054922761596e-07, -1.1102230246251565e-16, -1.1102230246251565e-16]
velocity: [5.060977452279586e-06, 2.4923502976689837e-05, 2.380735023473263e-06, -8.888288378469921e-05, -8.86834140243603e-05, -6.686630446311137e-05, 0.0, 0.0]
effort: [-11.586720000000001, -26.051, -18.5928, -2.4994285714285716, -0.9072000000000001, -0.16, 0.0, 0.0]
---
header: 
  seq: 270777
  stamp: 
    secs: 1738887226
    nsecs: 730445035
  frame_id: ''
name: 
  - joint_1
  - joint_2
  - joint_3
  - joint_4
  - joint_5
  - joint_6
  - tcp_lin
  - tcp_rot
position: [4.944927825884014e-09, 1.631033662440391e-11, 8.433578284708663e-08, -1.4385810364602154e-07, -2.959924874314123e-07, 5.994516967396247e-08, -1.1102230246251565e-16, -1.1102230246251565e-16]
velocity: [-1.6351362774051456e-06, 1.8267583305213084e-06, 2.6221862823771545e-05, -3.2565975788755845e-05, -7.422455586311903e-05, 1.8426030197464127e-05, 0.0, 0.0]
effort: [-12.672975000000001, -26.29, -18.288, -2.56608, -1.01088, -0.16, 0.0, 0.0]
---
header: 
  seq: 270778
  stamp: 
    secs: 1738887226
    nsecs: 750458604
  frame_id: ''
name: 
  - joint_1
  - joint_2
  - joint_3
  - joint_4
  - joint_5
  - joint_6
  - tcp_lin
  - tcp_rot
position: [6.427438182528363e-08, 2.9965875030171216e-08, 4.681665707407247e-08, -3.7408501349221963e-07, 7.39170658306993e-08, -1.1987246258792913e-07, -1.1102230246251565e-16, -1.1102230246251565e-16]
velocity: [8.250824334155095e-06, 5.966970330767576e-06, 2.2639283879481596e-05, -0.00010356577145016397, 1.047594098626811e-05, -4.329481377215559e-05, 0.0, 0.0]
effort: [-13.035060000000001, -26.051, -18.288, -2.8993371428571426, -1.01088, -0.176, 0.0, 0.0]
---
header: 
  seq: 270779
  stamp: 
    secs: 1738887226
    nsecs: 770445617
  frame_id: ''
name: 
  - joint_1
  - joint_2
  - joint_3
  - joint_4
  - joint_5
  - joint_6
  - tcp_lin
  - tcp_rot
position: [8.404884621985893e-08, 1.4198377791986146e-14, -6.55417401264461e-08, 2.3014012900910567e-07, -3.6986398853100395e-08, 1.6149804941070465e-13, -1.1102230246251565e-16, -1.1102230246251565e-16]
velocity: [1.844601512748754e-05, -2.8018078202409056e-07, -1.5457229073347745e-05, 4.5523702881872664e-05, -1.5154914254369426e-06, -3.1921581640163837e-06, 0.0, 0.0]
effort: [-13.035060000000001, -25.573, -18.1864, -2.1994971428571426, -1.0368000000000002, -0.128, 0.0, 0.0]
---
header: 
  seq: 270780
  stamp: 
    secs: 1738887226
    nsecs: 790449309
  frame_id: ''
name: 
  - joint_1
  - joint_2
  - joint_3
  - joint_4
  - joint_5
  - joint_6
  - tcp_lin
  - tcp_rot
position: [-5.437027962047467e-08, 5.96093721842782e-11, 9.088733619297492e-09, 2.8736675886390274e-08, 4.06134154923224e-07, -5.970448935650152e-08, -1.1102230246251565e-16, -1.1102230246251565e-16]
velocity: [-1.2782139100137605e-05, 1.4071442451857e-06, 5.718373462385361e-06, 1.1598643699096519e-05, 0.00013192560906184005, -4.821674263306823e-06, 0.0, 0.0]
effort: [-11.586720000000001, -26.051, -18.4912, -2.5327542857142857, -1.06272, -0.16, 0.0, 0.0]
---
header: 
  seq: 270781
  stamp: 
    secs: 1738887226
    nsecs: 810445682
  frame_id: ''
name: 
  - joint_1
  - joint_2
  - joint_3
  - joint_4
  - joint_5
  - joint_6
  - tcp_lin
  - tcp_rot
position: [-1.483521862315039e-08, -2.996056428627995e-08, 9.368656710813366e-09, 1.7262286892326098e-07, -1.8495247014018457e-07, 5.99459741433839e-08, -1.1102230246251565e-16, -1.1102230246251565e-16]
velocity: [-4.153377729175906e-06, 5.202695097975956e-09, 9.888940406538293e-06, 5.778227609216171e-05, -6.82656966828214e-05, 2.957758998348739e-05, 0.0, 0.0]
effort: [-12.310890000000002, -25.811999999999998, -18.389599999999998, -2.8993371428571426, -1.01088, -0.16, 0.0, 0.0]
---
header: 
  seq: 270782
  stamp: 
    secs: 1738887226
    nsecs: 830445218
  frame_id: ''
name: 
  - joint_1
  - joint_2
  - joint_3
  - joint_4
  - joint_5
  - joint_6
  - tcp_lin
  - tcp_rot
position: [4.450720212646359e-08, -4.986528840488875e-13, 1.9664477394327224e-07, 1.0262254843767646e-10, -2.9597160321528207e-07, -1.7989819303830026e-07, -1.1102230246251565e-16, -1.1102230246251565e-16]
velocity: [1.3695059525601748e-05, 1.138658776528673e-06, 4.7133863616287754e-05, 2.4286735455151292e-05, -7.381623205697776e-05, -5.126420608952841e-05, 0.0, 0.0]
effort: [-12.672975000000001, -25.811999999999998, -18.4912, -2.09952, -0.9849600000000001, -0.16, 0.0, 0.0]
---
header: 
  seq: 270783
  stamp: 
    secs: 1738887226
    nsecs: 849513027
  frame_id: ''
name: 
  - joint_1
  - joint_2
  - joint_3
  - joint_4
  - joint_5
  - joint_6
  - tcp_lin
  - tcp_rot
position: [6.429447528557734e-08, -3.0023828260472904e-08, 9.380022893914622e-09, 2.299967980462392e-07, 4.81014653130163e-07, -6.001576772321423e-08, -1.1102230246251565e-16, -1.1102230246251565e-16]
velocity: [2.054344024014331e-05, -1.2271671972917487e-05, 7.743530819553237e-06, 2.9074628019036053e-05, 0.00012278370766918771, -1.9229156648196634e-05, 0.0, 0.0]
effort: [-12.672975000000001, -26.29, -18.4912, -2.9993142857142856, -1.06272, -0.192, 0.0, 0.0]
---
header: 
  seq: 270784
  stamp: 
    secs: 1738887226
    nsecs: 870445742
  frame_id: ''
name: 
  - joint_1
  - joint_2
  - joint_3
  - joint_4
  - joint_5
  - joint_6
  - tcp_lin
  - tcp_rot
position: [1.0384664642755993e-07, 2.9933482528281845e-08, -6.553437238054332e-08, 5.7517305495489584e-08, 3.7017602030804014e-08, -5.996105560517266e-08, -1.1102230246251565e-16, -1.1102230246251565e-16]
velocity: [2.48845016165489e-05, 4.1328025254555345e-06, -1.0297811457172147e-05, 1.882392359376051e-05, 4.774062097150019e-06, -2.5387085070680605e-05, 0.0, 0.0]
effort: [-12.672975000000001, -25.811999999999998, -18.5928, -2.6327314285714287, -1.0368000000000002, -0.16, 0.0, 0.0]
---
header: 
  seq: 270785
  stamp: 
    secs: 1738887226
    nsecs: 890445272
  frame_id: ''
name: 
  - joint_1
  - joint_2
  - joint_3
  - joint_4
  - joint_5
  - joint_6
  - tcp_lin
  - tcp_rot
position: [-1.4824466858502068e-08, -2.995271543761419e-08, 4.6799636418037466e-08, -2.301358138622693e-07, 3.3281638689927937e-07, 1.797528173509014e-07, -1.1102230246251565e-16, -1.1102230246251565e-16]
velocity: [-1.0446318268538699e-05, -8.734282210644515e-06, 2.2716479680219174e-05, -2.4352453050447675e-05, 0.00011506610977447635, 5.0976086464944004e-05, 0.0, 0.0]
effort: [-11.948805000000002, -26.051, -18.288, -2.3327999999999998, -1.06272, -0.176, 0.0, 0.0]
---
header: 
  seq: 270786
  stamp: 
    secs: 1738887226
    nsecs: 910460157
  frame_id: ''
name: 
  - joint_1
  - joint_2
  - joint_3
  - joint_4
  - joint_5
  - joint_6
  - tcp_lin
  - tcp_rot
position: [6.426114294273462e-08, 2.9957465009190255e-08, -2.8004697205134735e-08, -4.895582954988227e-07, -2.219420872582673e-07, -6.009312609518709e-08, -1.1102230246251565e-16, -1.1102230246251565e-16]
velocity: [1.3394850389625858e-05, 3.892790989489034e-06, 7.88236093786244e-06, -0.00013345875411872583, -5.895071487752531e-05, -2.401440353431053e-05, 0.0, 0.0]
effort: [-13.759230000000002, -25.811999999999998, -18.4912, -2.699382857142857, -1.08864, -0.16, 0.0, 0.0]
---
header: 
  seq: 270787
  stamp: 
    secs: 1738887226
    nsecs: 930445435
  frame_id: ''
name: 
  - joint_1
  - joint_2
  - joint_3
  - joint_4
  - joint_5
  - joint_6
  - tcp_lin
  - tcp_rot
position: [-1.3348895863433013e-07, 8.986749655671414e-08, 4.679406946257913e-08, 5.752009804516224e-08, -2.958684016829127e-07, 5.987758302348719e-08, -1.1102230246251565e-16, -1.1102230246251565e-16]
velocity: [-2.6188851376929162e-05, 2.0311335262400716e-05, 1.768112519154014e-05, 3.0206399424523592e-05, -7.066557525558354e-05, 2.6241653513554864e-05, 0.0, 0.0]
effort: [-12.310890000000002, -26.29, -18.288, -2.79936, -0.9331200000000001, -0.096, 0.0, 0.0]
---
header: 
  seq: 270788
  stamp: 
    secs: 1738887226
    nsecs: 950451832
  frame_id: ''
name: 
  - joint_1
  - joint_2
  - joint_3
  - joint_4
  - joint_5
  - joint_6
  - tcp_lin
  - tcp_rot
position: [4.459638256034252e-08, -3.420313680242324e-10, 4.833499834070255e-08, -3.754379485195103e-07, 1.8851563272357004e-07, 1.1717196325381089e-07, -1.1102230246251565e-16, -1.1102230246251565e-16]
velocity: [7.724135162864753e-06, 3.945623731993994e-06, 3.6722972706002677e-06, -8.238213590321916e-05, 1.3601499117681329e-05, 3.6475591022975154e-05, 0.0, 0.0]
effort: [-13.035060000000001, -26.768, -18.5928, -2.466102857142857, -1.01088, -0.14400000000000002, 0.0, 0.0]
---
header: 
  seq: 270789
  stamp: 
    secs: 1738887226
    nsecs: 970446589
  frame_id: ''
name: 
  - joint_1
  - joint_2
  - joint_3
  - joint_4
  - joint_5
  - joint_6
  - tcp_lin
  - tcp_rot
position: [-1.483127840939773e-08, -2.9961780430269156e-08, -6.55403091392318e-08, -3.740004311272214e-07, 3.4450140554294786e-12, -5.992232550572392e-08, -1.1102230246251565e-16, -1.1102230246251565e-16]
velocity: [-8.68714664834048e-06, -9.2237365687889e-06, -9.031782824959131e-06, -0.0001063124607150861, 4.417137539072445e-06, -1.0010109723104836e-05, 0.0, 0.0]
effort: [-13.035060000000001, -26.051, -18.389599999999998, -2.4994285714285716, -1.06272, -0.176, 0.0, 0.0]
---
header: 
  seq: 270790
  stamp: 
    secs: 1738887226
    nsecs: 990446053
  frame_id: ''
name: 
  - joint_1
  - joint_2
  - joint_3
  - joint_4
  - joint_5
  - joint_6
  - tcp_lin
  - tcp_rot
position: [-1.48295049496568e-08, -2.99588869191628e-08, -6.55376804317881e-08, 3.7400504949152976e-07, 2.2190972394051244e-07, 3.8835839183388605e-12, -1.1102230246251565e-16, -1.1102230246251565e-16]
velocity: [-4.119763702079255e-06, -5.773832073184783e-06, -2.2336315429708707e-05, 5.4161738637470746e-05, 7.607261609843589e-05, -3.912121491016045e-06, 0.0, 0.0]
effort: [-12.672975000000001, -26.529, -18.389599999999998, -2.666057142857143, -0.9849600000000001, -0.176, 0.0, 0.0]
---
header: 
  seq: 270791
  stamp: 
    secs: 1738887227
    nsecs:   9737596
  frame_id: ''
name: 
  - joint_1
  - joint_2
  - joint_3
  - joint_4
  - joint_5
  - joint_6
  - tcp_lin
  - tcp_rot
position: [-1.5247008217560684e-08, 3.007621621893336e-08, -6.614743741851578e-08, 2.329388603919825e-07, -3.937151885121095e-08, 6.0176631425053e-08, -1.1102230246251565e-16, -1.1102230246251565e-16]
velocity: [-1.0046107216051458e-05, 1.0243130395481136e-05, -1.1763312951883784e-05, 0.00010969404728933683, -4.6437388754958065e-05, 1.758473220665351e-05, 0.0, 0.0]
effort: [-12.672975000000001, -26.529, -18.694399999999998, -3.03264, -1.01088, -0.128, 0.0, 0.0]
---
header: 
  seq: 270792
  stamp: 
    secs: 1738887227
    nsecs:  30445232
  frame_id: ''
name: 
  - joint_1
  - joint_2
  - joint_3
  - joint_4
  - joint_5
  - joint_6
  - tcp_lin
  - tcp_rot
position: [-5.438082082091398e-08, -2.1260695975990696e-11, 4.6801981284388475e-08, 8.630366861578418e-08, -2.959300030228342e-07, -1.797950226423207e-07, -1.1102230246251565e-16, -1.1102230246251565e-16]
velocity: [-1.180417994713274e-05, -7.259292984016127e-06, 6.839994435358564e-06, -1.9155499271059024e-05, -5.780639992515257e-05, -5.6848969177404924e-05, 0.0, 0.0]
effort: [-12.672975000000001, -25.334, -18.1864, -2.666057142857143, -0.9849600000000001, -0.16, 0.0, 0.0]
---
header: 
  seq: 270793
  stamp: 
    secs: 1738887227
    nsecs:  50446944
  frame_id: ''
name: 
  - joint_1
  - joint_2
  - joint_3
  - joint_4
  - joint_5
  - joint_6
  - tcp_lin
  - tcp_rot
position: [-7.418863126455397e-08, -2.995917682652073e-08, -1.4045166632031183e-07, 2.8965355589614618e-08, 1.8479831971895257e-07, -1.6139083554555508e-12, -1.1102230246251565e-16, -1.1102230246251565e-16]
velocity: [-2.068275249700123e-05, -2.8097750165680095e-06, -1.4079019984042275e-05, 4.270059714082161e-06, 3.171249606022913e-05, 3.2675741245230026e-06, 0.0, 0.0]
effort: [-14.121315000000001, -26.529, -18.694399999999998, -2.1994971428571426, -1.06272, -0.176, 0.0, 0.0]
---
header: 
  seq: 270794
  stamp: 
    secs: 1738887227
    nsecs:  70495473
  frame_id: ''
name: 
  - joint_1
  - joint_2
  - joint_3
  - joint_4
  - joint_5
