header: 
  seq: 285794
  stamp: 
    secs: 1737603596
    nsecs: 736908930
  frame_id: ''
name: 
  - joint_1
  - joint_2
  - joint_3
  - joint_4
  - joint_5
  - joint_6
  - tcp_lin
  - tcp_rot
position: [2.469845003316204e-08, 8.978589230161497e-08, 4.6826124865389725e-08, -8.636933028693236e-08, 7.428507125485826e-08, -5.999815714673297e-08, 0.1, 0.1]
velocity: [-7.193025010921213e-07, 2.5925513223894755e-05, 1.2130963249653215e-05, -4.296980788402267e-06, -2.6958689740307372e-05, -1.2029264064018918e-05, 0.0, 0.0]
effort: [-0.7241700000000001, -23.183, -19.9136, -0.23328, -0.9072000000000001, 0.192, 0.0, 0.0]
---
header: 
  seq: 285795
  stamp: 
    secs: 1737603596
    nsecs: 756792948
  frame_id: ''
name: 
  - joint_1
  - joint_2
  - joint_3
  - joint_4
  - joint_5
  - joint_6
  - tcp_lin
  - tcp_rot
position: [4.450239232309373e-08, 2.994723978842347e-08, 9.348923626588664e-09, -4.3152116650248613e-07, -2.589557848238151e-07, -1.963852807068023e-11, 0.1, 0.1]
velocity: [7.428593852328778e-06, 5.890233418316342e-06, -7.063077935969507e-06, -7.603889579147497e-05, -7.46547609414417e-05, -2.31029088829279e-05, 0.0, 0.0]
effort: [-1.4483400000000002, -22.705, -20.116799999999998, -0.23328, -0.9331200000000001, 0.272, 0.0, 0.0]
---
header: 
  seq: 285796
  stamp: 
    secs: 1737603596
    nsecs: 777006791
  frame_id: ''
name: 
  - joint_1
  - joint_2
  - joint_3
  - joint_4
  - joint_5
  - joint_6
  - tcp_lin
  - tcp_rot
position: [-3.4149756108423354e-08, -3.286791177383358e-08, 4.862141460912304e-08, 5.580378593211409e-08, 4.5490892261723603e-07, -2.398594084282509e-07, 0.1, 0.1]
velocity: [-7.837337318710409e-06, -8.43284736033448e-06, 5.813005320643146e-06, 4.133884128093495e-06, 0.0001392624020446606, -5.958101076645386e-05, 0.0, 0.0]
effort: [-0.36208500000000005, -22.227, -19.811999999999998, -0.1999542857142857, -0.9072000000000001, 0.24, 0.0, 0.0]
---
header: 
  seq: 285797
  stamp: 
    secs: 1737603596
    nsecs: 796800234
  frame_id: ''
name: 
  - joint_1
  - joint_2
  - joint_3
  - joint_4
  - joint_5
  - joint_6
  - tcp_lin
  - tcp_rot
position: [4.9500340974197794e-09, 2.9551828480887137e-08, 9.554846020967234e-09, 1.4390460520569855e-07, -3.697366837510446e-07, 6.131762541351617e-08, 0.1, 0.1]
velocity: [-9.09000844950721e-07, 3.662186178809162e-06, 7.4967692755557345e-06, 1.918381282239281e-05, -9.568858881546416e-05, 2.2156694038174814e-05, 0.0, 0.0]
effort: [-0.36208500000000005, -22.944, -20.2184, 0.7664914285714286, -0.9590400000000001, 0.28800000000000003, 0.0, 0.0]
---
header: 
  seq: 285798
  stamp: 
    secs: 1737603596
    nsecs: 816795630
  frame_id: ''
name: 
  - joint_1
  - joint_2
  - joint_3
  - joint_4
  - joint_5
  - joint_6
  - tcp_lin
  - tcp_rot
position: [-1.4821368266234124e-08, -2.996226975755466e-08, 8.427082106866924e-08, 8.628321971301106e-08, -3.7094489761524496e-08, 5.992673363895785e-08, 0.1, 0.1]
velocity: [-1.0599231914057031e-07, -3.1693845937629116e-06, 1.2516500344595535e-05, 1.4971393200991585e-05, 2.484549861844464e-05, 1.0411344376715882e-05, 0.0, 0.0]
effort: [-0.36208500000000005, -21.749, -20.2184, -0.09997714285714285, -0.9072000000000001, 0.304, 0.0, 0.0]
---
header: 
  seq: 285799
  stamp: 
    secs: 1737603596
    nsecs: 836995359
  frame_id: ''
name: 
  - joint_1
  - joint_2
  - joint_3
  - joint_4
  - joint_5
  - joint_6
  - tcp_lin
  - tcp_rot
position: [-3.486445552098711e-08, -3.038611154098669e-08, -2.9819003807080926e-08, -5.7450379484032544e-08, -4.3542733616110265e-08, -1.2178662078866743e-07, 0.1, 0.1]
velocity: [-7.129486171652871e-06, -8.29095460557795e-06, -2.4434351088331933e-05, -5.2829676397062985e-06, -3.896211684836769e-05, -1.849790643187618e-05, 0.0, 0.0]
effort: [-0.36208500000000005, -22.705, -20.2184, -0.29993142857142857, -0.8294400000000001, 0.272, 0.0, 0.0]
---
header: 
  seq: 285800
  stamp: 
    secs: 1737603596
    nsecs: 856801128
  frame_id: ''
name: 
  - joint_1
  - joint_2
  - joint_3
  - joint_4
  - joint_5
  - joint_6
  - tcp_lin
  - tcp_rot
position: [4.952537710548306e-09, 1.4367526770094815e-10, -2.777121024305016e-08, -2.8734798756126348e-08, -7.434560605793394e-08, 2.405704049667675e-07, 0.1, 0.1]
velocity: [-1.7255564928158386e-06, -3.4372753812989286e-07, 6.194720520656951e-06, -8.023311671791426e-06, -2.5644660413967264e-05, 5.5437779839841836e-05, 0.0, 0.0]
effort: [-0.7241700000000001, -22.944, -20.2184, -0.29993142857142857, -0.8553600000000001, 0.28800000000000003, 0.0, 0.0]
---
header: 
  seq: 285801
  stamp: 
    secs: 1737603596
    nsecs: 876880641
  frame_id: ''
name: 
  - joint_1
  - joint_2
  - joint_3
  - joint_4
  - joint_5
  - joint_6
  - tcp_lin
  - tcp_rot
position: [-7.415698261082104e-08, 8.987417996924507e-08, 1.9660447007388953e-07, 1.1507817187380973e-07, 5.178131840540186e-07, -6.327598201303097e-11, 0.1, 0.1]
velocity: [-1.6016997942576296e-05, 2.7323004357846328e-05, 5.207861070144853e-05, -2.995692532862883e-05, 0.00013532977098305225, 1.1921658224136271e-05, 0.0, 0.0]
effort: [0.36208500000000005, -23.183, -20.0152, -0.09997714285714285, -0.9072000000000001, 0.272, 0.0, 0.0]
---
header: 
  seq: 285802
  stamp: 
    secs: 1737603596
    nsecs: 896987712
  frame_id: ''
name: 
  - joint_1
  - joint_2
  - joint_3
  - joint_4
  - joint_5
  - joint_6
  - tcp_lin
  - tcp_rot
position: [2.5129390279837314e-08, -3.1943531280596436e-08, -1.395383289250793e-07, 1.14802608654223e-07, 4.658878404168782e-09, -4.811430353996907e-09, 0.1, 0.1]
velocity: [8.519252690584051e-06, -6.700245681112541e-06, -2.299855283409917e-05, 7.132529673331236e-06, -1.3340180913925731e-05, 8.248492608047127e-06, 0.0, 0.0]
effort: [-0.36208500000000005, -22.227, -20.0152, -0.033325714285714285, -0.9072000000000001, 0.24, 0.0, 0.0]
---
header: 
  seq: 285803
  stamp: 
    secs: 1737603596
    nsecs: 916792360
  frame_id: ''
name: 
  - joint_1
  - joint_2
  - joint_3
  - joint_4
  - joint_5
  - joint_6
  - tcp_lin
  - tcp_rot
position: [-3.465141426996447e-08, 2.997456474338767e-08, 9.429130809241771e-09, 1.7252803183427849e-07, -7.395115941102442e-08, -6.001358202000921e-08, 0.1, 0.1]
velocity: [-1.3470417469964434e-05, 8.840407297949748e-06, 1.2099460462566907e-05, 1.2058588253170932e-05, -1.552163299997683e-06, -4.0306572134743855e-05, 0.0, 0.0]
effort: [-0.36208500000000005, -22.705, -20.2184, 0.033325714285714285, -0.80352, 0.28800000000000003, 0.0, 0.0]
---
header: 
  seq: 285804
  stamp: 
    secs: 1737603596
    nsecs: 936793568
  frame_id: ''
name: 
  - joint_1
  - joint_2
  - joint_3
  - joint_4
  - joint_5
  - joint_6
  - tcp_lin
  - tcp_rot
position: [2.4701208117410738e-08, 8.980172701998183e-08, 4.682527600017279e-08, 8.640078291871808e-08, -3.682806347148171e-08, 7.879759628406505e-11, 0.1, 0.1]
velocity: [3.975887331724636e-06, 2.2497053102940053e-05, 1.036160371135045e-05, -6.220934367495452e-06, -1.310712337612718e-05, 7.279891249490017e-06, 0.0, 0.0]
effort: [-1.4483400000000002, -22.227, -20.2184, -0.033325714285714285, -0.75168, 0.224, 0.0, 0.0]
---
header: 
  seq: 285805
  stamp: 
    secs: 1737603596
    nsecs: 956796008
  frame_id: ''
name: 
  - joint_1
  - joint_2
  - joint_3
  - joint_4
  - joint_5
  - joint_6
  - tcp_lin
  - tcp_rot
position: [4.944017295791361e-09, 2.12624397431051e-12, -1.0298374411867828e-07, 5.7540278645280426e-08, -7.397989792181037e-08, 5.992344505476134e-08, 0.1, 0.1]
velocity: [-4.255087091310105e-07, -1.251226325906901e-07, -5.592345877121096e-06, -1.154284154669658e-05, 8.301550794542092e-06, 2.7162051972405748e-05, 0.0, 0.0]
effort: [-0.7241700000000001, -22.465999999999998, -20.0152, 0.4332342857142857, -0.9072000000000001, 0.24, 0.0, 0.0]
---
header: 
  seq: 285806
  stamp: 
    secs: 1737603596
    nsecs: 976793050
  frame_id: ''
name: 
  - joint_1
  - joint_2
  - joint_3
  - joint_4
  - joint_5
  - joint_6
  - tcp_lin
  - tcp_rot
position: [4.449319837792641e-08, -2.9960988898368956e-08, -6.552973757369942e-08, -1.4384016320452302e-07, 6.287878165081282e-07, -3.7293077471929307e-11, 0.1, 0.1]
velocity: [1.1180226070132967e-05, -4.4913175281039705e-06, -1.7373828096265572e-05, -2.1461111672697426e-05, 0.00014652364986648405, 2.5510570542162375e-05, 0.0, 0.0]
effort: [0.36208500000000005, -22.465999999999998, -20.2184, -0.23328, -0.8553600000000001, 0.28800000000000003, 0.0, 0.0]
---
header: 
  seq: 285807
  stamp: 
    secs: 1737603596
    nsecs: 996813648
  frame_id: ''
name: 
  - joint_1
  - joint_2
  - joint_3
  - joint_4
  - joint_5
  - joint_6
  - tcp_lin
  - tcp_rot
position: [2.3915786884712244e-08, -2.986683017247025e-08, -6.539930339481604e-08, 9.037329518207298e-08, -1.4358516073105105e-07, -1.8101089148183361e-07, 0.1, 0.1]
velocity: [-1.5164901086524973e-06, -2.0422209347960475e-06, -3.0527123568455616e-06, 2.2168916456658316e-05, -2.4034643373363117e-05, -3.052532976910997e-05, 0.0, 0.0]
effort: [-1.0862550000000002, -23.183, -20.0152, -0.033325714285714285, -0.9849600000000001, 0.24, 0.0, 0.0]
---
header: 
  seq: 285808
  stamp: 
    secs: 1737603597
    nsecs:  16793697
  frame_id: ''
name: 
  - joint_1
  - joint_2
  - joint_3
  - joint_4
  - joint_5
  - joint_6
  - tcp_lin
  - tcp_rot
position: [4.4481274308745284e-08, -2.9955257598015477e-08, 9.378222966079726e-09, -1.4379663431562292e-07, -7.40127691479756e-08, 1.379052421517018e-12, 0.1, 0.1]
velocity: [1.3481482322118426e-05, -1.332885621474652e-05, 1.13757803198926e-05, -5.404722675666252e-05, -2.239535420220723e-06, 4.314055924548632e-06, 0.0, 0.0]
effort: [-0.36208500000000005, -22.944, -19.9136, -0.3999085714285714, -0.8553600000000001, 0.224, 0.0, 0.0]
---
header: 
  seq: 285809
  stamp: 
    secs: 1737603597
    nsecs:  36794430
  frame_id: ''
name: 
  - joint_1
  - joint_2
  - joint_3
  - joint_4
  - joint_5
  - joint_6
  - tcp_lin
  - tcp_rot
position: [4.9327881967219665e-09, -5.2765206878428795e-12, -1.0296321500845501e-07, -1.1507239417466928e-07, 8.392744590656124e-11, 5.990117398001817e-08, 0.1, 0.1]
velocity: [9.941057657896881e-06, 6.696179760896261e-06, -3.411496007028007e-05, -1.7862616341919653e-05, -3.6612425556702176e-05, 3.192837376403254e-05, 0.0, 0.0]
effort: [0.36208500000000005, -22.705, -20.0152, -0.36658285714285715, -0.9072000000000001, 0.272, 0.0, 0.0]
---
header: 
  seq: 285810
  stamp: 
    secs: 1737603597
    nsecs:  56938194
  frame_id: ''
name: 
  - joint_1
  - joint_2
  - joint_3
  - joint_4
  - joint_5
  - joint_6
  - tcp_lin
  - tcp_rot
position: [-1.3296993634053207e-08, -2.8034921013145373e-08, 4.7246141063635276e-08, 5.7009316954223126e-08, -7.743518181711944e-08, -1.120021622980191e-07, 0.1, 0.1]
velocity: [5.534955804025748e-07, -9.934890739058798e-06, 1.1660589676671965e-05, 1.545061301273099e-05, -1.686522849980239e-05, -3.6033791888979505e-05, 0.0, 0.0]
effort: [-1.0862550000000002, -22.227, -20.32, 0.5665371428571429, -0.9072000000000001, 0.24, 0.0, 0.0]
---
header: 
  seq: 285811
  stamp: 
    secs: 1737603597
    nsecs:  77000235
  frame_id: ''
name: 
  - joint_1
  - joint_2
  - joint_3
  - joint_4
  - joint_5
  - joint_6
  - tcp_lin
  - tcp_rot
position: [-1.5073351281434927e-08, 3.9125534972221405e-10, 8.577666386868796e-08, -1.7406312945194553e-07, 5.562223694550163e-07, -1.1848144088226402e-07, 0.1, 0.1]
velocity: [-5.606302397991056e-06, 7.020483390767224e-06, 2.371093797014975e-05, -2.996046595529719e-05, 0.00013856372707235525, -1.930524418706097e-05, 0.0, 0.0]
effort: [-1.8104250000000002, -22.465999999999998, -19.811999999999998, -0.13330285714285714, -0.8812800000000001, 0.272, 0.0, 0.0]
---
header: 
  seq: 285812
  stamp: 
    secs: 1737603597
    nsecs:  96800048
  frame_id: ''
name: 
  - joint_1
  - joint_2
  - joint_3
  - joint_4
  - joint_5
  - joint_6
  - tcp_lin
  - tcp_rot
position: [4.382626172198107e-08, -6.788430835568044e-10, -6.418208638552578e-08, -2.3631835018383096e-09, -3.79067500099232e-08, -1.3129082158031007e-09, 0.1, 0.1]
velocity: [1.2279804185942509e-05, 2.21364258884833e-06, -1.9522500176191914e-05, 1.850898346527668e-05, -3.542529430418838e-05, 6.909976287566419e-06, 0.0, 0.0]
effort: [-0.7241700000000001, -22.944, -20.0152, -0.23328, -0.9072000000000001, 0.28800000000000003, 0.0, 0.0]
---
header: 
  seq: 285813
  stamp: 
    secs: 1737603597
    nsecs: 116795711
  frame_id: ''
name: 
  - joint_1
  - joint_2
  - joint_3
  - joint_4
  - joint_5
  - joint_6
  - tcp_lin
  - tcp_rot
position: [4.952259598027122e-09, -2.997424020550708e-08, -1.0297884557021917e-07, 2.0134873579817972e-07, -3.7025054074776346e-08, -1.7967735093430095e-07, 0.1, 0.1]
velocity: [-7.726651652396307e-07, -4.191239144908453e-06, -2.5280202002862342e-05, 2.1299223358792196e-05, 1.2878651625239249e-05, -7.608571222159769e-05, 0.0, 0.0]
effort: [0.0, -22.465999999999998, -20.0152, -0.09997714285714285, -0.8553600000000001, 0.256, 0.0, 0.0]
---
header: 
  seq: 285814
  stamp: 
    secs: 1737603597
    nsecs: 136794361
  frame_id: ''
name: 
  - joint_1
  - joint_2
  - joint_3
  - joint_4
  - joint_5
  - joint_6
  - tcp_lin
  - tcp_rot
position: [-7.418539451096258e-08, -2.9953919175105e-08, 4.6807838021707925e-08, 1.4394957281129435e-07, -3.7594735461014654e-08, 6.02092843111254e-08, 0.1, 0.1]
velocity: [-2.107080812252538e-05, -4.790439760543625e-06, 3.981953721644588e-06, 3.851863332186083e-05, -4.299139011207159e-05, 3.153933458276363e-05, 0.0, 0.0]
effort: [-0.36208500000000005, -22.465999999999998, -20.116799999999998, -0.2666057142857143, -0.80352, 0.272, 0.0, 0.0]
---
header: 
  seq: 285815
  stamp: 
    secs: 1737603597
    nsecs: 157009738
  frame_id: ''
name: 
  - joint_1
  - joint_2
  - joint_3
  - joint_4
  - joint_5
  - joint_6
  - tcp_lin
  - tcp_rot
position: [-1.451026249158203e-08, -2.9913726949361e-08, -1.3870602198148267e-07, 1.1471059743683438e-07, -3.361866030817724e-07, 2.441429452758317e-07, 0.1, 0.1]
velocity: [3.904777528876196e-06, -3.267229349841921e-06, -2.0121386252492433e-05, -9.197063857641343e-06, -7.976806127326797e-05, 6.223025324944577e-05, 0.0, 0.0]
effort: [-1.8104250000000002, -22.465999999999998, -19.811999999999998, -0.033325714285714285, -0.8812800000000001, 0.256, 0.0, 0.0]
---
header: 
  seq: 285816
  stamp: 
    secs: 1737603597
    nsecs: 176792460
  frame_id: ''
name: 
  - joint_1
  - joint_2
  - joint_3
  - joint_4
  - joint_5
  - joint_6
  - tcp_lin
  - tcp_rot
position: [4.943817211297652e-09, -4.626393344331811e-12, 9.369185042142151e-09, 5.752808999399549e-08, 4.808158439219728e-07, -2.566673234201517e-13, 0.1, 0.1]
velocity: [-9.09569645022349e-07, 5.1700309747013284e-06, -2.5793465856511717e-06, -2.1297562758767296e-05, 0.00012080231277562734, -1.3645426382977504e-06, 0.0, 0.0]
effort: [-0.36208500000000005, -22.465999999999998, -20.421599999999998, -0.09997714285714285, -0.9331200000000001, 0.24, 0.0, 0.0]
---
header: 
  seq: 285817
  stamp: 
    secs: 1737603597
    nsecs: 196793496
  frame_id: ''
name: 
  - joint_1
  - joint_2
  - joint_3
  - joint_4
  - joint_5
  - joint_6
  - tcp_lin
  - tcp_rot
position: [-1.480076273433268e-08, -6.006680461335114e-08, -2.7996390639903024e-08, -1.1515089637490551e-07, -4.439652807248187e-07, 1.801593018843172e-07, 0.1, 0.1]
velocity: [4.354653678412701e-06, -1.7793522912766938e-05, -7.893241087845963e-06, -1.9899166740044955e-05, -0.0001330777173141831, 4.387096035276294e-05, 0.0, 0.0]
effort: [-0.36208500000000005, -22.465999999999998, -20.32, 0.09997714285714285, -0.9072000000000001, 0.28800000000000003, 0.0, 0.0]
---
header: 
  seq: 285818
  stamp: 
    secs: 1737603597
    nsecs: 216974749
  frame_id: ''
name: 
  - joint_1
  - joint_2
  - joint_3
  - joint_4
  - joint_5
  - joint_6
  - tcp_lin
  - tcp_rot
position: [2.455067094918801e-08, -2.988842921569202e-08, 4.6711305081688964e-08, -2.8305500805182467e-08, -7.282868797878741e-08, -1.8111917515627133e-07, 0.1, 0.1]
velocity: [2.300244940313662e-06, -9.360173627022128e-06, 1.2805705945728175e-05, -2.222869400466905e-06, -6.980124618924112e-07, -6.309262239084539e-05, 0.0, 0.0]
effort: [0.36208500000000005, -22.705, -20.116799999999998, -0.06665142857142857, -0.8553600000000001, 0.256, 0.0, 0.0]
---
header: 
  seq: 285819
  stamp: 
    secs: 1737603597
    nsecs: 236792417
  frame_id: ''
name: 
  - joint_1
  - joint_2
  - joint_3
  - joint_4
  - joint_5
  - joint_6
  - tcp_lin
  - tcp_rot
position: [-3.458302602814036e-08, -2.993200314763342e-08, 8.491350714007998e-08, 5.7275351060740155e-08, -1.4947642201284613e-07, -1.8060444041535203e-07, 0.1, 0.1]
velocity: [-7.376030782633302e-06, -8.480211929457927e-06, 3.1590692444154296e-05, -8.387338440337509e-06, -6.499371573784958e-05, -4.946257366160825e-05, 0.0, 0.0]
effort: [-0.36208500000000005, -22.465999999999998, -20.116799999999998, 0.0, -0.9331200000000001, 0.272, 0.0, 0.0]
---
header: 
  seq: 285820
  stamp: 
    secs: 1737603597
    nsecs: 256794302
  frame_id: ''
name: 
  - joint_1
  - joint_2
  - joint_3
  - joint_4
  - joint_5
  - joint_6
  - tcp_lin
  - tcp_rot
position: [-1.4835907245449093e-08, -9.282373472697569e-13, -1.0303209677513869e-07, 5.7543087243864596e-08, -2.959036644516136e-07, 5.986965541189046e-08, 0.1, 0.1]
velocity: [-5.817590450626252e-06, 3.279833371604739e-06, -3.6320814147355704e-05, 8.749319941104001e-06, -4.807553581484394e-05, 2.2789520276160304e-06, 0.0, 0.0]
effort: [-1.4483400000000002, -22.465999999999998, -20.0152, 0.0, -0.9072000000000001, 0.24, 0.0, 0.0]
---
header: 
  seq: 285821
  stamp: 
    secs: 1737603597
    nsecs: 276795271
  frame_id: ''
name: 
  - joint_1
  - joint_2
  - joint_3
  - joint_4
  - joint_5
  - joint_6
  - tcp_lin
  - tcp_rot
position: [2.4719816128007202e-08, 8.987799869717944e-08, -6.553914974717807e-08, -1.15072103587447e-07, 6.287875256769857e-07, 2.9956037496247655e-07, 0.1, 0.1]
velocity: [-1.2197015857361846e-06, 2.2021769652787576e-05, -4.330322405549969e-06, -2.9222212671802185e-05, 0.00018471002296023385, 7.42783389139253e-05, 0.0, 0.0]
effort: [-1.0862550000000002, -23.422, -20.2184, -0.23328, -0.8553600000000001, 0.24, 0.0, 0.0]
---
header: 
  seq: 285822
  stamp: 
    secs: 1737603597
    nsecs: 296792606
  frame_id: ''
name: 
  - joint_1
  - joint_2
  - joint_3
  - joint_4
  - joint_5
  - joint_6
  - tcp_lin
  - tcp_rot
position: [2.4714014803318718e-08, -2.9978991312591236e-08, -1.0298963547384542e-07, -1.1913118166491777e-11, 2.3478444854159793e-11, 1.199098936300003e-07, 0.1, 0.1]
velocity: [-1.939855475422082e-06, -4.440173777853437e-06, -3.6803507323474815e-05, 7.1128779872686755e-06, -3.3641729674871345e-05, 3.5968456973880135e-05, 0.0, 0.0]
effort: [-0.36208500000000005, -22.705, -20.116799999999998, -0.09997714285714285, -0.8553600000000001, 0.28800000000000003, 0.0, 0.0]
---
header: 
  seq: 285823
  stamp: 
    secs: 1737603597
    nsecs: 316811034
  frame_id: ''
name: 
  - joint_1
  - joint_2
  - joint_3
  - joint_4
  - joint_5
  - joint_6
  - tcp_lin
  - tcp_rot
position: [6.420335803248695e-08, -3.011176670739624e-08, 4.680587203957416e-08, -1.4398299080711746e-07, -3.6841829909579245e-08, 6.000817903856941e-08, 0.1, 0.1]
velocity: [4.931573711959715e-06, -5.639570571508675e-06, 2.704363795873723e-06, -3.613123490552344e-05, 2.1240475654069974e-05, 2.7965630576227516e-05, 0.0, 0.0]
effort: [-1.0862550000000002, -22.465999999999998, -20.2184, -0.09997714285714285, -0.9590400000000001, 0.256, 0.0, 0.0]
---
header: 
  seq: 285824
  stamp: 
    secs: 1737603597
    nsecs: 336794419
  frame_id: ''
name: 
  - joint_1
  - joint_2
  - joint_3
  - joint_4
  - joint_5
  - joint_6
  - tcp_lin
  - tcp_rot
position: [4.936891704347549e-09, -5.991828204428763e-08, 1.2170618340723186e-07, -2.875448280700002e-08, -3.6902865728699516e-08, -1.7966366149370004e-07, 0.1, 0.1]
velocity: [6.2884687832036055e-06, -1.662859669797014e-05, 3.4560009489335446e-05, -1.959366007057595e-05, -4.313051303434686e-05, -7.18167968042634e-05, 0.0, 0.0]
effort: [0.36208500000000005, -22.465999999999998, -20.0152, 0.033325714285714285, -0.8553600000000001, 0.24, 0.0, 0.0]
---
header: 
  seq: 285825
  stamp: 
    secs: 1737603597
    nsecs: 356791870
  frame_id: ''
name: 
  - joint_1
  - joint_2
  - joint_3
  - joint_4
  - joint_5
  - joint_6
  - tcp_lin
  - tcp_rot
position: [2.471834997466374e-08, 2.99571336691915e-08, -6.55399165988857e-08, -2.589211530371694e-07, -3.69845144820811e-08, 5.991547291424926e-08, 0.1, 0.1]
velocity: [9.961122363684528e-06, 8.683096632607679e-06, -7.362604655710589e-06, -4.557660713230859e-05, -1.3173979076411959e-05, 2.4894604352024147e-05, 0.0, 0.0]
effort: [-1.0862550000000002, -21.749, -19.9136, 0.033325714285714285, -0.8294400000000001, 0.272, 0.0, 0.0]
---
header: 
  seq: 285826
  stamp: 
    secs: 1737603597
    nsecs: 377069690
  frame_id: ''
name: 
  - joint_1
  - joint_2
  - joint_3
  - joint_4
  - joint_5
  - joint_6
  - tcp_lin
  - tcp_rot
position: [5.7429722044696654e-09, -2.972570321013387e-08, -1.4672926733528717e-07, 2.7119543156118287e-08, 5.271405768803519e-07, -1.737409963679446e-07, 0.1, 0.1]
velocity: [1.1717985335863467e-06, -5.374191042894645e-06, -3.868538951926942e-05, 9.22938753214711e-06, 0.00014567051268913998, -1.9483726809770466e-05, 0.0, 0.0]
effort: [-0.7241700000000001, -21.509999999999998, -20.0152, -0.06665142857142857, -0.8812800000000001, 0.28800000000000003, 0.0, 0.0]
---
header: 
  seq: 285827
  stamp: 
    secs: 1737603597
    nsecs: 396792710
  frame_id: ''
name: 
  - joint_1
  - joint_2
  - joint_3
  - joint_4
  - joint_5
  - joint_6
  - tcp_lin
  - tcp_rot
position: [4.4645044262008607e-08, -3.002583934059042e-08, 9.230704784975353e-09, 8.626697067162477e-08, -3.329526429272179e-07, -1.5251601640610772e-10, 0.1, 0.1]
velocity: [1.3242264234765456e-05, -9.785867098761152e-06, 3.3075753390952005e-06, 1.2066132415076207e-05, -9.303106957521031e-05, -1.2797056926087585e-05, 0.0, 0.0]
effort: [0.36208500000000005, -21.988, -20.32, -0.33325714285714286, -0.8812800000000001, 0.24, 0.0, 0.0]
---
header: 
  seq: 285828
  stamp: 
    secs: 1737603597
    nsecs: 416791801
  frame_id: ''
name: 
  - joint_1
  - joint_2
  - joint_3
  - joint_4
  - joint_5
  - joint_6
  - tcp_lin
  - tcp_rot
position: [4.951460594683515e-09, -2.996119824818419e-08, 8.425570983719449e-08, 1.4382075270753832e-07, 1.4786666452572705e-07, -5.99014082344301e-08, 0.1, 0.1]
velocity: [-1.5201885547310225e-06, -1.5406205832628266e-06, 1.696613453578612e-05, 3.0533923693811144e-05, 4.6971538580018394e-05, -1.1738846808709419e-05, 0.0, 0.0]
effort: [-1.0862550000000002, -23.183, -19.9136, -0.13330285714285714, -0.8553600000000001, 0.304, 0.0, 0.0]
---
header: 
  seq: 285829
  stamp: 
    secs: 1737603597
    nsecs: 436807425
  frame_id: ''
name: 
  - joint_1
  - joint_2
  - joint_3
  - joint_4
  - joint_5
  - joint_6
  - tcp_lin
  - tcp_rot
position: [4.934682261732958e-09, -5.991887050752555e-08, 9.377565441655476e-09, 4.56537354826896e-12, -3.689176648100387e-08, 2.39644403946332e-07, 0.1, 0.1]
velocity: [1.406333315792874e-06, -2.0752987559945198e-05, -1.3894241903885855e-05, -1.005677741676604e-05, -4.802509685911569e-05, 7.536162256724548e-05, 0.0, 0.0]
effort: [0.0, -22.465999999999998, -19.9136, 0.0, -0.8553600000000001, 0.272, 0.0, 0.0]
---
header: 
  seq: 285830
  stamp: 
    secs: 1737603597
    nsecs: 456791992
  frame_id: ''
name: 
  - joint_1
  - joint_2
  - joint_3
  - joint_4
  - joint_5
  - joint_6
  - tcp_lin
  - tcp_rot
position: [-5.4365806441443214e-08, 2.993972019058423e-08, -1.404383968163517e-07, -1.1502453683715204e-07, -2.9594240826923905e-07, -4.411403805958604e-11, 0.1, 0.1]
velocity: [-1.6070739682461972e-05, 9.968951586072743e-06, -3.3291678546495735e-05, -2.324021515141873e-05, -4.8363106121975056e-05, 1.4121637451796574e-05, 0.0, 0.0]
effort: [0.0, -21.988, -20.2184, 0.033325714285714285, -0.9072000000000001, 0.24, 0.0, 0.0]
---
header: 
  seq: 285831
  stamp: 
    secs: 1737603597
    nsecs: 476796382
  frame_id: ''
name: 
  - joint_1
  - joint_2
  - joint_3
  - joint_4
  - joint_5
  - joint_6
  - tcp_lin
  - tcp_rot
position: [-1.4362820078201701e-08, 2.7955724231195307e-08, 2.3200627906288312e-07, -8.269142138977815e-08, 3.2722640369833004e-07, -2.0831453169366897e-09, 0.1, 0.1]
velocity: [-8.225789514388562e-06, 7.4238033468204726e-06, 6.220880337787048e-05, -2.0475916478424272e-05, 7.754478594380342e-05, 8.273563748352596e-06, 0.0, 0.0]
effort: [0.0, -22.227, -20.116799999999998, -0.06665142857142857, -0.8553600000000001, 0.24, 0.0, 0.0]
---
header: 
  seq: 285832
  stamp: 
    secs: 1737603597
    nsecs: 496798356
  frame_id: ''
name: 
  - joint_1
  - joint_2
  - joint_3
  - joint_4
  - joint_5
  - joint_6
  - tcp_lin
  - tcp_rot
position: [4.458305325484973e-08, -2.9928680564200705e-08, 1.2236310201290123e-07, 1.1527387935277152e-07, -2.957857480894495e-07, 2.40363377688087e-07, 0.1, 0.1]
velocity: [9.70807936650708e-06, -1.0792069451109083e-05, 4.029345927511441e-05, 1.8214108563091987e-05, -7.806818485184871e-05, 6.723697890338117e-05, 0.0, 0.0]
effort: [0.36208500000000005, -22.227, -20.32, -0.13330285714285714, -0.9331200000000001, 0.272, 0.0, 0.0]
---
header: 
  seq: 285833
  stamp: 
    secs: 1737603597
    nsecs: 516792101
  frame_id: ''
name: 
  - joint_1
  - joint_2
  - joint_3
  - joint_4
  - joint_5
  - joint_6
  - tcp_lin
  - tcp_rot
position: [4.945869720577047e-09, 8.987175413719135e-08, -6.553400214444513e-08, 1.1507716122952943e-07, -3.701269396232558e-08, -5.990051446676607e-08, 0.1, 0.1]
velocity: [-1.4403010070530644e-06, 2.308394605913285e-05, -2.8854772132892043e-05, 2.240158426997654e-05, 2.179823662865425e-05, -3.889704582839378e-05, 0.0, 0.0]
effort: [-1.4483400000000002, -23.183, -20.0152, 0.0, -0.8553600000000001, 0.304, 0.0, 0.0]
---
header: 
  seq: 285834
  stamp: 
    secs: 1737603597
    nsecs: 536901237
  frame_id: ''
name: 
  - joint_1
  - joint_2
  - joint_3
  - joint_4
  - joint_5
  - joint_6
  - tcp_lin
  - tcp_rot
position: [5.007113459775366e-09, -5.979300039143781e-08, 1.590477206044917e-07, -1.4812526135856636e-10, -1.1058176591823189e-07, -1.1966420006472045e-07, 0.1, 0.1]
velocity: [-4.33981421860507e-06, -1.872795775376889e-05, 4.7313952227083905e-05, 3.91466570913335e-06, -4.6589227843288274e-05, -2.0975280881966786e-05, 0.0, 0.0]
effort: [-0.7241700000000001, -23.183, -19.7104, -0.9997714285714285, -0.8812800000000001, 0.28800000000000003, 0.0, 0.0]
---
header: 
  seq: 285835
  stamp: 
    secs: 1737603597
    nsecs: 556792092
  frame_id: ''
name: 
  - joint_1
  - joint_2
  - joint_3
  - joint_4
  - joint_5
  - joint_6
  - tcp_lin
  - tcp_rot
position: [2.471907212991816e-08, 9.41277230806718e-12, -2.809076937266137e-08, 5.7540261300704404e-08, -3.698956910820102e-08, 2.396592568804385e-07, 0.1, 0.1]
velocity: [9.506443858026539e-06, -7.784443470240058e-06, 4.812772134183418e-06, 4.925464277437343e-06, -1.451975670551263e-05, 5.8887366000187474e-05, 0.0, 0.0]
effort: [-0.36208500000000005, -21.509999999999998, -20.116799999999998, 0.93312, -0.8294400000000001, 0.24, 0.0, 0.0]
---
header: 
  seq: 285836
  stamp: 
    secs: 1737603597
    nsecs: 576792081
  frame_id: ''
name: 
  - joint_1
  - joint_2
  - joint_3
  - joint_4
  - joint_5
  - joint_6
  - tcp_lin
  - tcp_rot
position: [-3.460593294311232e-08, 2.995336534273309e-08, -1.0297214952602045e-07, 5.753385625914192e-08, 4.438477614738119e-07, 1.7969407390811794e-07, 0.1, 0.1]
velocity: [-6.311873770637385e-06, 1.0837859978132532e-05, -3.195290904284872e-05, 4.392943293524261e-06, 0.00010020514784743652, 6.673890832681246e-05, 0.0, 0.0]
effort: [-0.7241700000000001, -22.705, -20.116799999999998, -0.2666057142857143, -0.8812800000000001, 0.28800000000000003, 0.0, 0.0]
---
header: 
  seq: 285837
  stamp: 
    secs: 1737603597
    nsecs: 596798504
  frame_id: ''
name: 
  - joint_1
  - joint_2
  - joint_3
  - joint_4
  - joint_5
  - joint_6
  - tcp_lin
  - tcp_rot
position: [-5.448379934000048e-08, 2.555166727506876e-10, -6.487663519648918e-08, 5.810754579629039e-08, -2.2196374102713187e-07, 5.993649064403522e-08, 0.1, 0.1]
velocity: [-7.589052397139821e-06, -1.0660396997682984e-06, -5.477986391997489e-06, 1.6962973265889517e-05, -6.944623583174888e-05, -1.8584237393276782e-06, 0.0, 0.0]
effort: [-0.36208500000000005, -23.183, -19.811999999999998, 0.13330285714285714, -0.9072000000000001, 0.224, 0.0, 0.0]
---
header: 
  seq: 285838
  stamp: 
    secs: 1737603597
    nsecs: 616792373
  frame_id: ''
name: 
  - joint_1
  - joint_2
  - joint_3
  - joint_4
  - joint_5
  - joint_6
  - tcp_lin
  - tcp_rot
position: [-3.460404765189886e-08, -2.996183210762535e-08, 4.6809191396074205e-08, -5.7542112046392765e-08, -1.849577748500381e-07, -5.989653233435558e-08, 0.1, 0.1]
velocity: [-6.275827076238903e-06, -1.0960742579712595e-05, 1.3622269386457724e-06, 1.7201214952306697e-05, -2.7320571850956022e-05, -2.7598614390311673e-05, 0.0, 0.0]
effort: [-1.0862550000000002, -22.705, -20.0152, -0.23328, -0.8553600000000001, 0.272, 0.0, 0.0]
---
header: 
  seq: 285839
  stamp: 
    secs: 1737603597
    nsecs: 636801617
  frame_id: ''
name: 
  - joint_1
  - joint_2
  - joint_3
  - joint_4
  - joint_5
  - joint_6
  - tcp_lin
  - tcp_rot
position: [-5.430444295979357e-08, -3.003576095893122e-08, 2.3334278755942706e-07, 5.8188981600372655e-08, 1.1191872994867651e-07, 3.9605535866821356e-10, 0.1, 0.1]
velocity: [-9.482272962402332e-06, -1.0445311885392257e-05, 5.836396218395381e-05, -2.7084702465711732e-06, 1.0475079707257773e-05, -9.358378327191899e-06, 0.0, 0.0]
effort: [-0.36208500000000005, -22.705, -20.421599999999998, -0.13330285714285714, -0.8812800000000001, 0.28800000000000003, 0.0, 0.0]
---
header: 
  seq: 285840
  stamp: 
    secs: 1737603597
    nsecs: 656791935
  frame_id: ''
name: 
  - joint_1
  - joint_2
  - joint_3
  - joint_4
  - joint_5
  - joint_6
  - tcp_lin
  - tcp_rot
position: [2.4721258725471232e-08, 2.995300696042138e-08, 9.325317928707064e-09, -1.1505257831481988e-07, -1.4794635444708758e-07, 2.3962312493418525e-07, 0.1, 0.1]
velocity: [3.850651808479363e-06, 7.993377715638555e-06, 3.7296902867358706e-06, -2.151931335906287e-05, -1.6491948954914094e-05, 6.121887705392312e-05, 0.0, 0.0]
effort: [-0.7241700000000001, -22.944, -20.2184, -0.16662857142857143, -0.8812800000000001, 0.224, 0.0, 0.0]
---
header: 
  seq: 285841
  stamp: 
    secs: 1737603597
    nsecs: 676791780
  frame_id: ''
name: 
  - joint_1
  - joint_2
  - joint_3
  - joint_4
  - joint_5
  - joint_6
  - tcp_lin
  - tcp_rot
position: [-7.415777207901098e-08, 1.5418328058492269e-13, -2.8084288808584713e-08, -5.754404245055559e-08, 3.6986478893326843e-07, 1.1982172472058824e-07, 0.1, 0.1]
velocity: [-1.946931244663712e-05, 1.5226321747147267e-06, -5.490899339469127e-07, -7.712795843084725e-06, 0.0001114584230425536, 3.707048498961235e-05, 0.0, 0.0]
effort: [-0.36208500000000005, -22.705, -19.811999999999998, -0.13330285714285714, -0.8294400000000001, 0.256, 0.0, 0.0]
---
header: 
  seq: 285842
  stamp: 
    secs: 1737603597
    nsecs: 696965027
  frame_id: ''
name: 
  - joint_1
  - joint_2
  - joint_3
  - joint_4
  - joint_5
  - joint_6
  - tcp_lin
  - tcp_rot
position: [3.585773198990711e-09, -2.8197183928353457e-08, 9.651311312542445e-09, -6.003227958497528e-08, -1.0533908570694577e-07, -1.7752925826034538e-07, 0.1, 0.1]
velocity: [4.5949654353904256e-06, -2.9261074345535618e-06, -5.456800307856181e-06, -9.7468795023988e-06, -2.9367713865782363e-05, -3.4573799362532244e-05, 0.0, 0.0]
effort: [-0.36208500000000005, -22.705, -20.32, 0.0, -0.9072000000000001, 0.24, 0.0, 0.0]
---
header: 
  seq: 285843
  stamp: 
    secs: 1737603597
    nsecs: 716796721
  frame_id: ''
name: 
  - joint_1
  - joint_2
  - joint_3
  - joint_4
  - joint_5
  - joint_6
  - tcp_lin
  - tcp_rot
position: [-1.4832257064404173e-08, -2.995555358202533e-08, 9.367431219968559e-09, 5.7540019363148866e-08, 3.709192762562282e-08, -5.994640922865587e-08, 0.1, 0.1]
velocity: [4.104482703862503e-07, -6.963879453893357e-06, -6.610026698381224e-06, -3.596353699029125e-06, 4.084581163582522e-05, -2.4735596337525445e-05, 0.0, 0.0]
effort: [-1.8104250000000002, -23.183, -20.116799999999998, -0.23328, -0.8294400000000001, 0.256, 0.0, 0.0]
---
header: 
  seq: 285844
  stamp: 
    secs: 1737603597
    nsecs: 736792428
  frame_id: ''
name: 
  - joint_1
  - joint_2
  - joint_3
  - joint_4
  - joint_5
  - joint_6
  - tcp_lin
  - tcp_rot
position: [-3.4608823868921895e-08, -2.995758431246593e-08, 9.364117674325783e-09, 1.4839912321547462e-11, -3.6941280657651306e-08, 1.1985447343465552e-07, 0.1, 0.1]
velocity: [-6.237472819495862e-06, -9.67978001409516e-06, 9.814769786373865e-06, -1.383979413465058e-05, -4.915161003176591e-05, 2.370916589345663e-05, 0.0, 0.0]
effort: [-1.8104250000000002, -22.227, -20.2184, -0.09997714285714285, -0.9072000000000001, 0.24, 0.0, 0.0]
---
header: 
  seq: 285845
  stamp: 
    secs: 1737603597
    nsecs: 756797714
  frame_id: ''
name: 
  - joint_1
  - joint_2
  - joint_3
  - joint_4
  - joint_5
  - joint_6
  - tcp_lin
  - tcp_rot
position: [-3.4606602469292965e-08, 2.9954689632985964e-08, 9.350915934051552e-09, -8.628920538980794e-08, -3.698731020899863e-08, 3.595162457677296e-07, 0.1, 0.1]
velocity: [-8.396633542139942e-06, 8.68043335817852e-06, 9.77860342474069e-06, -2.482446108437169e-05, 9.149057993410638e-06, 8.81941783839415e-05, 0.0, 0.0]
effort: [-0.36208500000000005, -23.422, -20.32, 0.2666057142857143, -0.8553600000000001, 0.272, 0.0, 0.0]
---
header: 
  seq: 285846
  stamp: 
    secs: 1737603597
    nsecs: 776792473
  frame_id: ''
name: 
  - joint_1
  - joint_2
  - joint_3
  - joint_4
  - joint_5
  - joint_6
  - tcp_lin
  - tcp_rot
position: [4.9385485696989486e-09, 2.9946476783974344e-08, 9.383031241515383e-09, 8.62932845531649e-08, 4.4381932211399464e-07, 5.986403892093106e-08, 0.1, 0.1]
velocity: [-3.182726736831459e-07, 7.869081179260158e-06, 3.04348265820624e-07, 9.99424934556926e-06, 0.00010792220526004137, 2.8732827072698423e-05, 0.0, 0.0]
effort: [-0.36208500000000005, -22.705, -20.116799999999998, -0.1999542857142857, -0.9849600000000001, 0.304, 0.0, 0.0]
---
header: 
  seq: 285847
  stamp: 
    secs: 1737603597
    nsecs: 796797282
  frame_id: ''
name: 
  - joint_1
  - joint_2
  - joint_3
  - joint_4
  - joint_5
  - joint_6
  - tcp_lin
  - tcp_rot
position: [4.603092121538924e-09, -2.701608245919713e-08, -1.0346183981196815e-07, -2.8098810643608672e-08, -2.6018324160609977e-07, -6.16217299025126e-08, 0.1, 0.1]
velocity: [7.347364461201275e-06, -1.2075082775035526e-05, -1.768596689488068e-05, -4.229978754850623e-06, -8.463750493610054e-05, -2.496790733770909e-06, 0.0, 0.0]
effort: [-0.36208500000000005, -22.705, -19.9136, -0.1999542857142857, -0.8812800000000001, 0.28800000000000003, 0.0, 0.0]
---
header: 
  seq: 285848
  stamp: 
    secs: 1737603597
    nsecs: 816792557
  frame_id: ''
name: 
  - joint_1
  - joint_2
  - joint_3
  - joint_4
  - joint_5
  - joint_6
  - tcp_lin
  - tcp_rot
position: [2.4719222839411698e-08, -1.7015638252607865e-12, -6.553942851838368e-08, -8.630822389009742e-08, 3.697387831537925e-08, 6.393325288659813e-12, 0.1, 0.1]
velocity: [7.915199362586967e-06, 1.599002568499183e-06, -1.167150251068313e-05, -5.773963199020028e-06, 5.470621429189262e-05, -1.3274363390037525e-05, 0.0, 0.0]
effort: [-1.0862550000000002, -22.465999999999998, -20.0152, 0.033325714285714285, -0.8294400000000001, 0.24, 0.0, 0.0]
---
header: 
  seq: 285849
  stamp: 
    secs: 1737603597
    nsecs: 836792073
  frame_id: ''
name: 
  - joint_1
  - joint_2
  - joint_3
  - joint_4
  - joint_5
  - joint_6
  - tcp_lin
  - tcp_rot
position: [2.472184594634109e-08, 2.999769546889901e-08, 1.2174512088334866e-07, -6.826183733877908e-11, -7.41461817922327e-08, -2.997964420723565e-07, 0.1, 0.1]
velocity: [-2.7970243532406135e-06, 5.644167396065648e-06, 3.056216987405425e-05, -1.5305634694782157e-05, -4.821218349031093e-05, -8.061065273659801e-05, 0.0, 0.0]
effort: [-1.4483400000000002, -22.944, -20.2184, -0.1999542857142857, -0.9072000000000001, 0.224, 0.0, 0.0]
---
header: 
  seq: 285850
  stamp: 
    secs: 1737603597
    nsecs: 856968787
  frame_id: ''
name: 
  - joint_1
  - joint_2
  - joint_3
  - joint_4
  - joint_5
  - joint_6
  - tcp_lin
  - tcp_rot
position: [5.022002212878198e-09, -2.9642950464084783e-08, 9.498972033853964e-09, 1.201182582685145e-09, -1.0839776527886724e-07, 6.363423967965296e-08, 0.1, 0.1]
velocity: [3.6625910956617283e-06, -9.608525520677686e-06, 6.158501761988508e-06, -1.0298599040868985e-05, -3.005752049620341e-05, -3.906735889724699e-07, 0.0, 0.0]
effort: [-1.4483400000000002, -22.465999999999998, -20.0152, -0.2666057142857143, -0.8553600000000001, 0.304, 0.0, 0.0]
---
header: 
  seq: 285851
  stamp: 
    secs: 1737603597
    nsecs: 876791689
  frame_id: ''
name: 
  - joint_1
  - joint_2
  - joint_3
  - joint_4
  - joint_5
  - joint_6
  - tcp_lin
  - tcp_rot
position: [-1.4832096639068306e-08, -8.98692802682808e-08, 4.68044832819123e-08, -1.1509163125903174e-07, 4.438694754851731e-07, -9.588387229353646e-11, 0.1, 0.1]
velocity: [-4.051798306581296e-07, -2.2699245614818686e-05, 1.0759219217384469e-05, -2.155447681510426e-05, 0.00010187880540996844, 1.1902726175491859e-05, 0.0, 0.0]
effort: [0.0, -22.465999999999998, -19.811999999999998, 0.13330285714285714, -0.8553600000000001, 0.24, 0.0, 0.0]
---
header: 
  seq: 285852
  stamp: 
    secs: 1737603597
    nsecs: 896794470
  frame_id: ''
name: 
  - joint_1
  - joint_2
  - joint_3
  - joint_4
  - joint_5
  - joint_6
  - tcp_lin
  - tcp_rot
position: [2.4312986455825992e-08, 9.023722558135325e-08, 8.445961947561433e-08, 8.68356248427007e-10, 1.4882477734082911e-07, 6.03255290735587e-08, 0.1, 0.1]
velocity: [5.575168053311591e-06, 2.0410294645721873e-05, 1.565375384749458e-05, 1.861426960931809e-05, 1.4151138317010623e-05, 1.5093551832978228e-05, 0.0, 0.0]
effort: [0.0, -22.227, -20.116799999999998, 0.0, -0.9072000000000001, 0.224, 0.0, 0.0]
---
header: 
  seq: 285853
  stamp: 
    secs: 1737603597
    nsecs: 916792978
  frame_id: ''
name: 
  - joint_1
  - joint_2
  - joint_3
  - joint_4
  - joint_5
  - joint_6
  - tcp_lin
  - tcp_rot
position: [2.472049629446839e-08, -2.995849256468345e-08, -1.0298494571572973e-07, 2.876257738311106e-08, 3.6985065279704197e-08, -5.9908050772525e-08, 0.1, 0.1]
velocity: [6.601150168958831e-06, -5.7058507518917085e-06, -2.2344345061278353e-05, 1.4330533860487735e-05, 3.559545046707401e-05, -2.6494243860132643e-05, 0.0, 0.0]
effort: [-0.36208500000000005, -23.183, -20.116799999999998, -0.36658285714285715, -0.9072000000000001, 0.272, 0.0, 0.0]
---
header: 
  seq: 285854
  stamp: 
    secs: 1737603597
    nsecs: 936794005
  frame_id: ''
name: 
  - joint_1
  - joint_2
  - joint_3
  - joint_4
  - joint_5
  - joint_6
  - tcp_lin
  - tcp_rot
position: [6.429615763997694e-08, -2.99992553688032e-08, -2.8113229093522845e-08, -3.2041120304830377e-11, -7.41582772936188e-08, 2.1056805375021834e-11, 0.1, 0.1]
velocity: [1.3245206992469273e-05, -1.5101939914625402e-05, -6.678974333647901e-06, 4.30214783582068e-07, -6.325526892706447e-05, 2.913987661391661e-06, 0.0, 0.0]
effort: [-1.0862550000000002, -22.705, -20.2184, -0.2666057142857143, -0.9072000000000001, 0.272, 0.0, 0.0]
---
header: 
  seq: 285855
  stamp: 
    secs: 1737603597
    nsecs: 956803014
  frame_id: ''
name: 
  - joint_1
  - joint_2
  - joint_3
  - joint_4
  - joint_5
  - joint_6
  - tcp_lin
  - tcp_rot
position: [-3.4072797240381976e-08, 4.516190514857833e-10, -2.733806231996812e-08, 2.9451329263587712e-08, -2.940463082397111e-07, -7.64351671253423e-10, 0.1, 0.1]
velocity: [-3.511553907561932e-06, 5.13112919040468e-07, -2.4636200742928722e-05, -1.1634437873842119e-05, -6.0143810069669286e-05, 8.487754854471592e-06, 0.0, 0.0]
effort: [-1.4483400000000002, -22.227, -20.116799999999998, -0.033325714285714285, -0.8294400000000001, 0.256, 0.0, 0.0]
---
header: 
  seq: 285856
  stamp: 
    secs: 1737603597
    nsecs: 976791701
  frame_id: ''
name: 
  - joint_1
  - joint_2
  - joint_3
  - joint_4
  - joint_5
  - joint_6
  - tcp_lin
  - tcp_rot
position: [-1.4826428834743142e-08, -2.996421466376208e-08, 4.682661524237041e-08, -5.752675711705505e-08, 5.547378614405842e-07, 5.985876811162956e-08, 0.1, 0.1]
velocity: [-1.8893560207028978e-06, -1.1811452224418461e-05, 5.34973145989667e-06, -2.3037448697144242e-05, 0.00016147203349244955, 3.811658608539526e-05, 0.0, 0.0]
effort: [-0.36208500000000005, -22.705, -20.116799999999998, 0.8331428571428571, -0.8553600000000001, 0.28800000000000003, 0.0, 0.0]
---
header: 
  seq: 285857
  stamp: 
    secs: 1737603597
    nsecs: 996796772
  frame_id: ''
name: 
  - joint_1
  - joint_2
  - joint_3
  - joint_4
  - joint_5
  - joint_6
  - tcp_lin
  - tcp_rot
position: [2.4653238032351304e-08, 1.5011241012190577e-07, -1.7808698032491e-07, -1.15084025157375e-07, -3.666524562521697e-08, -1.792038102479273e-11, 0.1, 0.1]
velocity: [4.639027114335309e-06, 3.633817536241938e-05, -4.0432087714128246e-05, -2.5354928396202114e-05, -7.347371805818883e-06, 6.5428057901999535e-06, 0.0, 0.0]
effort: [-1.0862550000000002, -22.705, -20.116799999999998, -0.09997714285714285, -0.8553600000000001, 0.28800000000000003, 0.0, 0.0]
---
header: 
  seq: 285858
  stamp: 
    secs: 1737603598
    nsecs:  16834426
  frame_id: ''
name: 
  - joint_1
  - joint_2
  - joint_3
  - joint_4
  - joint_5
  - joint_6
  - tcp_lin
  - tcp_rot
position: [-1.483680626101113e-08, -2.996861841738604e-08, 8.425128728687746e-08, -2.8836888979895332e-08, -1.482225885811356e-07, -1.796133207755782e-07, 0.1, 0.1]
velocity: [-3.9115881425737246e-06, -6.114504949623218e-06, 2.5873085972224207e-05, -6.220960305391133e-07, -5.670431095369354e-06, -5.171001516291733e-05, 0.0, 0.0]
effort: [-0.7241700000000001, -22.944, -19.9136, 0.033325714285714285, -0.8553600000000001, 0.24, 0.0, 0.0]
---
header: 
  seq: 285859
  stamp: 
    secs: 1737603598
    nsecs:  36791821
  frame_id: ''
name: 
  - joint_1
  - joint_2
  - joint_3
  - joint_4
  - joint_5
  - joint_6
  - tcp_lin
  - tcp_rot
position: [-5.4387084894612346e-08, 2.1248673553476274e-11, 4.6813567298698244e-08, 2.874780335666788e-08, 7.403945704484747e-08, -5.985220431000987e-08, 0.1, 0.1]
velocity: [-1.2489518917125441e-05, -7.74322056947283e-06, 7.246082782272614e-07, 5.4179984504159895e-06, -1.6323162066024378e-05, -3.309878001714919e-05, 0.0, 0.0]
effort: [0.0, -22.705, -20.0152, -0.09997714285714285, -0.8812800000000001, 0.28800000000000003, 0.0, 0.0]
---
header: 
  seq: 285860
  stamp: 
    secs: 1737603598
    nsecs:  56791780
  frame_id: ''
name: 
  - joint_1
  - joint_2
  - joint_3
  - joint_4
  - joint_5
  - joint_6
  - tcp_lin
  - tcp_rot
position: [6.42746210908914e-08, -2.9984104782472684e-08, -2.8100895366491586e-08, 5.7547792016388844e-08, -1.849378110735841e-07, 3.595599949726996e-07, 0.1, 0.1]
velocity: [7.608666054190614e-06, -1.720230389580577e-05, -1.8796481904319605e-05, 1.2365238166313971e-05, -1.7121066740966145e-05, 9.474022685836749e-05, 0.0, 0.0]
effort: [-0.7241700000000001, -22.705, -20.0152, -1.0664228571428571, -0.8553600000000001, 0.24, 0.0, 0.0]
---
header: 
  seq: 285861
  stamp: 
    secs: 1737603598
    nsecs:  76796313
  frame_id: ''
name: 
  - joint_1
  - joint_2
  - joint_3
  - joint_4
  - joint_5
  - joint_6
  - tcp_lin
  - tcp_rot
position: [4.944580827807512e-09, -1.1437886600267854e-11, 9.338287756017758e-09, 5.755369551061442e-08, 5.177917099593897e-07, 1.1970498298029242e-07, 0.1, 0.1]
velocity: [1.5743572786978314e-06, -3.569781799524867e-07, 1.0259797641189956e-05, 1.435737080082426e-05, 0.00013921690600962028, 5.560765378821494e-05, 0.0, 0.0]
effort: [-1.4483400000000002, -22.227, -19.811999999999998, -0.09997714285714285, -0.9072000000000001, 0.256, 0.0, 0.0]
---
header: 
  seq: 285862
  stamp: 
    secs: 1737603598
    nsecs:  96793311
  frame_id: ''
name: 
  - joint_1
  - joint_2
  - joint_3
  - joint_4
  - joint_5
  - joint_6
  - tcp_lin
  - tcp_rot
position: [4.944240777416271e-09, 2.995562291504311e-08, 4.6982254099692825e-08, 2.8865104569608674e-08, -2.2176112959381985e-07, 1.7993250414630917e-07, 0.1, 0.1]
velocity: [-1.949092928525012e-07, 3.897258949032435e-06, 1.6387013756682226e-05, 1.0164226964541848e-05, -5.947673902856064e-05, 4.6140664332173205e-05, 0.0, 0.0]
effort: [-0.36208500000000005, -22.705, -19.9136, -0.06665142857142857, -0.8553600000000001, 0.28800000000000003, 0.0, 0.0]
---
header: 
  seq: 285863
  stamp: 
    secs: 1737603598
    nsecs: 116807100
  frame_id: ''
name: 
  - joint_1
  - joint_2
  - joint_3
  - joint_4
  - joint_5
  - joint_6
  - tcp_lin
  - tcp_rot
position: [4.806242880565004e-09, -3.002323679347382e-08, 1.9726878042824865e-07, 5.732497831047273e-08, -1.846309062047749e-07, -6.667701790716272e-11, 0.1, 0.1]
velocity: [6.237153136205263e-06, -6.157903738671983e-06, 2.7101464549333378e-05, 7.871856870360385e-06, -6.3625894694926976e-06, -6.6420377441809955e-06, 0.0, 0.0]
effort: [-0.36208500000000005, -22.227, -19.9136, 0.5998628571428571, -0.8294400000000001, 0.28800000000000003, 0.0, 0.0]
---
header: 
  seq: 285864
  stamp: 
    secs: 1737603598
    nsecs: 136794177
  frame_id: ''
name: 
  - joint_1
  - joint_2
  - joint_3
  - joint_4
  - joint_5
  - joint_6
  - tcp_lin
  - tcp_rot
position: [-3.461032146784985e-08, -1.0274982535818185e-11, -1.0294026344349698e-07, 5.756061408333294e-08, -1.4783386317347855e-07, 5.99713222666838e-08, 0.1, 0.1]
velocity: [-6.128517589535613e-06, 3.925879783795565e-06, -2.521619561392471e-05, 1.2457909461432764e-06, -6.719954286409381e-05, 7.570451955011932e-06, 0.0, 0.0]
effort: [-1.4483400000000002, -22.705, -20.2184, -0.1999542857142857, -0.8294400000000001, 0.272, 0.0, 0.0]
---
header: 
  seq: 285865
  stamp: 
    secs: 1737603598
    nsecs: 156791816
  frame_id: ''
name: 
  - joint_1
  - joint_2
  - joint_3
  - joint_4
  - joint_5
  - joint_6
  - tcp_lin
  - tcp_rot
position: [-1.4830894237430207e-08, -3.4493042677583487e-12, -1.4043447266576696e-07, -2.8758378592219794e-08, -2.5890044407374665e-07, 9.630403648497868e-13, 0.1, 0.1]
velocity: [-1.2164772257749792e-05, 5.322147111969599e-06, -3.444544118438896e-05, -1.2464217146134298e-05, -5.6314883944664044e-05, 6.878044370229551e-06, 0.0, 0.0]
effort: [-0.7241700000000001, -22.944, -20.116799999999998, -0.16662857142857143, -0.8812800000000001, 0.28800000000000003, 0.0, 0.0]
---
header: 
  seq: 285866
  stamp: 
    secs: 1737603598
    nsecs: 177074707
  frame_id: ''
name: 
  - joint_1
  - joint_2
  - joint_3
  - joint_4
  - joint_5
  - joint_6
  - tcp_lin
  - tcp_rot
position: [-5.5654466152963416e-08, -2.9740292798936095e-08, 8.490131620530834e-08, -2.119116293374895e-09, 5.248269000393988e-07, -6.199827074072442e-08, 0.1, 0.1]
velocity: [-1.1678701385089228e-05, -4.27302677391517e-06, 2.2532384271294537e-05, -1.1455952942361339e-05, 0.00013815904019626751, -1.4480425281500153e-05, 0.0, 0.0]
effort: [0.0, -22.944, -20.116799999999998, -0.7998171428571428, -0.8294400000000001, 0.224, 0.0, 0.0]
---
header: 
  seq: 285867
  stamp: 
    secs: 1737603598
    nsecs: 196792745
  frame_id: ''
name: 
  - joint_1
  - joint_2
  - joint_3
  - joint_4
  - joint_5
  - joint_6
  - tcp_lin
  - tcp_rot
position: [-5.4367248906321044e-08, -1.165434318211207e-12, -2.8096301423916322e-08, 2.8717095819768828e-08, -1.4798480905611745e-07, -7.087030584107745e-11, 0.1, 0.1]
velocity: [-1.411428439581521e-05, -1.7775563097506418e-06, -1.2647154393143387e-05, 7.293178152370866e-06, -4.80899113165812e-05, 1.134726348047361e-05, 0.0, 0.0]
effort: [0.0, -22.465999999999998, -20.0152, -0.16662857142857143, -0.9590400000000001, 0.28800000000000003, 0.0, 0.0]
---
header: 
  seq: 285868
  stamp: 
    secs: 1737603598
    nsecs: 216794440
  frame_id: ''
name: 
  - joint_1
  - joint_2
  - joint_3
  - joint_4
  - joint_5
  - joint_6
  - tcp_lin
  - tcp_rot
position: [2.471782258871368e-08, -2.999371031179245e-08, 4.683493389871541e-08, 2.8766312240620207e-08, -3.677236260861167e-08, 4.863023720355371e-12, 0.1, 0.1]
velocity: [3.010404787115947e-06, -1.266924959322347e-05, 6.721310276725493e-06, 3.4230772581896072e-06, 2.5011371520028983e-05, -6.926897591706737e-06, 0.0, 0.0]
effort: [-0.7241700000000001, -23.422, -20.0152, -0.06665142857142857, -0.9072000000000001, 0.256, 0.0, 0.0]
---
header: 
  seq: 285869
  stamp: 
    secs: 1737603598
    nsecs: 236807801
  frame_id: ''
name: 
  - joint_1
  - joint_2
  - joint_3
  - joint_4
  - joint_5
  - joint_6
  - tcp_lin
  - tcp_rot
position: [4.9479056698803e-09, 2.995859102972981e-08, 1.2170838329025647e-07, 5.7533301499720716e-08, -1.1094253174070909e-07, -1.198331965123249e-07, 0.1, 0.1]
velocity: [-3.713271783806447e-06, 1.1930115197770071e-05, 1.6293008228121097e-05, 1.9764841381915287e-05, -5.315183234753502e-05, -3.704765135527283e-05, 0.0, 0.0]
effort: [-0.7241700000000001, -21.749, -20.2184, -0.13330285714285714, -0.9590400000000001, 0.272, 0.0, 0.0]
---
header: 
  seq: 285870
  stamp: 
    secs: 1737603598
    nsecs: 256791800
  frame_id: ''
name: 
  - joint_1
  - joint_2
  - joint_3
  - joint_4
  - joint_5
  - joint_6
  - tcp_lin
  - tcp_rot
position: [4.946937520687373e-09, 1.2378820186967664e-11, 1.216971770168855e-07, -2.877562701201838e-08, -7.3970755864417e-08, 2.397044842884952e-07, 0.1, 0.1]
velocity: [7.380089571010778e-06, 9.931470648684454e-07, 3.0867118841948395e-05, -1.728850601574109e-05, -2.213037069713436e-05, 4.996227610600792e-05, 0.0, 0.0]
effort: [-0.7241700000000001, -22.705, -20.2184, -0.033325714285714285, -0.8294400000000001, 0.224, 0.0, 0.0]
---
header: 
  seq: 285871
  stamp: 
    secs: 1737603598
    nsecs: 276792457
  frame_id: ''
name: 
  - joint_1
  - joint_2
  - joint_3
  - joint_4
  - joint_5
  - joint_6
  - tcp_lin
  - tcp_rot
position: [-3.459141767504083e-08, -9.190244521885834e-14, 1.5907145836433833e-07, -5.743068932136871e-08, 5.178267104383361e-07, 5.986163043257378e-08, 0.1, 0.1]
velocity: [-7.924771695054846e-06, -6.544259225178088e-08, 4.482877741115041e-05, -2.6502535362648247e-06, 0.00011171174557178584, 2.07308335054849e-05, 0.0, 0.0]
effort: [-1.0862550000000002, -22.465999999999998, -20.116799999999998, 0.09997714285714285, -0.8294400000000001, 0.28800000000000003, 0.0, 0.0]
---
header: 
  seq: 285872
  stamp: 
    secs: 1737603598
    nsecs: 296793946
  frame_id: ''
name: 
  - joint_1
  - joint_2
  - joint_3
  - joint_4
  - joint_5
  - joint_6
  - tcp_lin
  - tcp_rot
position: [-3.461087698189912e-08, 1.6012052266924515e-11, -6.550643040643819e-08, 5.758751000881791e-08, -2.2203604227740166e-07, 2.395233243088873e-07, 0.1, 0.1]
velocity: [-4.472925771939244e-06, -5.82891428550631e-06, -2.6244498407165404e-05, -1.086886651273111e-05, -4.863545688922312e-05, 5.681006337136465e-05, 0.0, 0.0]
effort: [0.0, -22.465999999999998, -20.0152, -0.16662857142857143, -0.9849600000000001, 0.24, 0.0, 0.0]
---
header: 
  seq: 285873
  stamp: 
    secs: 1737603598
    nsecs: 316792142
  frame_id: ''
name: 
  - joint_1
  - joint_2
  - joint_3
  - joint_4
  - joint_5
  - joint_6
  - tcp_lin
  - tcp_rot
position: [2.4708671936903683e-08, 2.991654952869927e-08, 8.424640447242454e-08, -2.8772378708861623e-08, 1.848066024081689e-07, -1.1978644045789033e-07, 0.1, 0.1]
velocity: [1.1944424177099691e-05, 1.1955120392521774e-05, 3.1616521280873105e-05, -8.967384225226738e-06, 7.564981443561596e-05, -4.292539038829596e-05, 0.0, 0.0]
effort: [-0.36208500000000005, -23.183, -20.116799999999998, -0.1999542857142857, -0.7776000000000001, 0.272, 0.0, 0.0]
---
header: 
  seq: 285874
  stamp: 
    secs: 1737603598
    nsecs: 336930732
  frame_id: ''
name: 
  - joint_1
  - joint_2
  - joint_3
  - joint_4
  - joint_5
  - joint_6
  - tcp_lin
  - tcp_rot
position: [-1.336127401124331e-07, -3.013973776223572e-08, 4.46556465883179e-08, 2.9173042640240374e-08, -2.501807787801721e-07, 2.859616014450591e-10, 0.1, 0.1]
velocity: [-2.6303171469423792e-05, -8.06707863487218e-06, 2.3857655595504535e-05, 2.1193728134664977e-05, -0.00011560235800003228, 1.6172175122509366e-05, 0.0, 0.0]
effort: [0.0, -22.465999999999998, -20.2184, -0.23328, -0.8812800000000001, 0.304, 0.0, 0.0]
---
header: 
  seq: 285875
  stamp: 
    secs: 1737603598
    nsecs: 356793077
  frame_id: ''
name: 
  - joint_1
  - joint_2
  - joint_3
  - joint_4
  - joint_5
  - joint_6
  - tcp_lin
  - tcp_rot
position: [2.4718873012288606e-08, 2.99684465454523e-08, -1.0299302498347537e-07, -1.8673870297162951e-13, -1.4796522145601662e-07, -4.6766672577748824e-11, 0.1, 0.1]
velocity: [6.733073339359001e-06, 9.815130447643976e-06, -1.4602386986047303e-05, 1.1714115237631474e-06, -3.5856357826534655e-05, -2.4086635301163035e-06, 0.0, 0.0]
effort: [0.36208500000000005, -22.705, -20.0152, 0.33325714285714286, -0.9072000000000001, 0.272, 0.0, 0.0]
---
header: 
  seq: 285876
  stamp: 
    secs: 1737603598
    nsecs: 376792016
  frame_id: ''
name: 
  - joint_1
  - joint_2
  - joint_3
  - joint_4
  - joint_5
  - joint_6
  - tcp_lin
  - tcp_rot
position: [-3.458849700608913e-08, -2.996581975188481e-08, 2.3398421739961819e-07, 4.728629675789269e-11, 4.4387817986258917e-07, -6.001246608226468e-08, 0.1, 0.1]
velocity: [-1.1419760887333392e-05, -7.5955680681173695e-06, 6.747732011806211e-05, -1.7837069345536948e-05, 9.997771433233994e-05, -1.2379487884660194e-05, 0.0, 0.0]
effort: [0.7241700000000001, -23.183, -20.116799999999998, -0.13330285714285714, -0.9072000000000001, 0.224, 0.0, 0.0]
---
header: 
  seq: 285877
  stamp: 
    secs: 1737603598
    nsecs: 396797690
  frame_id: ''
name: 
  - joint_1
  - joint_2
  - joint_3
  - joint_4
  - joint_5
  - joint_6
  - tcp_lin
  - tcp_rot
position: [6.427092849342058e-08, -5.280758843259755e-13, -1.403636177647698e-07, -5.747237515322819e-08, -1.4801349004065652e-07, -8.266521207869707e-11, 0.1, 0.1]
velocity: [1.853714629801456e-05, -7.291017342429035e-07, -4.2729306449570774e-05, -2.402796710241844e-05, -4.719669199261268e-05, 4.104750158765482e-06, 0.0, 0.0]
effort: [0.0, -21.749, -19.9136, -0.1999542857142857, -0.8812800000000001, 0.32, 0.0, 0.0]
---
header: 
  seq: 285878
  stamp: 
    secs: 1737603598
    nsecs: 416791796
  frame_id: ''
name: 
  - joint_1
  - joint_2
  - joint_3
  - joint_4
  - joint_5
  - joint_6
  - tcp_lin
  - tcp_rot
position: [2.4719965874573172e-08, -5.991893307255882e-08, 1.5915908761079596e-07, -2.8768183942655435e-08, 7.395391776305293e-08, -1.0502828497913531e-11, 0.1, 0.1]
velocity: [3.4492480115523535e-07, -5.756418076676284e-06, 4.168508499258057e-05, 5.862174966171867e-06, 4.46202958167405e-05, 3.99441471229924e-06, 0.0, 0.0]
effort: [-1.4483400000000002, -21.988, -20.32, 0.06665142857142857, -0.8294400000000001, 0.24, 0.0, 0.0]
---
header: 
  seq: 285879
  stamp: 
    secs: 1737603598
    nsecs: 436871951
  frame_id: ''
name: 
  - joint_1
  - joint_2
  - joint_3
  - joint_4
  - joint_5
  - joint_6
  - tcp_lin
  - tcp_rot
position: [-3.469733346528129e-08, -2.9930947860546496e-08, 4.785207779849014e-08, 2.920057907570095e-08, -2.2640407647086067e-07, 1.213012873658854e-07, 0.1, 0.1]
velocity: [-1.4559343163816237e-05, -1.6458496718905457e-06, 1.4583145304646583e-05, 2.7052235574335214e-06, -7.905226696499712e-05, 3.817340866590696e-05, 0.0, 0.0]
effort: [0.36208500000000005, -22.465999999999998, -20.32, 0.5998628571428571, -0.8553600000000001, 0.24, 0.0, 0.0]
---
header: 
  seq: 285880
  stamp: 
    secs: 1737603598
    nsecs: 456791820
  frame_id: ''
name: 
  - joint_1
  - joint_2
  - joint_3
  - joint_4
  - joint_5
  - joint_6
  - tcp_lin
  - tcp_rot
position: [-5.4385227416431304e-08, 1.356791783678231e-11, 9.353242181666884e-09, 2.877056554409893e-08, -1.849255091894573e-07, 6.590802142362539e-07, 0.1, 0.1]
velocity: [-8.637244177214778e-06, -4.362525174390107e-06, 1.544368663586297e-05, 1.1663774291700672e-05, -4.565283380947484e-05, 0.00015039493850231176, 0.0, 0.0]
effort: [-0.7241700000000001, -22.944, -20.2184, -0.13330285714285714, -0.8294400000000001, 0.24, 0.0, 0.0]
---
header: 
  seq: 285881
  stamp: 
    secs: 1737603598
    nsecs: 476791705
  frame_id: ''
name: 
  - joint_1
  - joint_2
  - joint_3
  - joint_4
  - joint_5
  - joint_6
  - tcp_lin
  - tcp_rot
position: [-3.459479462855526e-08, 8.987025198486752e-08, -1.0299586475673763e-07, 8.630900711568648e-08, 3.6987965570429243e-07, 6.078813375644998e-12, 0.1, 0.1]
velocity: [-1.2947447846255306e-05, 1.9480140627940672e-05, -2.277978888877781e-05, 1.0120302992883475e-05, 9.753243356433973e-05, 2.164134152709645e-05, 0.0, 0.0]
effort: [0.0, -22.465999999999998, -19.6088, -0.1999542857142857, -0.8812800000000001, 0.24, 0.0, 0.0]
---
header: 
  seq: 285882
  stamp: 
    secs: 1737603598
    nsecs: 496946103
  frame_id: ''
name: 
  - joint_1
  - joint_2
  - joint_3
  - joint_4
  - joint_5
  - joint_6
  - tcp_lin
  - tcp_rot
position: [-3.573896507551871e-08, -6.525374139446418e-08, 8.365665646417181e-08, -5.867887515484619e-08, -2.4838878724069564e-07, 6.209298794886397e-08, 0.1, 0.1]
velocity: [-1.1539323036183863e-05, -2.0206105373078463e-05, 1.4425681452955007e-05, -2.8749514784752103e-05, -6.657307274184953e-05, 6.991604489189015e-06, 0.0, 0.0]
effort: [-0.36208500000000005, -21.988, -20.116799999999998, -0.09997714285714285, -0.9590400000000001, 0.24, 0.0, 0.0]
---
header: 
  seq: 285883
  stamp: 
    secs: 1737603598
    nsecs: 516791867
  frame_id: ''
name: 
  - joint_1
  - joint_2
  - joint_3
  - joint_4
  - joint_5
  - joint_6
  - tcp_lin
  - tcp_rot
position: [4.449443769017716e-08, -5.991808039037617e-08, -1.0299335398609054e-07, -9.330285401441438e-12, -4.254747373617726e-11, -5.99028880607183e-08, 0.1, 0.1]
velocity: [1.1804967677440596e-05, -1.3158879281955794e-05, -2.1642673752070533e-05, 6.084433945544657e-06, 2.4244184546905894e-05, -1.9244680461238125e-05, 0.0, 0.0]
effort: [0.7241700000000001, -22.227, -19.9136, -0.16662857142857143, -0.8294400000000001, 0.256, 0.0, 0.0]
---
header: 
  seq: 285884
  stamp: 
    secs: 1737603598
    nsecs: 536791782
  frame_id: ''
name: 
  - joint_1
  - joint_2
  - joint_3
  - joint_4
  - joint_5
  - joint_6
  - tcp_lin
  - tcp_rot
position: [-7.418186899513738e-08, 2.994152851150218e-08, -6.553266674957553e-08, 2.8732725875934153e-08, -1.8483554936299373e-07, -1.1983016710951184e-07, 0.1, 0.1]
velocity: [-1.5148594511165569e-06, 7.402609546880235e-06, -2.076843477588473e-05, 1.583359023604714e-05, -7.723359221610127e-05, -2.661235242846546e-05, 0.0, 0.0]
effort: [-2.1725100000000004, -22.705, -20.116799999999998, 0.0, -0.8812800000000001, 0.24, 0.0, 0.0]
---
header: 
  seq: 285885
  stamp: 
    secs: 1737603598
    nsecs: 556793680
  frame_id: ''
name: 
  - joint_1
  - joint_2
  - joint_3
  - joint_4
  - joint_5
  - joint_6
  - tcp_lin
  - tcp_rot
position: [2.4724688794256268e-08, -2.9958490253175554e-08, -6.554728174691353e-08, 5.7532632301585695e-08, -1.109688974735414e-07, 2.3969656344037066e-07, 0.1, 0.1]
velocity: [1.1701324215495951e-05, -1.2160951403186148e-05, -2.478164206578809e-05, -6.483819106897349e-07, -1.4366081775453662e-05, 4.922986912148268e-05, 0.0, 0.0]
effort: [1.8104250000000002, -22.705, -20.2184, -0.033325714285714285, -0.8812800000000001, 0.28800000000000003, 0.0, 0.0]
---
header: 
  seq: 285886
  stamp: 
    secs: 1737603598
    nsecs: 576793955
  frame_id: ''
name: 
  - joint_1
  - joint_2
  - joint_3
  - joint_4
  - joint_5
  - joint_6
  - tcp_lin
  - tcp_rot
position: [-9.393659747542414e-08, -6.996352397582335e-13, -2.8086341868192886e-08, -5.75379847450289e-08, 5.548249440117622e-07, 1.1984871396257305e-07, 0.1, 0.1]
velocity: [-2.41566750546681e-05, -8.118118972784975e-07, 4.64981400537153e-06, -3.4455435222762257e-05, 0.00012364802290295416, 3.050010597071164e-05, 0.0, 0.0]
effort: [-0.36208500000000005, -22.705, -20.2184, -0.36658285714285715, -0.80352, 0.24, 0.0, 0.0]
---
header: 
  seq: 285887
  stamp: 
    secs: 1737603598
    nsecs: 596893668
  frame_id: ''
name: 
  - joint_1
  - joint_2
  - joint_3
  - joint_4
  - joint_5
  - joint_6
  - tcp_lin
  - tcp_rot
position: [4.982188515217771e-09, -3.0802355541920606e-08, -2.794242150034292e-08, -5.734112149208019e-08, -2.5624886739735417e-07, 1.040122270602718e-10, 0.1, 0.1]
velocity: [-2.268507802772564e-06, -1.0085916368146175e-05, -8.571298449552096e-06, -1.1653305085846379e-05, -4.719481488339648e-05, -6.202306014401743e-06, 0.0, 0.0]
