header: 
  seq: 1
  stamp: 
    secs: 1737602700
    nsecs: 500282049
  frame_id: ''
joint_names: 
  - joint_1
  - joint_2
  - joint_3
  - joint_4
  - joint_5
  - joint_6
  - tcp_lin
  - tcp_rot
points: 
  - 
    positions: [0.0, 0.0, -0.0, 0.0, 0.0, 0.0, 0.1, 0.1]
    velocities: []
    accelerations: []
    effort: []
    time_from_start: 
      secs: 0
      nsecs:  50000000
---
header: 
  seq: 2
  stamp: 
    secs: 1737602700
    nsecs: 550415277
  frame_id: ''
joint_names: 
  - joint_1
  - joint_2
  - joint_3
  - joint_4
  - joint_5
  - joint_6
  - tcp_lin
  - tcp_rot
points: 
  - 
    positions: [0.0021776937618147446, 0.0021776937618147446, -0.0021776937618147446, 0.0021776937618147446, 0.0021776937618147446, 0.0021776937618147446, 0.1, 0.1]
    velocities: []
    accelerations: []
    effort: []
    time_from_start: 
      secs: 0
      nsecs:  50000000
---
header: 
  seq: 3
  stamp: 
    secs: 1737602700
    nsecs: 600364446
  frame_id: ''
joint_names: 
  - joint_1
  - joint_2
  - joint_3
  - joint_4
  - joint_5
  - joint_6
  - tcp_lin
  - tcp_rot
points: 
  - 
    positions: [0.010888468809073723, 0.010888468809073723, -0.010888468809073723, 0.010888468809073723, 0.010888468809073723, 0.010888468809073723, 0.1, 0.1]
    velocities: []
    accelerations: []
    effort: []
    time_from_start: 
      secs: 0
      nsecs:  50000000
---
header: 
  seq: 4
  stamp: 
    secs: 1737602700
    nsecs: 650350809
  frame_id: ''
joint_names: 
  - joint_1
  - joint_2
  - joint_3
  - joint_4
  - joint_5
  - joint_6
  - tcp_lin
  - tcp_rot
points: 
  - 
    positions: [0.03048771266540642, 0.03048771266540642, -0.03048771266540642, 0.03048771266540642, 0.03048771266540642, 0.03048771266540642, 0.1, 0.1]
    velocities: []
    accelerations: []
    effort: []
    time_from_start: 
      secs: 0
      nsecs:  50000000
---
header: 
  seq: 5
  stamp: 
    secs: 1737602700
    nsecs: 700390100
  frame_id: ''
joint_names: 
  - joint_1
  - joint_2
  - joint_3
  - joint_4
  - joint_5
  - joint_6
  - tcp_lin
  - tcp_rot
points: 
  - 
    positions: [0.06533081285444234, 0.06533081285444234, -0.06533081285444234, 0.06533081285444234, 0.06533081285444234, 0.06533081285444234, 0.1, 0.1]
    velocities: []
    accelerations: []
    effort: []
    time_from_start: 
      secs: 0
      nsecs:  50000000
---
header: 
  seq: 6
  stamp: 
    secs: 1737602700
    nsecs: 750358104
  frame_id: ''
joint_names: 
  - joint_1
  - joint_2
  - joint_3
  - joint_4
  - joint_5
  - joint_6
  - tcp_lin
  - tcp_rot
points: 
  - 
    positions: [0.11958412098298676, 0.11958412098298676, -0.11958412098298676, 0.11958412098298676, 0.11958412098298676, 0.11958412098298676, 0.1, 0.1]
    velocities: []
    accelerations: []
    effort: []
    time_from_start: 
      secs: 0
      nsecs:  50000000
---
header: 
  seq: 7
  stamp: 
    secs: 1737602700
    nsecs: 800578117
  frame_id: ''
joint_names: 
  - joint_1
  - joint_2
  - joint_3
  - joint_4
  - joint_5
  - joint_6
  - tcp_lin
  - tcp_rot
points: 
  - 
    positions: [0.1916219281663516, 0.1916219281663516, -0.1916219281663516, 0.1916219281663516, 0.1916219281663516, 0.1916219281663516, 0.1, 0.1]
    velocities: []
    accelerations: []
    effort: []
    time_from_start: 
      secs: 0
      nsecs:  50000000
---
header: 
  seq: 8
  stamp: 
    secs: 1737602700
    nsecs: 851591825
  frame_id: ''
joint_names: 
  - joint_1
  - joint_2
  - joint_3
  - joint_4
  - joint_5
  - joint_6
  - tcp_lin
  - tcp_rot
points: 
  - 
    positions: [0.27708884688090735, 0.27708884688090735, -0.27708884688090735, 0.27708884688090735, 0.27708884688090735, 0.27708884688090735, 0.1, 0.1]
    velocities: []
    accelerations: []
    effort: []
    time_from_start: 
      secs: 0
      nsecs:  50000000
---
header: 
  seq: 9
  stamp: 
    secs: 1737602700
    nsecs: 900906324
  frame_id: ''
joint_names: 
  - joint_1
  - joint_2
  - joint_3
  - joint_4
  - joint_5
  - joint_6
  - tcp_lin
  - tcp_rot
points: 
  - 
    positions: [0.37162948960302455, 0.37162948960302455, -0.37162948960302455, 0.37162948960302455, 0.37162948960302455, 0.37162948960302455, 0.1, 0.1]
    velocities: []
    accelerations: []
    effort: []
    time_from_start: 
      secs: 0
      nsecs:  50000000
---
header: 
  seq: 10
  stamp: 
    secs: 1737602700
    nsecs: 950408697
  frame_id: ''
joint_names: 
  - joint_1
  - joint_2
  - joint_3
  - joint_4
  - joint_5
  - joint_6
  - tcp_lin
  - tcp_rot
points: 
  - 
    positions: [0.4708884688090737, 0.4708884688090737, -0.4708884688090737, 0.4708884688090737, 0.4708884688090737, 0.4708884688090737, 0.1, 0.1]
    velocities: []
    accelerations: []
    effort: []
    time_from_start: 
      secs: 0
      nsecs:  50000000
---
header: 
  seq: 11
  stamp: 
    secs: 1737602701
    nsecs:    363349
  frame_id: ''
joint_names: 
  - joint_1
  - joint_2
  - joint_3
  - joint_4
  - joint_5
  - joint_6
  - tcp_lin
  - tcp_rot
points: 
  - 
    positions: [0.5708884688090737, 0.5708884688090737, -0.5708884688090737, 0.5708884688090737, 0.5708884688090737, 0.5708884688090737, 0.1, 0.1]
    velocities: []
    accelerations: []
    effort: []
    time_from_start: 
      secs: 0
      nsecs:  50000000
---
header: 
  seq: 12
  stamp: 
    secs: 1737602701
    nsecs:  50368070
  frame_id: ''
joint_names: 
  - joint_1
  - joint_2
  - joint_3
  - joint_4
  - joint_5
  - joint_6
  - tcp_lin
  - tcp_rot
points: 
  - 
    positions: [0.6708884688090737, 0.6708884688090737, -0.6708884688090737, 0.6708884688090737, 0.6708884688090737, 0.6708884688090737, 0.1, 0.1]
    velocities: []
    accelerations: []
    effort: []
    time_from_start: 
      secs: 0
      nsecs:  50000000
---
header: 
  seq: 13
  stamp: 
    secs: 1737602701
    nsecs: 100363254
  frame_id: ''
joint_names: 
  - joint_1
  - joint_2
  - joint_3
  - joint_4
  - joint_5
  - joint_6
  - tcp_lin
  - tcp_rot
points: 
  - 
    positions: [0.7708884688090737, 0.7708884688090737, -0.7708884688090737, 0.7708884688090737, 0.7708884688090737, 0.7708884688090737, 0.1, 0.1]
    velocities: []
    accelerations: []
    effort: []
    time_from_start: 
      secs: 0
      nsecs:  50000000
---
header: 
  seq: 14
  stamp: 
    secs: 1737602701
    nsecs: 150574445
  frame_id: ''
joint_names: 
  - joint_1
  - joint_2
  - joint_3
  - joint_4
  - joint_5
  - joint_6
  - tcp_lin
  - tcp_rot
points: 
  - 
    positions: [0.8708884688090737, 0.8708884688090737, -0.8708884688090737, 0.8708884688090737, 0.8708884688090737, 0.8708884688090737, 0.1, 0.1]
    velocities: []
    accelerations: []
    effort: []
    time_from_start: 
      secs: 0
      nsecs:  50000000
---
header: 
  seq: 15
  stamp: 
    secs: 1737602701
    nsecs: 200416326
  frame_id: ''
joint_names: 
  - joint_1
  - joint_2
  - joint_3
  - joint_4
  - joint_5
  - joint_6
  - tcp_lin
  - tcp_rot
points: 
  - 
    positions: [0.9701474480151229, 0.9701474480151229, -0.9701474480151229, 0.9701474480151229, 0.9701474480151229, 0.9701474480151229, 0.1, 0.1]
    velocities: []
    accelerations: []
    effort: []
    time_from_start: 
      secs: 0
      nsecs:  50000000
---
header: 
  seq: 16
  stamp: 
    secs: 1737602701
    nsecs: 250666856
  frame_id: ''
joint_names: 
  - joint_1
  - joint_2
  - joint_3
  - joint_4
  - joint_5
  - joint_6
  - tcp_lin
  - tcp_rot
points: 
  - 
    positions: [1.06468809073724, 1.06468809073724, -1.06468809073724, 1.06468809073724, 1.06468809073724, 1.06468809073724, 0.1, 0.1]
    velocities: []
    accelerations: []
    effort: []
    time_from_start: 
      secs: 0
      nsecs:  50000000
---
header: 
  seq: 17
  stamp: 
    secs: 1737602701
    nsecs: 300370931
  frame_id: ''
joint_names: 
  - joint_1
  - joint_2
  - joint_3
  - joint_4
  - joint_5
  - joint_6
  - tcp_lin
  - tcp_rot
points: 
  - 
    positions: [1.1501550094517958, 1.1501550094517958, -1.1501550094517958, 1.1501550094517958, 1.1501550094517958, 1.1501550094517958, 0.1, 0.1]
    velocities: []
    accelerations: []
    effort: []
    time_from_start: 
      secs: 0
      nsecs:  50000000
---
header: 
  seq: 18
  stamp: 
    secs: 1737602701
    nsecs: 350378274
  frame_id: ''
joint_names: 
  - joint_1
  - joint_2
  - joint_3
  - joint_4
  - joint_5
  - joint_6
  - tcp_lin
  - tcp_rot
points: 
  - 
    positions: [1.2221928166351606, 1.2221928166351606, -1.2221928166351606, 1.2221928166351606, 1.2221928166351606, 1.2221928166351606, 0.1, 0.1]
    velocities: []
    accelerations: []
    effort: []
    time_from_start: 
      secs: 0
      nsecs:  50000000
---
header: 
  seq: 19
  stamp: 
    secs: 1737602701
    nsecs: 400356769
  frame_id: ''
joint_names: 
  - joint_1
  - joint_2
  - joint_3
  - joint_4
  - joint_5
  - joint_6
  - tcp_lin
  - tcp_rot
points: 
  - 
    positions: [1.276446124763705, 1.276446124763705, -1.276446124763705, 1.276446124763705, 1.276446124763705, 1.276446124763705, 0.1, 0.1]
    velocities: []
    accelerations: []
    effort: []
    time_from_start: 
      secs: 0
      nsecs:  50000000
---
header: 
  seq: 20
  stamp: 
    secs: 1737602701
    nsecs: 450357437
  frame_id: ''
joint_names: 
  - joint_1
  - joint_2
  - joint_3
  - joint_4
  - joint_5
  - joint_6
  - tcp_lin
  - tcp_rot
points: 
  - 
    positions: [1.3112892249527408, 1.3112892249527408, -1.3112892249527408, 1.3112892249527408, 1.3112892249527408, 1.3112892249527408, 0.1, 0.1]
    velocities: []
    accelerations: []
    effort: []
    time_from_start: 
      secs: 0
      nsecs:  50000000
---
header: 
  seq: 21
  stamp: 
    secs: 1737602701
    nsecs: 500385761
  frame_id: ''
joint_names: 
  - joint_1
  - joint_2
  - joint_3
  - joint_4
  - joint_5
  - joint_6
  - tcp_lin
  - tcp_rot
points: 
  - 
    positions: [1.3308884688090734, 1.3308884688090734, -1.3308884688090734, 1.3308884688090734, 1.3308884688090734, 1.3308884688090734, 0.1, 0.1]
    velocities: []
    accelerations: []
    effort: []
    time_from_start: 
      secs: 0
      nsecs:  50000000
---
header: 
  seq: 22
  stamp: 
    secs: 1737602701
    nsecs: 550354242
  frame_id: ''
joint_names: 
  - joint_1
  - joint_2
  - joint_3
  - joint_4
  - joint_5
  - joint_6
  - tcp_lin
  - tcp_rot
points: 
  - 
    positions: [1.3395992438563324, 1.3395992438563324, -1.3395992438563324, 1.3395992438563324, 1.3395992438563324, 1.3395992438563324, 0.1, 0.1]
    velocities: []
    accelerations: []
    effort: []
    time_from_start: 
      secs: 0
      nsecs:  50000000
---
header: 
  seq: 23
  stamp: 
    secs: 1737602701
    nsecs: 601052522
  frame_id: ''
joint_names: 
  - joint_1
  - joint_2
  - joint_3
  - joint_4
  - joint_5
  - joint_6
  - tcp_lin
  - tcp_rot
points: 
  - 
    positions: [1.3417769376181472, 1.3417769376181472, -1.3417769376181472, 1.3417769376181472, 1.3417769376181472, 1.3417769376181472, 0.1, 0.1]
    velocities: []
    accelerations: []
    effort: []
    time_from_start: 
      secs: 0
      nsecs:  50000000
---
header: 
  seq: 24
  stamp: 
    secs: 1737602701
    nsecs: 650702238
  frame_id: ''
joint_names: 
  - joint_1
  - joint_2
  - joint_3
  - joint_4
  - joint_5
  - joint_6
  - tcp_lin
  - tcp_rot
points: 
  - 
    positions: [1.3417769376181472, 1.3417769376181472, -1.3417769376181472, 1.3417769376181472, 1.3417769376181472, 1.3417769376181472, 0.1, 0.1]
    velocities: []
    accelerations: []
    effort: []
    time_from_start: 
      secs: 0
      nsecs:  50000000
---
header: 
  seq: 25
  stamp: 
    secs: 1737602701
    nsecs: 700573921
  frame_id: ''
joint_names: 
  - joint_1
  - joint_2
  - joint_3
  - joint_4
  - joint_5
  - joint_6
  - tcp_lin
  - tcp_rot
points: 
  - 
    positions: [1.3417769376181472, 1.3417769376181472, -1.3417769376181472, 1.3417769376181472, 1.3417769376181472, 1.3417769376181472, 0.1, 0.1]
    velocities: []
    accelerations: []
    effort: []
    time_from_start: 
      secs: 0
      nsecs:  50000000
---
header: 
  seq: 26
  stamp: 
    secs: 1737602702
    nsecs: 752224922
  frame_id: ''
joint_names: 
  - joint_1
  - joint_2
  - joint_3
  - joint_4
  - joint_5
  - joint_6
  - tcp_lin
  - tcp_rot
points: 
  - 
    positions: [0.0, 0.0, 0.0, 0.0, 0.0, 0.0, 0.1, 0.1]
    velocities: []
    accelerations: []
    effort: []
    time_from_start: 
      secs: 3
      nsecs:         0
---
header: 
  seq: 27
  stamp: 
    secs: 1737602707
    nsecs: 757162570
  frame_id: ''
joint_names: 
  - joint_1
  - joint_2
  - joint_3
  - joint_4
  - joint_5
  - joint_6
  - tcp_lin
  - tcp_rot
points: 
  - 
    positions: [0.0, 0.0, -0.0, 0.0, 0.0, 0.0, 0.1, 0.1]
    velocities: []
    accelerations: []
    effort: []
    time_from_start: 
      secs: 0
      nsecs:  33333333
---
header: 
  seq: 28
  stamp: 
    secs: 1737602707
    nsecs: 790609121
  frame_id: ''
joint_names: 
  - joint_1
  - joint_2
  - joint_3
  - joint_4
  - joint_5
  - joint_6
  - tcp_lin
  - tcp_rot
points: 
  - 
    positions: [0.0006269387755102041, 0.0006269387755102041, -0.0006269387755102041, 0.0006269387755102041, 0.0006269387755102041, 0.0006269387755102041, 0.1, 0.1]
    velocities: []
    accelerations: []
    effort: []
    time_from_start: 
      secs: 0
      nsecs:  33333333
---
header: 
  seq: 29
  stamp: 
    secs: 1737602707
    nsecs: 823943614
  frame_id: ''
joint_names: 
  - joint_1
  - joint_2
  - joint_3
  - joint_4
  - joint_5
  - joint_6
  - tcp_lin
  - tcp_rot
points: 
  - 
    positions: [0.0031346938775510206, 0.0031346938775510206, -0.0031346938775510206, 0.0031346938775510206, 0.0031346938775510206, 0.0031346938775510206, 0.1, 0.1]
    velocities: []
    accelerations: []
    effort: []
    time_from_start: 
      secs: 0
      nsecs:  33333333
---
header: 
  seq: 30
  stamp: 
    secs: 1737602707
    nsecs: 857250452
  frame_id: ''
joint_names: 
  - joint_1
  - joint_2
  - joint_3
  - joint_4
  - joint_5
  - joint_6
  - tcp_lin
  - tcp_rot
points: 
  - 
    positions: [0.008777142857142858, 0.008777142857142858, -0.008777142857142858, 0.008777142857142858, 0.008777142857142858, 0.008777142857142858, 0.1, 0.1]
    velocities: []
    accelerations: []
    effort: []
    time_from_start: 
      secs: 0
      nsecs:  33333333
---
header: 
  seq: 31
  stamp: 
    secs: 1737602707
    nsecs: 890612363
  frame_id: ''
joint_names: 
  - joint_1
  - joint_2
  - joint_3
  - joint_4
  - joint_5
  - joint_6
  - tcp_lin
  - tcp_rot
points: 
  - 
    positions: [0.018808163265306124, 0.018808163265306124, -0.018808163265306124, 0.018808163265306124, 0.018808163265306124, 0.018808163265306124, 0.1, 0.1]
    velocities: []
    accelerations: []
    effort: []
    time_from_start: 
      secs: 0
      nsecs:  33333333
---
header: 
  seq: 32
  stamp: 
    secs: 1737602707
    nsecs: 923940181
  frame_id: ''
joint_names: 
  - joint_1
  - joint_2
  - joint_3
  - joint_4
  - joint_5
  - joint_6
  - tcp_lin
  - tcp_rot
points: 
  - 
    positions: [0.03448163265306123, 0.03448163265306123, -0.03448163265306123, 0.03448163265306123, 0.03448163265306123, 0.03448163265306123, 0.1, 0.1]
    velocities: []
    accelerations: []
    effort: []
    time_from_start: 
      secs: 0
      nsecs:  33333333
---
header: 
  seq: 33
  stamp: 
    secs: 1737602707
    nsecs: 957280874
  frame_id: ''
joint_names: 
  - joint_1
  - joint_2
  - joint_3
  - joint_4
  - joint_5
  - joint_6
  - tcp_lin
  - tcp_rot
points: 
  - 
    positions: [0.05705142857142858, 0.05705142857142858, -0.05705142857142858, 0.05705142857142858, 0.05705142857142858, 0.05705142857142858, 0.1, 0.1]
    velocities: []
    accelerations: []
    effort: []
    time_from_start: 
      secs: 0
      nsecs:  33333333
---
header: 
  seq: 34
  stamp: 
    secs: 1737602707
    nsecs: 990972757
  frame_id: ''
joint_names: 
  - joint_1
  - joint_2
  - joint_3
  - joint_4
  - joint_5
  - joint_6
  - tcp_lin
  - tcp_rot
points: 
  - 
    positions: [0.08777142857142858, 0.08777142857142858, -0.08777142857142858, 0.08777142857142858, 0.08777142857142858, 0.08777142857142858, 0.1, 0.1]
    velocities: []
    accelerations: []
    effort: []
    time_from_start: 
      secs: 0
      nsecs:  33333333
---
header: 
  seq: 35
  stamp: 
    secs: 1737602708
    nsecs:  24040222
  frame_id: ''
joint_names: 
  - joint_1
  - joint_2
  - joint_3
  - joint_4
  - joint_5
  - joint_6
  - tcp_lin
  - tcp_rot
points: 
  - 
    positions: [0.12726639455782315, 0.12726639455782315, -0.12726639455782315, 0.12726639455782315, 0.12726639455782315, 0.12726639455782315, 0.1, 0.1]
    velocities: []
    accelerations: []
    effort: []
    time_from_start: 
      secs: 0
      nsecs:  33333333
---
header: 
  seq: 36
  stamp: 
    secs: 1737602708
    nsecs:  57676076
  frame_id: ''
joint_names: 
  - joint_1
  - joint_2
  - joint_3
  - joint_4
  - joint_5
  - joint_6
  - tcp_lin
  - tcp_rot
points: 
  - 
    positions: [0.17438911564625853, 0.17438911564625853, -0.17438911564625853, 0.17438911564625853, 0.17438911564625853, 0.17438911564625853, 0.1, 0.1]
    velocities: []
    accelerations: []
    effort: []
    time_from_start: 
      secs: 0
      nsecs:  33333333
---
header: 
  seq: 37
  stamp: 
    secs: 1737602708
    nsecs:  90626955
  frame_id: ''
joint_names: 
  - joint_1
  - joint_2
  - joint_3
  - joint_4
  - joint_5
  - joint_6
  - tcp_lin
  - tcp_rot
points: 
  - 
    positions: [0.2278857142857143, 0.2278857142857143, -0.2278857142857143, 0.2278857142857143, 0.2278857142857143, 0.2278857142857143, 0.1, 0.1]
    velocities: []
    accelerations: []
    effort: []
    time_from_start: 
      secs: 0
      nsecs:  33333333
---
header: 
  seq: 38
  stamp: 
    secs: 1737602708
    nsecs: 123986244
  frame_id: ''
joint_names: 
  - joint_1
  - joint_2
  - joint_3
  - joint_4
  - joint_5
  - joint_6
  - tcp_lin
  - tcp_rot
points: 
  - 
    positions: [0.2865023129251701, 0.2865023129251701, -0.2865023129251701, 0.2865023129251701, 0.2865023129251701, 0.2865023129251701, 0.1, 0.1]
    velocities: []
    accelerations: []
    effort: []
    time_from_start: 
      secs: 0
      nsecs:  33333333
---
header: 
  seq: 39
  stamp: 
    secs: 1737602708
    nsecs: 157322406
  frame_id: ''
joint_names: 
  - joint_1
  - joint_2
  - joint_3
  - joint_4
  - joint_5
  - joint_6
  - tcp_lin
  - tcp_rot
points: 
  - 
    positions: [0.3489850340136055, 0.3489850340136055, -0.3489850340136055, 0.3489850340136055, 0.3489850340136055, 0.3489850340136055, 0.1, 0.1]
    velocities: []
    accelerations: []
    effort: []
    time_from_start: 
      secs: 0
      nsecs:  33333333
---
header: 
  seq: 40
  stamp: 
    secs: 1737602708
    nsecs: 190656185
  frame_id: ''
joint_names: 
  - joint_1
  - joint_2
  - joint_3
  - joint_4
  - joint_5
  - joint_6
  - tcp_lin
  - tcp_rot
points: 
  - 
    positions: [0.41408, 0.41408, -0.41408, 0.41408, 0.41408, 0.41408, 0.1, 0.1]
    velocities: []
    accelerations: []
    effort: []
    time_from_start: 
      secs: 0
      nsecs:  33333333
---
header: 
  seq: 41
  stamp: 
    secs: 1737602708
    nsecs: 224536180
  frame_id: ''
joint_names: 
  - joint_1
  - joint_2
  - joint_3
  - joint_4
  - joint_5
  - joint_6
  - tcp_lin
  - tcp_rot
points: 
  - 
    positions: [0.48053333333333337, 0.48053333333333337, -0.48053333333333337, 0.48053333333333337, 0.48053333333333337, 0.48053333333333337, 0.1, 0.1]
    velocities: []
    accelerations: []
    effort: []
    time_from_start: 
      secs: 0
      nsecs:  33333333
---
header: 
  seq: 42
  stamp: 
    secs: 1737602708
    nsecs: 257880687
  frame_id: ''
joint_names: 
  - joint_1
  - joint_2
  - joint_3
  - joint_4
  - joint_5
  - joint_6
  - tcp_lin
  - tcp_rot
points: 
  - 
    positions: [0.5472, 0.5472, -0.5472, 0.5472, 0.5472, 0.5472, 0.1, 0.1]
    velocities: []
    accelerations: []
    effort: []
    time_from_start: 
      secs: 0
      nsecs:  33333333
---
header: 
  seq: 43
  stamp: 
    secs: 1737602708
    nsecs: 290908813
  frame_id: ''
joint_names: 
  - joint_1
  - joint_2
  - joint_3
  - joint_4
  - joint_5
  - joint_6
  - tcp_lin
  - tcp_rot
points: 
  - 
    positions: [0.6138666666666667, 0.6138666666666667, -0.6138666666666667, 0.6138666666666667, 0.6138666666666667, 0.6138666666666667, 0.1, 0.1]
    velocities: []
    accelerations: []
    effort: []
    time_from_start: 
      secs: 0
      nsecs:  33333333
---
header: 
  seq: 44
  stamp: 
    secs: 1737602708
    nsecs: 324341773
  frame_id: ''
joint_names: 
  - joint_1
  - joint_2
  - joint_3
  - joint_4
  - joint_5
  - joint_6
  - tcp_lin
  - tcp_rot
points: 
  - 
    positions: [0.6805333333333333, 0.6805333333333333, -0.6805333333333333, 0.6805333333333333, 0.6805333333333333, 0.6805333333333333, 0.1, 0.1]
    velocities: []
    accelerations: []
    effort: []
    time_from_start: 
      secs: 0
      nsecs:  33333333
---
header: 
  seq: 45
  stamp: 
    secs: 1737602708
    nsecs: 357953786
  frame_id: ''
joint_names: 
  - joint_1
  - joint_2
  - joint_3
  - joint_4
  - joint_5
  - joint_6
  - tcp_lin
  - tcp_rot
points: 
  - 
    positions: [0.7472, 0.7472, -0.7472, 0.7472, 0.7472, 0.7472, 0.1, 0.1]
    velocities: []
    accelerations: []
    effort: []
    time_from_start: 
      secs: 0
      nsecs:  33333333
---
header: 
  seq: 46
  stamp: 
    secs: 1737602708
    nsecs: 390792131
  frame_id: ''
joint_names: 
  - joint_1
  - joint_2
  - joint_3
  - joint_4
  - joint_5
  - joint_6
  - tcp_lin
  - tcp_rot
points: 
  - 
    positions: [0.8138666666666666, 0.8138666666666666, -0.8138666666666666, 0.8138666666666666, 0.8138666666666666, 0.8138666666666666, 0.1, 0.1]
    velocities: []
    accelerations: []
    effort: []
    time_from_start: 
      secs: 0
      nsecs:  33333333
---
header: 
  seq: 47
  stamp: 
    secs: 1737602708
    nsecs: 423982858
  frame_id: ''
joint_names: 
  - joint_1
  - joint_2
  - joint_3
  - joint_4
  - joint_5
  - joint_6
  - tcp_lin
  - tcp_rot
points: 
  - 
    positions: [0.8805333333333333, 0.8805333333333333, -0.8805333333333333, 0.8805333333333333, 0.8805333333333333, 0.8805333333333333, 0.1, 0.1]
    velocities: []
    accelerations: []
    effort: []
    time_from_start: 
      secs: 0
      nsecs:  33333333
---
header: 
  seq: 48
  stamp: 
    secs: 1737602708
    nsecs: 457340240
  frame_id: ''
joint_names: 
  - joint_1
  - joint_2
  - joint_3
  - joint_4
  - joint_5
  - joint_6
  - tcp_lin
  - tcp_rot
points: 
  - 
    positions: [0.9469866666666666, 0.9469866666666666, -0.9469866666666666, 0.9469866666666666, 0.9469866666666666, 0.9469866666666666, 0.1, 0.1]
    velocities: []
    accelerations: []
    effort: []
    time_from_start: 
      secs: 0
      nsecs:  33333333
---
header: 
  seq: 49
  stamp: 
    secs: 1737602708
    nsecs: 490632295
  frame_id: ''
joint_names: 
  - joint_1
  - joint_2
  - joint_3
  - joint_4
  - joint_5
  - joint_6
  - tcp_lin
  - tcp_rot
points: 
  - 
    positions: [1.0120816326530613, 1.0120816326530613, -1.0120816326530613, 1.0120816326530613, 1.0120816326530613, 1.0120816326530613, 0.1, 0.1]
    velocities: []
    accelerations: []
    effort: []
    time_from_start: 
      secs: 0
      nsecs:  33333333
---
header: 
  seq: 50
  stamp: 
    secs: 1737602708
    nsecs: 523956775
  frame_id: ''
joint_names: 
  - joint_1
  - joint_2
  - joint_3
  - joint_4
  - joint_5
  - joint_6
  - tcp_lin
  - tcp_rot
points: 
  - 
    positions: [1.0745643537414966, 1.0745643537414966, -1.0745643537414966, 1.0745643537414966, 1.0745643537414966, 1.0745643537414966, 0.1, 0.1]
    velocities: []
    accelerations: []
    effort: []
    time_from_start: 
      secs: 0
      nsecs:  33333333
---
header: 
  seq: 51
  stamp: 
    secs: 1737602708
    nsecs: 557283163
  frame_id: ''
joint_names: 
  - joint_1
  - joint_2
  - joint_3
  - joint_4
  - joint_5
  - joint_6
  - tcp_lin
  - tcp_rot
points: 
  - 
    positions: [1.1331809523809524, 1.1331809523809524, -1.1331809523809524, 1.1331809523809524, 1.1331809523809524, 1.1331809523809524, 0.1, 0.1]
    velocities: []
    accelerations: []
    effort: []
    time_from_start: 
      secs: 0
      nsecs:  33333333
---
header: 
  seq: 52
  stamp: 
    secs: 1737602708
    nsecs: 590989112
  frame_id: ''
joint_names: 
  - joint_1
  - joint_2
  - joint_3
  - joint_4
  - joint_5
  - joint_6
  - tcp_lin
  - tcp_rot
points: 
  - 
    positions: [1.1866775510204082, 1.1866775510204082, -1.1866775510204082, 1.1866775510204082, 1.1866775510204082, 1.1866775510204082, 0.1, 0.1]
    velocities: []
    accelerations: []
    effort: []
    time_from_start: 
      secs: 0
      nsecs:  33333333
---
header: 
  seq: 53
  stamp: 
    secs: 1737602708
    nsecs: 624294042
  frame_id: ''
joint_names: 
  - joint_1
  - joint_2
  - joint_3
  - joint_4
  - joint_5
  - joint_6
  - tcp_lin
  - tcp_rot
points: 
  - 
    positions: [1.2338002721088435, 1.2338002721088435, -1.2338002721088435, 1.2338002721088435, 1.2338002721088435, 1.2338002721088435, 0.1, 0.1]
    velocities: []
    accelerations: []
    effort: []
    time_from_start: 
      secs: 0
      nsecs:  33333333
---
header: 
  seq: 54
  stamp: 
    secs: 1737602708
    nsecs: 657647132
  frame_id: ''
joint_names: 
  - joint_1
  - joint_2
  - joint_3
  - joint_4
  - joint_5
  - joint_6
  - tcp_lin
  - tcp_rot
points: 
  - 
    positions: [1.273295238095238, 1.273295238095238, -1.273295238095238, 1.273295238095238, 1.273295238095238, 1.273295238095238, 0.1, 0.1]
    velocities: []
    accelerations: []
    effort: []
    time_from_start: 
      secs: 0
      nsecs:  33333333
---
header: 
  seq: 55
  stamp: 
    secs: 1737602708
    nsecs: 690948963
  frame_id: ''
joint_names: 
  - joint_1
  - joint_2
  - joint_3
  - joint_4
  - joint_5
  - joint_6
  - tcp_lin
  - tcp_rot
points: 
  - 
    positions: [1.304015238095238, 1.304015238095238, -1.304015238095238, 1.304015238095238, 1.304015238095238, 1.304015238095238, 0.1, 0.1]
    velocities: []
    accelerations: []
    effort: []
    time_from_start: 
      secs: 0
      nsecs:  33333333
---
header: 
  seq: 56
  stamp: 
    secs: 1737602708
    nsecs: 723968267
  frame_id: ''
joint_names: 
  - joint_1
  - joint_2
  - joint_3
  - joint_4
  - joint_5
  - joint_6
  - tcp_lin
  - tcp_rot
points: 
  - 
    positions: [1.3265850340136052, 1.3265850340136052, -1.3265850340136052, 1.3265850340136052, 1.3265850340136052, 1.3265850340136052, 0.1, 0.1]
    velocities: []
    accelerations: []
    effort: []
    time_from_start: 
      secs: 0
      nsecs:  33333333
---
header: 
  seq: 57
  stamp: 
    secs: 1737602708
    nsecs: 757286548
  frame_id: ''
joint_names: 
  - joint_1
  - joint_2
  - joint_3
  - joint_4
  - joint_5
  - joint_6
  - tcp_lin
  - tcp_rot
points: 
  - 
    positions: [1.3422585034013603, 1.3422585034013603, -1.3422585034013603, 1.3422585034013603, 1.3422585034013603, 1.3422585034013603, 0.1, 0.1]
    velocities: []
    accelerations: []
    effort: []
    time_from_start: 
      secs: 0
      nsecs:  33333333
---
header: 
  seq: 58
  stamp: 
    secs: 1737602708
    nsecs: 790897607
  frame_id: ''
joint_names: 
  - joint_1
  - joint_2
  - joint_3
  - joint_4
  - joint_5
  - joint_6
  - tcp_lin
  - tcp_rot
points: 
  - 
    positions: [1.3522895238095236, 1.3522895238095236, -1.3522895238095236, 1.3522895238095236, 1.3522895238095236, 1.3522895238095236, 0.1, 0.1]
    velocities: []
    accelerations: []
    effort: []
    time_from_start: 
      secs: 0
      nsecs:  33333333
---
header: 
  seq: 59
  stamp: 
    secs: 1737602708
    nsecs: 823955535
  frame_id: ''
joint_names: 
  - joint_1
  - joint_2
  - joint_3
  - joint_4
  - joint_5
  - joint_6
  - tcp_lin
  - tcp_rot
points: 
  - 
    positions: [1.3579319727891155, 1.3579319727891155, -1.3579319727891155, 1.3579319727891155, 1.3579319727891155, 1.3579319727891155, 0.1, 0.1]
    velocities: []
    accelerations: []
    effort: []
    time_from_start: 
      secs: 0
      nsecs:  33333333
---
header: 
  seq: 60
  stamp: 
    secs: 1737602708
    nsecs: 857301712
  frame_id: ''
joint_names: 
  - joint_1
  - joint_2
  - joint_3
  - joint_4
  - joint_5
  - joint_6
  - tcp_lin
  - tcp_rot
points: 
  - 
    positions: [1.3604397278911562, 1.3604397278911562, -1.3604397278911562, 1.3604397278911562, 1.3604397278911562, 1.3604397278911562, 0.1, 0.1]
    velocities: []
    accelerations: []
    effort: []
    time_from_start: 
      secs: 0
      nsecs:  33333333
---
header: 
  seq: 61
  stamp: 
    secs: 1737602708
    nsecs: 890674829
  frame_id: ''
joint_names: 
  - joint_1
  - joint_2
  - joint_3
  - joint_4
  - joint_5
  - joint_6
  - tcp_lin
  - tcp_rot
points: 
  - 
    positions: [1.3610666666666664, 1.3610666666666664, -1.3610666666666664, 1.3610666666666664, 1.3610666666666664, 1.3610666666666664, 0.1, 0.1]
    velocities: []
    accelerations: []
    effort: []
    time_from_start: 
      secs: 0
      nsecs:  33333333
---
header: 
  seq: 62
  stamp: 
    secs: 1737602708
    nsecs: 924005031
  frame_id: ''
joint_names: 
  - joint_1
  - joint_2
  - joint_3
  - joint_4
  - joint_5
  - joint_6
  - tcp_lin
  - tcp_rot
points: 
  - 
    positions: [1.3610666666666664, 1.3610666666666664, -1.3610666666666664, 1.3610666666666664, 1.3610666666666664, 1.3610666666666664, 0.1, 0.1]
    velocities: []
    accelerations: []
    effort: []
    time_from_start: 
      secs: 0
      nsecs:  33333333
---
header: 
  seq: 63
  stamp: 
    secs: 1737602708
    nsecs: 957406520
  frame_id: ''
joint_names: 
  - joint_1
  - joint_2
  - joint_3
  - joint_4
  - joint_5
  - joint_6
  - tcp_lin
  - tcp_rot
points: 
  - 
    positions: [1.3610666666666664, 1.3610666666666664, -1.3610666666666664, 1.3610666666666664, 1.3610666666666664, 1.3610666666666664, 0.1, 0.1]
    velocities: []
    accelerations: []
    effort: []
    time_from_start: 
      secs: 0
      nsecs:  33333333
---
header: 
  seq: 64
  stamp: 
    secs: 1737602709
    nsecs: 991901636
  frame_id: ''
joint_names: 
  - joint_1
  - joint_2
  - joint_3
  - joint_4
  - joint_5
  - joint_6
  - tcp_lin
  - tcp_rot
points: 
  - 
    positions: [0.0, 0.0, 0.0, 0.0, 0.0, 0.0, 0.1, 0.1]
    velocities: []
    accelerations: []
    effort: []
    time_from_start: 
      secs: 3
      nsecs:         0
---
header: 
  seq: 65
  stamp: 
    secs: 1737602714
    nsecs: 995482444
  frame_id: ''
joint_names: 
  - joint_1
  - joint_2
  - joint_3
  - joint_4
  - joint_5
  - joint_6
  - tcp_lin
  - tcp_rot
points: 
  - 
    positions: [0.0, 0.0, -0.0, 0.0, 0.0, 0.0, 0.1, 0.1]
    velocities: []
    accelerations: []
    effort: []
    time_from_start: 
      secs: 0
      nsecs:  25000000
---
header: 
  seq: 66
  stamp: 
    secs: 1737602715
    nsecs:  20602703
  frame_id: ''
joint_names: 
  - joint_1
  - joint_2
  - joint_3
  - joint_4
  - joint_5
  - joint_6
  - tcp_lin
  - tcp_rot
points: 
  - 
    positions: [0.000260751471253961, 0.000260751471253961, -0.000260751471253961, 0.000260751471253961, 0.000260751471253961, 0.000260751471253961, 0.1, 0.1]
    velocities: []
    accelerations: []
    effort: []
    time_from_start: 
      secs: 0
      nsecs:  25000000
---
header: 
  seq: 67
  stamp: 
    secs: 1737602715
    nsecs:  45618057
  frame_id: ''
joint_names: 
  - joint_1
  - joint_2
  - joint_3
  - joint_4
  - joint_5
  - joint_6
  - tcp_lin
  - tcp_rot
points: 
  - 
    positions: [0.0013037573562698051, 0.0013037573562698051, -0.0013037573562698051, 0.0013037573562698051, 0.0013037573562698051, 0.0013037573562698051, 0.1, 0.1]
    velocities: []
    accelerations: []
    effort: []
    time_from_start: 
      secs: 0
      nsecs:  25000000
---
header: 
  seq: 68
  stamp: 
    secs: 1737602715
    nsecs:  72089433
  frame_id: ''
joint_names: 
  - joint_1
  - joint_2
  - joint_3
  - joint_4
  - joint_5
  - joint_6
  - tcp_lin
  - tcp_rot
points: 
  - 
    positions: [0.0036505205975554548, 0.0036505205975554548, -0.0036505205975554548, 0.0036505205975554548, 0.0036505205975554548, 0.0036505205975554548, 0.1, 0.1]
    velocities: []
    accelerations: []
    effort: []
    time_from_start: 
      secs: 0
      nsecs:  25000000
---
header: 
  seq: 69
  stamp: 
    secs: 1737602715
    nsecs:  95619916
  frame_id: ''
joint_names: 
  - joint_1
  - joint_2
  - joint_3
  - joint_4
  - joint_5
  - joint_6
  - tcp_lin
  - tcp_rot
points: 
  - 
    positions: [0.00782254413761883, 0.00782254413761883, -0.00782254413761883, 0.00782254413761883, 0.00782254413761883, 0.00782254413761883, 0.1, 0.1]
    velocities: []
    accelerations: []
    effort: []
    time_from_start: 
      secs: 0
      nsecs:  25000000
---
header: 
  seq: 70
  stamp: 
    secs: 1737602715
    nsecs: 120612382
  frame_id: ''
joint_names: 
  - joint_1
  - joint_2
  - joint_3
  - joint_4
  - joint_5
  - joint_6
  - tcp_lin
  - tcp_rot
points: 
  - 
    positions: [0.014341330918967856, 0.014341330918967856, -0.014341330918967856, 0.014341330918967856, 0.014341330918967856, 0.014341330918967856, 0.1, 0.1]
    velocities: []
    accelerations: []
    effort: []
    time_from_start: 
      secs: 0
      nsecs:  25000000
---
header: 
  seq: 71
  stamp: 
    secs: 1737602715
    nsecs: 145601749
  frame_id: ''
joint_names: 
  - joint_1
  - joint_2
  - joint_3
  - joint_4
  - joint_5
  - joint_6
  - tcp_lin
  - tcp_rot
points: 
  - 
    positions: [0.023728383884110454, 0.023728383884110454, -0.023728383884110454, 0.023728383884110454, 0.023728383884110454, 0.023728383884110454, 0.1, 0.1]
    velocities: []
    accelerations: []
    effort: []
    time_from_start: 
      secs: 0
      nsecs:  25000000
---
header: 
  seq: 72
  stamp: 
    secs: 1737602715
    nsecs: 171931028
  frame_id: ''
joint_names: 
  - joint_1
  - joint_2
  - joint_3
  - joint_4
  - joint_5
  - joint_6
  - tcp_lin
  - tcp_rot
points: 
  - 
    positions: [0.036505205975554546, 0.036505205975554546, -0.036505205975554546, 0.036505205975554546, 0.036505205975554546, 0.036505205975554546, 0.1, 0.1]
    velocities: []
    accelerations: []
    effort: []
    time_from_start: 
      secs: 0
      nsecs:  25000000
---
header: 
  seq: 73
  stamp: 
    secs: 1737602715
    nsecs: 195902347
  frame_id: ''
joint_names: 
  - joint_1
  - joint_2
  - joint_3
  - joint_4
  - joint_5
  - joint_6
  - tcp_lin
  - tcp_rot
points: 
  - 
    positions: [0.05319330013580805, 0.05319330013580805, -0.05319330013580805, 0.05319330013580805, 0.05319330013580805, 0.05319330013580805, 0.1, 0.1]
    velocities: []
    accelerations: []
    effort: []
    time_from_start: 
      secs: 0
      nsecs:  25000000
---
header: 
  seq: 74
  stamp: 
    secs: 1737602715
    nsecs: 220978975
  frame_id: ''
joint_names: 
  - joint_1
  - joint_2
  - joint_3
  - joint_4
  - joint_5
  - joint_6
  - tcp_lin
  - tcp_rot
points: 
  - 
    positions: [0.0743141693073789, 0.0743141693073789, -0.0743141693073789, 0.0743141693073789, 0.0743141693073789, 0.0743141693073789, 0.1, 0.1]
    velocities: []
    accelerations: []
    effort: []
    time_from_start: 
      secs: 0
      nsecs:  25000000
---
header: 
  seq: 75
  stamp: 
    secs: 1737602715
    nsecs: 245795011
  frame_id: ''
joint_names: 
  - joint_1
  - joint_2
  - joint_3
  - joint_4
  - joint_5
  - joint_6
  - tcp_lin
  - tcp_rot
points: 
  - 
    positions: [0.10036668175645087, 0.10036668175645087, -0.10036668175645087, 0.10036668175645087, 0.10036668175645087, 0.10036668175645087, 0.1, 0.1]
    velocities: []
    accelerations: []
    effort: []
    time_from_start: 
      secs: 0
      nsecs:  25000000
---
header: 
  seq: 76
  stamp: 
    secs: 1737602715
    nsecs: 270791769
  frame_id: ''
joint_names: 
  - joint_1
  - joint_2
  - joint_3
  - joint_4
  - joint_5
  - joint_6
  - tcp_lin
  - tcp_rot
points: 
  - 
    positions: [0.13115617926663647, 0.13115617926663647, -0.13115617926663647, 0.13115617926663647, 0.13115617926663647, 0.13115617926663647, 0.1, 0.1]
    velocities: []
    accelerations: []
    effort: []
    time_from_start: 
      secs: 0
      nsecs:  25000000
---
header: 
  seq: 77
  stamp: 
    secs: 1737602715
    nsecs: 295708417
  frame_id: ''
joint_names: 
  - joint_1
  - joint_2
  - joint_3
  - joint_4
  - joint_5
  - joint_6
  - tcp_lin
  - tcp_rot
points: 
  - 
    positions: [0.1661611588954278, 0.1661611588954278, -0.1661611588954278, 0.1661611588954278, 0.1661611588954278, 0.1661611588954278, 0.1, 0.1]
    velocities: []
    accelerations: []
    effort: []
    time_from_start: 
      secs: 0
      nsecs:  25000000
---
header: 
  seq: 78
  stamp: 
    secs: 1737602715
    nsecs: 321064233
  frame_id: ''
joint_names: 
  - joint_1
  - joint_2
  - joint_3
  - joint_4
  - joint_5
  - joint_6
  - tcp_lin
  - tcp_rot
points: 
  - 
    positions: [0.20486011770031687, 0.20486011770031687, -0.20486011770031687, 0.20486011770031687, 0.20486011770031687, 0.20486011770031687, 0.1, 0.1]
    velocities: []
    accelerations: []
    effort: []
    time_from_start: 
      secs: 0
      nsecs:  25000000
---
header: 
  seq: 79
  stamp: 
    secs: 1737602715
    nsecs: 345634698
  frame_id: ''
joint_names: 
  - joint_1
  - joint_2
  - joint_3
  - joint_4
  - joint_5
  - joint_6
  - tcp_lin
  - tcp_rot
points: 
  - 
    positions: [0.24673155273879582, 0.24673155273879582, -0.24673155273879582, 0.24673155273879582, 0.24673155273879582, 0.24673155273879582, 0.1, 0.1]
    velocities: []
    accelerations: []
    effort: []
    time_from_start: 
      secs: 0
      nsecs:  25000000
---
header: 
  seq: 80
  stamp: 
    secs: 1737602715
    nsecs: 370603322
  frame_id: ''
joint_names: 
  - joint_1
  - joint_2
  - joint_3
  - joint_4
  - joint_5
  - joint_6
  - tcp_lin
  - tcp_rot
points: 
  - 
    positions: [0.2912539610683567, 0.2912539610683567, -0.2912539610683567, 0.2912539610683567, 0.2912539610683567, 0.2912539610683567, 0.1, 0.1]
    velocities: []
    accelerations: []
    effort: []
    time_from_start: 
      secs: 0
      nsecs:  25000000
---
header: 
  seq: 81
  stamp: 
    secs: 1737602715
    nsecs: 395658731
  frame_id: ''
joint_names: 
  - joint_1
  - joint_2
  - joint_3
  - joint_4
  - joint_5
  - joint_6
  - tcp_lin
  - tcp_rot
points: 
  - 
    positions: [0.33790583974649163, 0.33790583974649163, -0.33790583974649163, 0.33790583974649163, 0.33790583974649163, 0.33790583974649163, 0.1, 0.1]
    velocities: []
    accelerations: []
    effort: []
    time_from_start: 
      secs: 0
      nsecs:  25000000
---
header: 
  seq: 82
  stamp: 
    secs: 1737602715
    nsecs: 420801877
  frame_id: ''
joint_names: 
  - joint_1
  - joint_2
  - joint_3
  - joint_4
  - joint_5
  - joint_6
  - tcp_lin
  - tcp_rot
points: 
  - 
    positions: [0.3861656858306926, 0.3861656858306926, -0.3861656858306926, 0.3861656858306926, 0.3861656858306926, 0.3861656858306926, 0.1, 0.1]
    velocities: []
    accelerations: []
    effort: []
    time_from_start: 
      secs: 0
      nsecs:  25000000
---
header: 
  seq: 83
  stamp: 
    secs: 1737602715
    nsecs: 445613384
  frame_id: ''
joint_names: 
  - joint_1
  - joint_2
  - joint_3
  - joint_4
  - joint_5
  - joint_6
  - tcp_lin
  - tcp_rot
points: 
  - 
    positions: [0.4355119963784518, 0.4355119963784518, -0.4355119963784518, 0.4355119963784518, 0.4355119963784518, 0.4355119963784518, 0.1, 0.1]
    velocities: []
    accelerations: []
    effort: []
    time_from_start: 
      secs: 0
      nsecs:  25000000
---
header: 
  seq: 84
  stamp: 
    secs: 1737602715
    nsecs: 470775604
  frame_id: ''
joint_names: 
  - joint_1
  - joint_2
  - joint_3
  - joint_4
  - joint_5
  - joint_6
  - tcp_lin
  - tcp_rot
points: 
  - 
    positions: [0.4854232684472612, 0.4854232684472612, -0.4854232684472612, 0.4854232684472612, 0.4854232684472612, 0.4854232684472612, 0.1, 0.1]
    velocities: []
    accelerations: []
    effort: []
    time_from_start: 
      secs: 0
      nsecs:  25000000
---
header: 
  seq: 85
  stamp: 
    secs: 1737602715
    nsecs: 496162414
  frame_id: ''
joint_names: 
  - joint_1
  - joint_2
  - joint_3
  - joint_4
  - joint_5
  - joint_6
  - tcp_lin
  - tcp_rot
points: 
  - 
    positions: [0.5354232684472612, 0.5354232684472612, -0.5354232684472612, 0.5354232684472612, 0.5354232684472612, 0.5354232684472612, 0.1, 0.1]
    velocities: []
    accelerations: []
    effort: []
    time_from_start: 
      secs: 0
      nsecs:  25000000
---
header: 
  seq: 86
  stamp: 
    secs: 1737602715
    nsecs: 520946264
  frame_id: ''
joint_names: 
  - joint_1
  - joint_2
  - joint_3
  - joint_4
  - joint_5
  - joint_6
  - tcp_lin
  - tcp_rot
points: 
  - 
    positions: [0.5854232684472612, 0.5854232684472612, -0.5854232684472612, 0.5854232684472612, 0.5854232684472612, 0.5854232684472612, 0.1, 0.1]
    velocities: []
    accelerations: []
    effort: []
    time_from_start: 
      secs: 0
      nsecs:  25000000
---
header: 
  seq: 87
  stamp: 
    secs: 1737602715
    nsecs: 545655012
  frame_id: ''
joint_names: 
  - joint_1
  - joint_2
  - joint_3
  - joint_4
  - joint_5
  - joint_6
  - tcp_lin
  - tcp_rot
points: 
  - 
    positions: [0.6354232684472613, 0.6354232684472613, -0.6354232684472613, 0.6354232684472613, 0.6354232684472613, 0.6354232684472613, 0.1, 0.1]
    velocities: []
    accelerations: []
    effort: []
    time_from_start: 
      secs: 0
      nsecs:  25000000
---
header: 
  seq: 88
  stamp: 
    secs: 1737602715
    nsecs: 570746898
  frame_id: ''
joint_names: 
  - joint_1
  - joint_2
  - joint_3
  - joint_4
  - joint_5
  - joint_6
  - tcp_lin
  - tcp_rot
points: 
  - 
    positions: [0.6854232684472613, 0.6854232684472613, -0.6854232684472613, 0.6854232684472613, 0.6854232684472613, 0.6854232684472613, 0.1, 0.1]
    velocities: []
    accelerations: []
    effort: []
    time_from_start: 
      secs: 0
      nsecs:  25000000
---
header: 
  seq: 89
  stamp: 
    secs: 1737602715
    nsecs: 595659494
  frame_id: ''
joint_names: 
  - joint_1
  - joint_2
  - joint_3
  - joint_4
  - joint_5
  - joint_6
  - tcp_lin
  - tcp_rot
points: 
  - 
    positions: [0.7354232684472614, 0.7354232684472614, -0.7354232684472614, 0.7354232684472614, 0.7354232684472614, 0.7354232684472614, 0.1, 0.1]
    velocities: []
    accelerations: []
    effort: []
    time_from_start: 
      secs: 0
      nsecs:  25000000
---
header: 
  seq: 90
  stamp: 
    secs: 1737602715
    nsecs: 621236324
  frame_id: ''
joint_names: 
  - joint_1
  - joint_2
  - joint_3
  - joint_4
  - joint_5
  - joint_6
  - tcp_lin
  - tcp_rot
points: 
  - 
    positions: [0.7854232684472614, 0.7854232684472614, -0.7854232684472614, 0.7854232684472614, 0.7854232684472614, 0.7854232684472614, 0.1, 0.1]
    velocities: []
    accelerations: []
    effort: []
    time_from_start: 
      secs: 0
      nsecs:  25000000
---
header: 
  seq: 91
  stamp: 
    secs: 1737602715
    nsecs: 646280527
  frame_id: ''
joint_names: 
  - joint_1
  - joint_2
  - joint_3
  - joint_4
  - joint_5
  - joint_6
  - tcp_lin
  - tcp_rot
points: 
  - 
    positions: [0.8354232684472614, 0.8354232684472614, -0.8354232684472614, 0.8354232684472614, 0.8354232684472614, 0.8354232684472614, 0.1, 0.1]
    velocities: []
    accelerations: []
    effort: []
    time_from_start: 
      secs: 0
      nsecs:  25000000
---
header: 
  seq: 92
  stamp: 
    secs: 1737602715
    nsecs: 670849084
  frame_id: ''
joint_names: 
  - joint_1
  - joint_2
  - joint_3
  - joint_4
  - joint_5
  - joint_6
  - tcp_lin
  - tcp_rot
points: 
  - 
    positions: [0.8854232684472615, 0.8854232684472615, -0.8854232684472615, 0.8854232684472615, 0.8854232684472615, 0.8854232684472615, 0.1, 0.1]
    velocities: []
    accelerations: []
    effort: []
    time_from_start: 
      secs: 0
      nsecs:  25000000
---
header: 
  seq: 93
  stamp: 
    secs: 1737602715
    nsecs: 695610046
  frame_id: ''
joint_names: 
  - joint_1
  - joint_2
  - joint_3
  - joint_4
  - joint_5
  - joint_6
  - tcp_lin
  - tcp_rot
points: 
  - 
    positions: [0.9353345405160709, 0.9353345405160709, -0.9353345405160709, 0.9353345405160709, 0.9353345405160709, 0.9353345405160709, 0.1, 0.1]
    velocities: []
    accelerations: []
    effort: []
    time_from_start: 
      secs: 0
      nsecs:  25000000
---
header: 
  seq: 94
  stamp: 
    secs: 1737602715
    nsecs: 720599889
  frame_id: ''
joint_names: 
  - joint_1
  - joint_2
  - joint_3
  - joint_4
  - joint_5
  - joint_6
  - tcp_lin
  - tcp_rot
points: 
  - 
    positions: [0.9846808510638301, 0.9846808510638301, -0.9846808510638301, 0.9846808510638301, 0.9846808510638301, 0.9846808510638301, 0.1, 0.1]
    velocities: []
    accelerations: []
    effort: []
    time_from_start: 
      secs: 0
      nsecs:  25000000
---
header: 
  seq: 95
  stamp: 
    secs: 1737602715
    nsecs: 745651483
  frame_id: ''
joint_names: 
  - joint_1
  - joint_2
  - joint_3
  - joint_4
  - joint_5
  - joint_6
  - tcp_lin
  - tcp_rot
points: 
  - 
    positions: [1.032940697148031, 1.032940697148031, -1.032940697148031, 1.032940697148031, 1.032940697148031, 1.032940697148031, 0.1, 0.1]
    velocities: []
    accelerations: []
    effort: []
    time_from_start: 
      secs: 0
      nsecs:  25000000
---
header: 
  seq: 96
  stamp: 
    secs: 1737602715
    nsecs: 770622730
  frame_id: ''
joint_names: 
  - joint_1
  - joint_2
  - joint_3
  - joint_4
  - joint_5
  - joint_6
  - tcp_lin
  - tcp_rot
points: 
  - 
    positions: [1.079592575826166, 1.079592575826166, -1.079592575826166, 1.079592575826166, 1.079592575826166, 1.079592575826166, 0.1, 0.1]
    velocities: []
    accelerations: []
    effort: []
    time_from_start: 
      secs: 0
      nsecs:  25000000
---
header: 
  seq: 97
  stamp: 
    secs: 1737602715
    nsecs: 795619010
  frame_id: ''
joint_names: 
  - joint_1
  - joint_2
  - joint_3
  - joint_4
  - joint_5
  - joint_6
  - tcp_lin
  - tcp_rot
points: 
  - 
    positions: [1.124114984155727, 1.124114984155727, -1.124114984155727, 1.124114984155727, 1.124114984155727, 1.124114984155727, 0.1, 0.1]
    velocities: []
    accelerations: []
    effort: []
    time_from_start: 
      secs: 0
      nsecs:  25000000
---
header: 
  seq: 98
  stamp: 
    secs: 1737602715
    nsecs: 820787906
  frame_id: ''
joint_names: 
  - joint_1
  - joint_2
  - joint_3
  - joint_4
  - joint_5
  - joint_6
  - tcp_lin
  - tcp_rot
points: 
  - 
    positions: [1.165986419194206, 1.165986419194206, -1.165986419194206, 1.165986419194206, 1.165986419194206, 1.165986419194206, 0.1, 0.1]
    velocities: []
    accelerations: []
    effort: []
    time_from_start: 
      secs: 0
      nsecs:  25000000
---
header: 
  seq: 99
  stamp: 
    secs: 1737602715
    nsecs: 845883846
  frame_id: ''
joint_names: 
  - joint_1
  - joint_2
  - joint_3
  - joint_4
  - joint_5
  - joint_6
  - tcp_lin
  - tcp_rot
points: 
  - 
    positions: [1.2046853779990951, 1.2046853779990951, -1.2046853779990951, 1.2046853779990951, 1.2046853779990951, 1.2046853779990951, 0.1, 0.1]
    velocities: []
    accelerations: []
    effort: []
    time_from_start: 
      secs: 0
      nsecs:  25000000
---
header: 
  seq: 100
  stamp: 
    secs: 1737602715
    nsecs: 870629787
  frame_id: ''
joint_names: 
  - joint_1
  - joint_2
  - joint_3
  - joint_4
  - joint_5
  - joint_6
  - tcp_lin
  - tcp_rot
points: 
  - 
    positions: [1.2396903576278864, 1.2396903576278864, -1.2396903576278864, 1.2396903576278864, 1.2396903576278864, 1.2396903576278864, 0.1, 0.1]
    velocities: []
    accelerations: []
    effort: []
    time_from_start: 
      secs: 0
      nsecs:  25000000
---
header: 
  seq: 101
  stamp: 
    secs: 1737602715
    nsecs: 895716667
  frame_id: ''
joint_names: 
  - joint_1
  - joint_2
  - joint_3
  - joint_4
  - joint_5
  - joint_6
  - tcp_lin
  - tcp_rot
points: 
  - 
    positions: [1.270479855138072, 1.270479855138072, -1.270479855138072, 1.270479855138072, 1.270479855138072, 1.270479855138072, 0.1, 0.1]
    velocities: []
    accelerations: []
    effort: []
    time_from_start: 
      secs: 0
      nsecs:  25000000
---
header: 
  seq: 102
  stamp: 
    secs: 1737602715
    nsecs: 921123743
  frame_id: ''
joint_names: 
  - joint_1
  - joint_2
  - joint_3
  - joint_4
  - joint_5
  - joint_6
  - tcp_lin
  - tcp_rot
points: 
  - 
    positions: [1.296532367587144, 1.296532367587144, -1.296532367587144, 1.296532367587144, 1.296532367587144, 1.296532367587144, 0.1, 0.1]
    velocities: []
    accelerations: []
    effort: []
    time_from_start: 
      secs: 0
      nsecs:  25000000
---
header: 
  seq: 103
  stamp: 
    secs: 1737602715
    nsecs: 945803165
  frame_id: ''
joint_names: 
  - joint_1
  - joint_2
  - joint_3
  - joint_4
  - joint_5
  - joint_6
  - tcp_lin
  - tcp_rot
points: 
  - 
    positions: [1.3176532367587148, 1.3176532367587148, -1.3176532367587148, 1.3176532367587148, 1.3176532367587148, 1.3176532367587148, 0.1, 0.1]
    velocities: []
    accelerations: []
    effort: []
    time_from_start: 
      secs: 0
      nsecs:  25000000
---
header: 
  seq: 104
  stamp: 
    secs: 1737602715
    nsecs: 971299409
  frame_id: ''
joint_names: 
  - joint_1
  - joint_2
  - joint_3
  - joint_4
  - joint_5
  - joint_6
  - tcp_lin
  - tcp_rot
points: 
  - 
    positions: [1.3343413309189682, 1.3343413309189682, -1.3343413309189682, 1.3343413309189682, 1.3343413309189682, 1.3343413309189682, 0.1, 0.1]
    velocities: []
    accelerations: []
    effort: []
    time_from_start: 
      secs: 0
      nsecs:  25000000
---
header: 
  seq: 105
  stamp: 
    secs: 1737602715
    nsecs: 995659112
  frame_id: ''
joint_names: 
  - joint_1
  - joint_2
  - joint_3
  - joint_4
  - joint_5
  - joint_6
  - tcp_lin
  - tcp_rot
points: 
  - 
    positions: [1.3471181530104124, 1.3471181530104124, -1.3471181530104124, 1.3471181530104124, 1.3471181530104124, 1.3471181530104124, 0.1, 0.1]
    velocities: []
    accelerations: []
    effort: []
    time_from_start: 
      secs: 0
      nsecs:  25000000
---
header: 
  seq: 106
  stamp: 
    secs: 1737602716
    nsecs:  20604372
  frame_id: ''
joint_names: 
  - joint_1
  - joint_2
  - joint_3
  - joint_4
  - joint_5
  - joint_6
  - tcp_lin
  - tcp_rot
points: 
  - 
    positions: [1.356505205975555, 1.356505205975555, -1.356505205975555, 1.356505205975555, 1.356505205975555, 1.356505205975555, 0.1, 0.1]
    velocities: []
    accelerations: []
    effort: []
    time_from_start: 
      secs: 0
      nsecs:  25000000
---
header: 
  seq: 107
  stamp: 
    secs: 1737602716
    nsecs:  45601129
  frame_id: ''
joint_names: 
  - joint_1
  - joint_2
  - joint_3
  - joint_4
  - joint_5
  - joint_6
  - tcp_lin
  - tcp_rot
points: 
  - 
    positions: [1.363023992756904, 1.363023992756904, -1.363023992756904, 1.363023992756904, 1.363023992756904, 1.363023992756904, 0.1, 0.1]
    velocities: []
    accelerations: []
    effort: []
    time_from_start: 
      secs: 0
      nsecs:  25000000
---
header: 
  seq: 108
  stamp: 
    secs: 1737602716
    nsecs:  70972204
  frame_id: ''
joint_names: 
  - joint_1
  - joint_2
  - joint_3
  - joint_4
  - joint_5
  - joint_6
  - tcp_lin
  - tcp_rot
points: 
  - 
    positions: [1.3671960162969672, 1.3671960162969672, -1.3671960162969672, 1.3671960162969672, 1.3671960162969672, 1.3671960162969672, 0.1, 0.1]
    velocities: []
    accelerations: []
    effort: []
    time_from_start: 
      secs: 0
      nsecs:  25000000
---
header: 
  seq: 109
  stamp: 
    secs: 1737602716
    nsecs:  96227884
  frame_id: ''
joint_names: 
  - joint_1
  - joint_2
  - joint_3
  - joint_4
  - joint_5
  - joint_6
  - tcp_lin
  - tcp_rot
points: 
  - 
    positions: [1.3695427795382529, 1.3695427795382529, -1.3695427795382529, 1.3695427795382529, 1.3695427795382529, 1.3695427795382529, 0.1, 0.1]
    velocities: []
    accelerations: []
    effort: []
    time_from_start: 
      secs: 0
      nsecs:  25000000
---
header: 
  seq: 110
  stamp: 
    secs: 1737602716
    nsecs: 120656967
  frame_id: ''
joint_names: 
  - joint_1
  - joint_2
  - joint_3
  - joint_4
  - joint_5
  - joint_6
  - tcp_lin
  - tcp_rot
points: 
  - 
    positions: [1.3705857854232688, 1.3705857854232688, -1.3705857854232688, 1.3705857854232688, 1.3705857854232688, 1.3705857854232688, 0.1, 0.1]
    velocities: []
    accelerations: []
    effort: []
    time_from_start: 
      secs: 0
      nsecs:  25000000
---
header: 
  seq: 111
  stamp: 
    secs: 1737602716
    nsecs: 145597219
  frame_id: ''
joint_names: 
  - joint_1
  - joint_2
  - joint_3
  - joint_4
  - joint_5
  - joint_6
  - tcp_lin
  - tcp_rot
points: 
  - 
    positions: [1.3708465368945228, 1.3708465368945228, -1.3708465368945228, 1.3708465368945228, 1.3708465368945228, 1.3708465368945228, 0.1, 0.1]
    velocities: []
    accelerations: []
    effort: []
    time_from_start: 
      secs: 0
      nsecs:  25000000
---
header: 
  seq: 112
  stamp: 
    secs: 1737602716
    nsecs: 170853853
  frame_id: ''
joint_names: 
  - joint_1
  - joint_2
  - joint_3
  - joint_4
  - joint_5
  - joint_6
  - tcp_lin
  - tcp_rot
points: 
  - 
    positions: [1.3708465368945228, 1.3708465368945228, -1.3708465368945228, 1.3708465368945228, 1.3708465368945228, 1.3708465368945228, 0.1, 0.1]
    velocities: []
    accelerations: []
    effort: []
    time_from_start: 
      secs: 0
      nsecs:  25000000
---
header: 
  seq: 113
  stamp: 
    secs: 1737602716
    nsecs: 195884227
  frame_id: ''
joint_names: 
  - joint_1
  - joint_2
  - joint_3
  - joint_4
  - joint_5
  - joint_6
  - tcp_lin
  - tcp_rot
points: 
  - 
    positions: [1.3708465368945228, 1.3708465368945228, -1.3708465368945228, 1.3708465368945228, 1.3708465368945228, 1.3708465368945228, 0.1, 0.1]
    velocities: []
    accelerations: []
    effort: []
    time_from_start: 
      secs: 0
      nsecs:  25000000
---
header: 
  seq: 114
  stamp: 
    secs: 1737602717
    nsecs: 220971345
  frame_id: ''
joint_names: 
  - joint_1
  - joint_2
  - joint_3
  - joint_4
  - joint_5
  - joint_6
  - tcp_lin
  - tcp_rot
points: 
  - 
    positions: [0.0, 0.0, 0.0, 0.0, 0.0, 0.0, 0.1, 0.1]
    velocities: []
    accelerations: []
    effort: []
    time_from_start: 
      secs: 3
      nsecs:         0
---
header: 
  seq: 115
  stamp: 
    secs: 1737602722
    nsecs: 224197626
  frame_id: ''
joint_names: 
  - joint_1
  - joint_2
  - joint_3
  - joint_4
  - joint_5
  - joint_6
  - tcp_lin
  - tcp_rot
points: 
  - 
    positions: [0.0, 0.0, -0.0, 0.0, 0.0, 0.0, 0.1, 0.1]
    velocities: []
    accelerations: []
    effort: []
    time_from_start: 
      secs: 0
      nsecs:  20000000
---
header: 
  seq: 116
  stamp: 
    secs: 1737602722
    nsecs: 244439840
  frame_id: ''
joint_names: 
  - joint_1
  - joint_2
  - joint_3
  - joint_4
  - joint_5
  - joint_6
  - tcp_lin
  - tcp_rot
points: 
  - 
    positions: [0.00013237575409365124, 0.00013237575409365124, -0.00013237575409365124, 0.00013237575409365124, 0.00013237575409365124, 0.00013237575409365124, 0.1, 0.1]
    velocities: []
    accelerations: []
    effort: []
    time_from_start: 
      secs: 0
      nsecs:  20000000
---
header: 
  seq: 117
  stamp: 
    secs: 1737602722
    nsecs: 264343738
  frame_id: ''
joint_names: 
  - joint_1
  - joint_2
  - joint_3
  - joint_4
  - joint_5
  - joint_6
  - tcp_lin
  - tcp_rot
points: 
  - 
    positions: [0.0006618787704682562, 0.0006618787704682562, -0.0006618787704682562, 0.0006618787704682562, 0.0006618787704682562, 0.0006618787704682562, 0.1, 0.1]
    velocities: []
    accelerations: []
    effort: []
    time_from_start: 
      secs: 0
      nsecs:  20000000
---
header: 
  seq: 118
  stamp: 
    secs: 1737602722
    nsecs: 284323930
  frame_id: ''
joint_names: 
  - joint_1
  - joint_2
  - joint_3
  - joint_4
  - joint_5
  - joint_6
  - tcp_lin
  - tcp_rot
points: 
  - 
    positions: [0.0018532605573111172, 0.0018532605573111172, -0.0018532605573111172, 0.0018532605573111172, 0.0018532605573111172, 0.0018532605573111172, 0.1, 0.1]
    velocities: []
    accelerations: []
    effort: []
    time_from_start: 
      secs: 0
      nsecs:  20000000
---
header: 
  seq: 119
  stamp: 
    secs: 1737602722
    nsecs: 304368495
  frame_id: ''
joint_names: 
  - joint_1
  - joint_2
  - joint_3
  - joint_4
  - joint_5
  - joint_6
  - tcp_lin
  - tcp_rot
points: 
  - 
    positions: [0.003971272622809537, 0.003971272622809537, -0.003971272622809537, 0.003971272622809537, 0.003971272622809537, 0.003971272622809537, 0.1, 0.1]
    velocities: []
    accelerations: []
    effort: []
    time_from_start: 
      secs: 0
      nsecs:  20000000
---
header: 
  seq: 120
  stamp: 
    secs: 1737602722
    nsecs: 324370622
  frame_id: ''
joint_names: 
  - joint_1
  - joint_2
  - joint_3
  - joint_4
  - joint_5
  - joint_6
  - tcp_lin
  - tcp_rot
points: 
  - 
    positions: [0.007280666475150818, 0.007280666475150818, -0.007280666475150818, 0.007280666475150818, 0.007280666475150818, 0.007280666475150818, 0.1, 0.1]
    velocities: []
    accelerations: []
    effort: []
    time_from_start: 
      secs: 0
      nsecs:  20000000
---
header: 
  seq: 121
  stamp: 
    secs: 1737602722
    nsecs: 344331264
  frame_id: ''
joint_names: 
  - joint_1
  - joint_2
  - joint_3
  - joint_4
  - joint_5
  - joint_6
  - tcp_lin
  - tcp_rot
points: 
  - 
    positions: [0.012046193622522263, 0.012046193622522263, -0.012046193622522263, 0.012046193622522263, 0.012046193622522263, 0.012046193622522263, 0.1, 0.1]
    velocities: []
    accelerations: []
    effort: []
    time_from_start: 
      secs: 0
      nsecs:  20000000
---
header: 
  seq: 122
  stamp: 
    secs: 1737602722
    nsecs: 364330768
  frame_id: ''
joint_names: 
  - joint_1
  - joint_2
  - joint_3
  - joint_4
  - joint_5
  - joint_6
  - tcp_lin
  - tcp_rot
points: 
  - 
    positions: [0.018532605573111174, 0.018532605573111174, -0.018532605573111174, 0.018532605573111174, 0.018532605573111174, 0.018532605573111174, 0.1, 0.1]
    velocities: []
    accelerations: []
    effort: []
    time_from_start: 
      secs: 0
      nsecs:  20000000
---
header: 
  seq: 123
  stamp: 
    secs: 1737602722
    nsecs: 384316444
  frame_id: ''
joint_names: 
  - joint_1
  - joint_2
  - joint_3
  - joint_4
  - joint_5
  - joint_6
  - tcp_lin
  - tcp_rot
points: 
  - 
    positions: [0.027004653835104853, 0.027004653835104853, -0.027004653835104853, 0.027004653835104853, 0.027004653835104853, 0.027004653835104853, 0.1, 0.1]
    velocities: []
    accelerations: []
    effort: []
    time_from_start: 
      secs: 0
      nsecs:  20000000
---
header: 
  seq: 124
  stamp: 
    secs: 1737602722
    nsecs: 404792070
  frame_id: ''
joint_names: 
  - joint_1
  - joint_2
  - joint_3
  - joint_4
  - joint_5
  - joint_6
  - tcp_lin
  - tcp_rot
points: 
  - 
    positions: [0.037727089916690604, 0.037727089916690604, -0.037727089916690604, 0.037727089916690604, 0.037727089916690604, 0.037727089916690604, 0.1, 0.1]
    velocities: []
    accelerations: []
    effort: []
    time_from_start: 
      secs: 0
      nsecs:  20000000
---
header: 
  seq: 125
  stamp: 
    secs: 1737602722
    nsecs: 424572706
  frame_id: ''
joint_names: 
  - joint_1
  - joint_2
  - joint_3
  - joint_4
  - joint_5
  - joint_6
  - tcp_lin
  - tcp_rot
points: 
  - 
    positions: [0.05096466532605573, 0.05096466532605573, -0.05096466532605573, 0.05096466532605573, 0.05096466532605573, 0.05096466532605573, 0.1, 0.1]
    velocities: []
    accelerations: []
    effort: []
    time_from_start: 
      secs: 0
      nsecs:  20000000
---
header: 
  seq: 126
  stamp: 
    secs: 1737602722
    nsecs: 444292545
  frame_id: ''
joint_names: 
  - joint_1
  - joint_2
  - joint_3
  - joint_4
  - joint_5
  - joint_6
  - tcp_lin
  - tcp_rot
points: 
  - 
    positions: [0.06698213157138752, 0.06698213157138752, -0.06698213157138752, 0.06698213157138752, 0.06698213157138752, 0.06698213157138752, 0.1, 0.1]
    velocities: []
    accelerations: []
    effort: []
    time_from_start: 
      secs: 0
      nsecs:  20000000
---
header: 
  seq: 127
  stamp: 
    secs: 1737602722
    nsecs: 464534282
  frame_id: ''
joint_names: 
  - joint_1
  - joint_2
  - joint_3
  - joint_4
  - joint_5
  - joint_6
  - tcp_lin
  - tcp_rot
points: 
  - 
    positions: [0.0860442401608733, 0.0860442401608733, -0.0860442401608733, 0.0860442401608733, 0.0860442401608733, 0.0860442401608733, 0.1, 0.1]
    velocities: []
    accelerations: []
    effort: []
    time_from_start: 
      secs: 0
      nsecs:  20000000
---
header: 
  seq: 128
