header: 
  seq: 1
  stamp: 
    secs: 1737603602
    nsecs: 981170654
  frame_id: ''
joint_names: 
  - joint_1
  - joint_2
  - joint_3
  - joint_4
  - joint_5
  - joint_6
  - tcp_lin
  - tcp_rot
points: 
  - 
    positions: [0.0, 0.0, -0.0, 0.0, 0.0, 0.0, 0.1, 0.1]
    velocities: []
    accelerations: []
    effort: []
    time_from_start: 
      secs: 0
      nsecs:  50000000
---
header: 
  seq: 2
  stamp: 
    secs: 1737603603
    nsecs:  31252384
  frame_id: ''
joint_names: 
  - joint_1
  - joint_2
  - joint_3
  - joint_4
  - joint_5
  - joint_6
  - tcp_lin
  - tcp_rot
points: 
  - 
    positions: [7.652280379553107e-05, 7.652280379553107e-05, -7.652280379553107e-05, 7.652280379553107e-05, 7.652280379553107e-05, 7.652280379553107e-05, 0.1, 0.1]
    velocities: []
    accelerations: []
    effort: []
    time_from_start: 
      secs: 0
      nsecs:  50000000
---
header: 
  seq: 3
  stamp: 
    secs: 1737603603
    nsecs:  81246614
  frame_id: ''
joint_names: 
  - joint_1
  - joint_2
  - joint_3
  - joint_4
  - joint_5
  - joint_6
  - tcp_lin
  - tcp_rot
points: 
  - 
    positions: [0.00038261401897765536, 0.00038261401897765536, -0.00038261401897765536, 0.00038261401897765536, 0.00038261401897765536, 0.00038261401897765536, 0.1, 0.1]
    velocities: []
    accelerations: []
    effort: []
    time_from_start: 
      secs: 0
      nsecs:  50000000
---
header: 
  seq: 4
  stamp: 
    secs: 1737603603
    nsecs: 131256103
  frame_id: ''
joint_names: 
  - joint_1
  - joint_2
  - joint_3
  - joint_4
  - joint_5
  - joint_6
  - tcp_lin
  - tcp_rot
points: 
  - 
    positions: [0.0010713192531374349, 0.0010713192531374349, -0.0010713192531374349, 0.0010713192531374349, 0.0010713192531374349, 0.0010713192531374349, 0.1, 0.1]
    velocities: []
    accelerations: []
    effort: []
    time_from_start: 
      secs: 0
      nsecs:  50000000
---
header: 
  seq: 5
  stamp: 
    secs: 1737603603
    nsecs: 181252002
  frame_id: ''
joint_names: 
  - joint_1
  - joint_2
  - joint_3
  - joint_4
  - joint_5
  - joint_6
  - tcp_lin
  - tcp_rot
points: 
  - 
    positions: [0.002295684113865932, 0.002295684113865932, -0.002295684113865932, 0.002295684113865932, 0.002295684113865932, 0.002295684113865932, 0.1, 0.1]
    velocities: []
    accelerations: []
    effort: []
    time_from_start: 
      secs: 0
      nsecs:  50000000
---
header: 
  seq: 6
  stamp: 
    secs: 1737603603
    nsecs: 231334686
  frame_id: ''
joint_names: 
  - joint_1
  - joint_2
  - joint_3
  - joint_4
  - joint_5
  - joint_6
  - tcp_lin
  - tcp_rot
points: 
  - 
    positions: [0.00420856290174472, 0.00420856290174472, -0.00420856290174472, 0.00420856290174472, 0.00420856290174472, 0.00420856290174472, 0.1, 0.1]
    velocities: []
    accelerations: []
    effort: []
    time_from_start: 
      secs: 0
      nsecs:  50000000
---
header: 
  seq: 7
  stamp: 
    secs: 1737603603
    nsecs: 281376600
  frame_id: ''
joint_names: 
  - joint_1
  - joint_2
  - joint_3
  - joint_4
  - joint_5
  - joint_6
  - tcp_lin
  - tcp_rot
points: 
  - 
    positions: [0.006879017447199265, 0.006879017447199265, -0.006879017447199265, 0.006879017447199265, 0.006879017447199265, 0.006879017447199265, 0.1, 0.1]
    velocities: []
    accelerations: []
    effort: []
    time_from_start: 
      secs: 0
      nsecs:  50000000
---
header: 
  seq: 8
  stamp: 
    secs: 1737603603
    nsecs: 331402301
  frame_id: ''
joint_names: 
  - joint_1
  - joint_2
  - joint_3
  - joint_4
  - joint_5
  - joint_6
  - tcp_lin
  - tcp_rot
points: 
  - 
    positions: [0.010307047750229567, 0.010307047750229567, -0.010307047750229567, 0.010307047750229567, 0.010307047750229567, 0.010307047750229567, 0.1, 0.1]
    velocities: []
    accelerations: []
    effort: []
    time_from_start: 
      secs: 0
      nsecs:  50000000
---
header: 
  seq: 9
  stamp: 
    secs: 1737603603
    nsecs: 381748914
  frame_id: ''
joint_names: 
  - joint_1
  - joint_2
  - joint_3
  - joint_4
  - joint_5
  - joint_6
  - tcp_lin
  - tcp_rot
points: 
  - 
    positions: [0.014492653810835629, 0.014492653810835629, -0.014492653810835629, 0.014492653810835629, 0.014492653810835629, 0.014492653810835629, 0.1, 0.1]
    velocities: []
    accelerations: []
    effort: []
    time_from_start: 
      secs: 0
      nsecs:  50000000
---
header: 
  seq: 10
  stamp: 
    secs: 1737603603
    nsecs: 432032585
  frame_id: ''
joint_names: 
  - joint_1
  - joint_2
  - joint_3
  - joint_4
  - joint_5
  - joint_6
  - tcp_lin
  - tcp_rot
points: 
  - 
    positions: [0.019435835629017448, 0.019435835629017448, -0.019435835629017448, 0.019435835629017448, 0.019435835629017448, 0.019435835629017448, 0.1, 0.1]
    velocities: []
    accelerations: []
    effort: []
    time_from_start: 
      secs: 0
      nsecs:  50000000
---
header: 
  seq: 11
  stamp: 
    secs: 1737603603
    nsecs: 481558799
  frame_id: ''
joint_names: 
  - joint_1
  - joint_2
  - joint_3
  - joint_4
  - joint_5
  - joint_6
  - tcp_lin
  - tcp_rot
points: 
  - 
    positions: [0.025136593204775022, 0.025136593204775022, -0.025136593204775022, 0.025136593204775022, 0.025136593204775022, 0.025136593204775022, 0.1, 0.1]
    velocities: []
    accelerations: []
    effort: []
    time_from_start: 
      secs: 0
      nsecs:  50000000
---
header: 
  seq: 12
  stamp: 
    secs: 1737603603
    nsecs: 531253099
  frame_id: ''
joint_names: 
  - joint_1
  - joint_2
  - joint_3
  - joint_4
  - joint_5
  - joint_6
  - tcp_lin
  - tcp_rot
points: 
  - 
    positions: [0.03159492653810836, 0.03159492653810836, -0.03159492653810836, 0.03159492653810836, 0.03159492653810836, 0.03159492653810836, 0.1, 0.1]
    velocities: []
    accelerations: []
    effort: []
    time_from_start: 
      secs: 0
      nsecs:  50000000
---
header: 
  seq: 13
  stamp: 
    secs: 1737603603
    nsecs: 581264734
  frame_id: ''
joint_names: 
  - joint_1
  - joint_2
  - joint_3
  - joint_4
  - joint_5
  - joint_6
  - tcp_lin
  - tcp_rot
points: 
  - 
    positions: [0.03881083562901745, 0.03881083562901745, -0.03881083562901745, 0.03881083562901745, 0.03881083562901745, 0.03881083562901745, 0.1, 0.1]
    velocities: []
    accelerations: []
    effort: []
    time_from_start: 
      secs: 0
      nsecs:  50000000
---
header: 
  seq: 14
  stamp: 
    secs: 1737603603
    nsecs: 631255149
  frame_id: ''
joint_names: 
  - joint_1
  - joint_2
  - joint_3
  - joint_4
  - joint_5
  - joint_6
  - tcp_lin
  - tcp_rot
points: 
  - 
    positions: [0.0467843204775023, 0.0467843204775023, -0.0467843204775023, 0.0467843204775023, 0.0467843204775023, 0.0467843204775023, 0.1, 0.1]
    velocities: []
    accelerations: []
    effort: []
    time_from_start: 
      secs: 0
      nsecs:  50000000
---
header: 
  seq: 15
  stamp: 
    secs: 1737603603
    nsecs: 681400060
  frame_id: ''
joint_names: 
  - joint_1
  - joint_2
  - joint_3
  - joint_4
  - joint_5
  - joint_6
  - tcp_lin
  - tcp_rot
points: 
  - 
    positions: [0.05551538108356291, 0.05551538108356291, -0.05551538108356291, 0.05551538108356291, 0.05551538108356291, 0.05551538108356291, 0.1, 0.1]
    velocities: []
    accelerations: []
    effort: []
    time_from_start: 
      secs: 0
      nsecs:  50000000
---
header: 
  seq: 16
  stamp: 
    secs: 1737603603
    nsecs: 731801509
  frame_id: ''
joint_names: 
  - joint_1
  - joint_2
  - joint_3
  - joint_4
  - joint_5
  - joint_6
  - tcp_lin
  - tcp_rot
points: 
  - 
    positions: [0.06500401744719927, 0.06500401744719927, -0.06500401744719927, 0.06500401744719927, 0.06500401744719927, 0.06500401744719927, 0.1, 0.1]
    velocities: []
    accelerations: []
    effort: []
    time_from_start: 
      secs: 0
      nsecs:  50000000
---
header: 
  seq: 17
  stamp: 
    secs: 1737603603
    nsecs: 781693935
  frame_id: ''
joint_names: 
  - joint_1
  - joint_2
  - joint_3
  - joint_4
  - joint_5
  - joint_6
  - tcp_lin
  - tcp_rot
points: 
  - 
    positions: [0.0752502295684114, 0.0752502295684114, -0.0752502295684114, 0.0752502295684114, 0.0752502295684114, 0.0752502295684114, 0.1, 0.1]
    velocities: []
    accelerations: []
    effort: []
    time_from_start: 
      secs: 0
      nsecs:  50000000
---
header: 
  seq: 18
  stamp: 
    secs: 1737603603
    nsecs: 831240653
  frame_id: ''
joint_names: 
  - joint_1
  - joint_2
  - joint_3
  - joint_4
  - joint_5
  - joint_6
  - tcp_lin
  - tcp_rot
points: 
  - 
    positions: [0.08625401744719928, 0.08625401744719928, -0.08625401744719928, 0.08625401744719928, 0.08625401744719928, 0.08625401744719928, 0.1, 0.1]
    velocities: []
    accelerations: []
    effort: []
    time_from_start: 
      secs: 0
      nsecs:  50000000
---
header: 
  seq: 19
  stamp: 
    secs: 1737603603
    nsecs: 881244421
  frame_id: ''
joint_names: 
  - joint_1
  - joint_2
  - joint_3
  - joint_4
  - joint_5
  - joint_6
  - tcp_lin
  - tcp_rot
points: 
  - 
    positions: [0.09801538108356292, 0.09801538108356292, -0.09801538108356292, 0.09801538108356292, 0.09801538108356292, 0.09801538108356292, 0.1, 0.1]
    velocities: []
    accelerations: []
    effort: []
    time_from_start: 
      secs: 0
      nsecs:  50000000
---
header: 
  seq: 20
  stamp: 
    secs: 1737603603
    nsecs: 931290388
  frame_id: ''
joint_names: 
  - joint_1
  - joint_2
  - joint_3
  - joint_4
  - joint_5
  - joint_6
  - tcp_lin
  - tcp_rot
points: 
  - 
    positions: [0.1105343204775023, 0.1105343204775023, -0.1105343204775023, 0.1105343204775023, 0.1105343204775023, 0.1105343204775023, 0.1, 0.1]
    velocities: []
    accelerations: []
    effort: []
    time_from_start: 
      secs: 0
      nsecs:  50000000
---
header: 
  seq: 21
  stamp: 
    secs: 1737603603
    nsecs: 981481313
  frame_id: ''
joint_names: 
  - joint_1
  - joint_2
  - joint_3
  - joint_4
  - joint_5
  - joint_6
  - tcp_lin
  - tcp_rot
points: 
  - 
    positions: [0.12380777471686563, 0.12380777471686563, -0.12380777471686563, 0.12380777471686563, 0.12380777471686563, 0.12380777471686563, 0.1, 0.1]
    velocities: []
    accelerations: []
    effort: []
    time_from_start: 
      secs: 0
      nsecs:  50000000
---
header: 
  seq: 22
  stamp: 
    secs: 1737603604
    nsecs:  31386852
  frame_id: ''
joint_names: 
  - joint_1
  - joint_2
  - joint_3
  - joint_4
  - joint_5
  - joint_6
  - tcp_lin
  - tcp_rot
points: 
  - 
    positions: [0.13773167278849097, 0.13773167278849097, -0.13773167278849097, 0.13773167278849097, 0.13773167278849097, 0.13773167278849097, 0.1, 0.1]
    velocities: []
    accelerations: []
    effort: []
    time_from_start: 
      secs: 0
      nsecs:  50000000
---
header: 
  seq: 23
  stamp: 
    secs: 1737603604
    nsecs:  81450462
  frame_id: ''
joint_names: 
  - joint_1
  - joint_2
  - joint_3
  - joint_4
  - joint_5
  - joint_6
  - tcp_lin
  - tcp_rot
points: 
  - 
    positions: [0.15215296908478726, 0.15215296908478726, -0.15215296908478726, 0.15215296908478726, 0.15215296908478726, 0.15215296908478726, 0.1, 0.1]
    velocities: []
    accelerations: []
    effort: []
    time_from_start: 
      secs: 0
      nsecs:  50000000
---
header: 
  seq: 24
  stamp: 
    secs: 1737603604
    nsecs: 131570100
  frame_id: ''
joint_names: 
  - joint_1
  - joint_2
  - joint_3
  - joint_4
  - joint_5
  - joint_6
  - tcp_lin
  - tcp_rot
points: 
  - 
    positions: [0.16691861799816343, 0.16691861799816343, -0.16691861799816343, 0.16691861799816343, 0.16691861799816343, 0.16691861799816343, 0.1, 0.1]
    velocities: []
    accelerations: []
    effort: []
    time_from_start: 
      secs: 0
      nsecs:  50000000
---
header: 
  seq: 25
  stamp: 
    secs: 1737603604
    nsecs: 181252002
  frame_id: ''
joint_names: 
  - joint_1
  - joint_2
  - joint_3
  - joint_4
  - joint_5
  - joint_6
  - tcp_lin
  - tcp_rot
points: 
  - 
    positions: [0.18187557392102843, 0.18187557392102843, -0.18187557392102843, 0.18187557392102843, 0.18187557392102843, 0.18187557392102843, 0.1, 0.1]
    velocities: []
    accelerations: []
    effort: []
    time_from_start: 
      secs: 0
      nsecs:  50000000
---
header: 
  seq: 26
  stamp: 
    secs: 1737603604
    nsecs: 231291532
  frame_id: ''
joint_names: 
  - joint_1
  - joint_2
  - joint_3
  - joint_4
  - joint_5
  - joint_6
  - tcp_lin
  - tcp_rot
points: 
  - 
    positions: [0.19687557392102845, 0.19687557392102845, -0.19687557392102845, 0.19687557392102845, 0.19687557392102845, 0.19687557392102845, 0.1, 0.1]
    velocities: []
    accelerations: []
    effort: []
    time_from_start: 
      secs: 0
      nsecs:  50000000
---
header: 
  seq: 27
  stamp: 
    secs: 1737603604
    nsecs: 281270742
  frame_id: ''
joint_names: 
  - joint_1
  - joint_2
  - joint_3
  - joint_4
  - joint_5
  - joint_6
  - tcp_lin
  - tcp_rot
points: 
  - 
    positions: [0.21187557392102846, 0.21187557392102846, -0.21187557392102846, 0.21187557392102846, 0.21187557392102846, 0.21187557392102846, 0.1, 0.1]
    velocities: []
    accelerations: []
    effort: []
    time_from_start: 
      secs: 0
      nsecs:  50000000
---
header: 
  seq: 28
  stamp: 
    secs: 1737603604
    nsecs: 331260681
  frame_id: ''
joint_names: 
  - joint_1
  - joint_2
  - joint_3
  - joint_4
  - joint_5
  - joint_6
  - tcp_lin
  - tcp_rot
points: 
  - 
    positions: [0.22687557392102847, 0.22687557392102847, -0.22687557392102847, 0.22687557392102847, 0.22687557392102847, 0.22687557392102847, 0.1, 0.1]
    velocities: []
    accelerations: []
    effort: []
    time_from_start: 
      secs: 0
      nsecs:  50000000
---
header: 
  seq: 29
  stamp: 
    secs: 1737603604
    nsecs: 381264925
  frame_id: ''
joint_names: 
  - joint_1
  - joint_2
  - joint_3
  - joint_4
  - joint_5
  - joint_6
  - tcp_lin
  - tcp_rot
points: 
  - 
    positions: [0.24187557392102849, 0.24187557392102849, -0.24187557392102849, 0.24187557392102849, 0.24187557392102849, 0.24187557392102849, 0.1, 0.1]
    velocities: []
    accelerations: []
    effort: []
    time_from_start: 
      secs: 0
      nsecs:  50000000
---
header: 
  seq: 30
  stamp: 
    secs: 1737603604
    nsecs: 431259155
  frame_id: ''
joint_names: 
  - joint_1
  - joint_2
  - joint_3
  - joint_4
  - joint_5
  - joint_6
  - tcp_lin
  - tcp_rot
points: 
  - 
    positions: [0.2568755739210285, 0.2568755739210285, -0.2568755739210285, 0.2568755739210285, 0.2568755739210285, 0.2568755739210285, 0.1, 0.1]
    velocities: []
    accelerations: []
    effort: []
    time_from_start: 
      secs: 0
      nsecs:  50000000
---
header: 
  seq: 31
  stamp: 
    secs: 1737603604
    nsecs: 481373071
  frame_id: ''
joint_names: 
  - joint_1
  - joint_2
  - joint_3
  - joint_4
  - joint_5
  - joint_6
  - tcp_lin
  - tcp_rot
points: 
  - 
    positions: [0.2718755739210285, 0.2718755739210285, -0.2718755739210285, 0.2718755739210285, 0.2718755739210285, 0.2718755739210285, 0.1, 0.1]
    velocities: []
    accelerations: []
    effort: []
    time_from_start: 
      secs: 0
      nsecs:  50000000
---
header: 
  seq: 32
  stamp: 
    secs: 1737603604
    nsecs: 531260251
  frame_id: ''
joint_names: 
  - joint_1
  - joint_2
  - joint_3
  - joint_4
  - joint_5
  - joint_6
  - tcp_lin
  - tcp_rot
points: 
  - 
    positions: [0.2868755739210285, 0.2868755739210285, -0.2868755739210285, 0.2868755739210285, 0.2868755739210285, 0.2868755739210285, 0.1, 0.1]
    velocities: []
    accelerations: []
    effort: []
    time_from_start: 
      secs: 0
      nsecs:  50000000
---
header: 
  seq: 33
  stamp: 
    secs: 1737603604
    nsecs: 581266164
  frame_id: ''
joint_names: 
  - joint_1
  - joint_2
  - joint_3
  - joint_4
  - joint_5
  - joint_6
  - tcp_lin
  - tcp_rot
points: 
  - 
    positions: [0.30187557392102854, 0.30187557392102854, -0.30187557392102854, 0.30187557392102854, 0.30187557392102854, 0.30187557392102854, 0.1, 0.1]
    velocities: []
    accelerations: []
    effort: []
    time_from_start: 
      secs: 0
      nsecs:  50000000
---
header: 
  seq: 34
  stamp: 
    secs: 1737603604
    nsecs: 631270885
  frame_id: ''
joint_names: 
  - joint_1
  - joint_2
  - joint_3
  - joint_4
  - joint_5
  - joint_6
  - tcp_lin
  - tcp_rot
points: 
  - 
    positions: [0.31687557392102855, 0.31687557392102855, -0.31687557392102855, 0.31687557392102855, 0.31687557392102855, 0.31687557392102855, 0.1, 0.1]
    velocities: []
    accelerations: []
    effort: []
    time_from_start: 
      secs: 0
      nsecs:  50000000
---
header: 
  seq: 35
  stamp: 
    secs: 1737603604
    nsecs: 681254863
  frame_id: ''
joint_names: 
  - joint_1
  - joint_2
  - joint_3
  - joint_4
  - joint_5
  - joint_6
  - tcp_lin
  - tcp_rot
points: 
  - 
    positions: [0.33187557392102857, 0.33187557392102857, -0.33187557392102857, 0.33187557392102857, 0.33187557392102857, 0.33187557392102857, 0.1, 0.1]
    velocities: []
    accelerations: []
    effort: []
    time_from_start: 
      secs: 0
      nsecs:  50000000
---
header: 
  seq: 36
  stamp: 
    secs: 1737603604
    nsecs: 731273412
  frame_id: ''
joint_names: 
  - joint_1
  - joint_2
  - joint_3
  - joint_4
  - joint_5
  - joint_6
  - tcp_lin
  - tcp_rot
points: 
  - 
    positions: [0.3468755739210286, 0.3468755739210286, -0.3468755739210286, 0.3468755739210286, 0.3468755739210286, 0.3468755739210286, 0.1, 0.1]
    velocities: []
    accelerations: []
    effort: []
    time_from_start: 
      secs: 0
      nsecs:  50000000
---
header: 
  seq: 37
  stamp: 
    secs: 1737603604
    nsecs: 781240463
  frame_id: ''
joint_names: 
  - joint_1
  - joint_2
  - joint_3
  - joint_4
  - joint_5
  - joint_6
  - tcp_lin
  - tcp_rot
points: 
  - 
    positions: [0.3618755739210286, 0.3618755739210286, -0.3618755739210286, 0.3618755739210286, 0.3618755739210286, 0.3618755739210286, 0.1, 0.1]
    velocities: []
    accelerations: []
    effort: []
    time_from_start: 
      secs: 0
      nsecs:  50000000
---
header: 
  seq: 38
  stamp: 
    secs: 1737603604
    nsecs: 831270933
  frame_id: ''
joint_names: 
  - joint_1
  - joint_2
  - joint_3
  - joint_4
  - joint_5
  - joint_6
  - tcp_lin
  - tcp_rot
points: 
  - 
    positions: [0.3768755739210286, 0.3768755739210286, -0.3768755739210286, 0.3768755739210286, 0.3768755739210286, 0.3768755739210286, 0.1, 0.1]
    velocities: []
    accelerations: []
    effort: []
    time_from_start: 
      secs: 0
      nsecs:  50000000
---
header: 
  seq: 39
  stamp: 
    secs: 1737603604
    nsecs: 881568431
  frame_id: ''
joint_names: 
  - joint_1
  - joint_2
  - joint_3
  - joint_4
  - joint_5
  - joint_6
  - tcp_lin
  - tcp_rot
points: 
  - 
    positions: [0.3918755739210286, 0.3918755739210286, -0.3918755739210286, 0.3918755739210286, 0.3918755739210286, 0.3918755739210286, 0.1, 0.1]
    velocities: []
    accelerations: []
    effort: []
    time_from_start: 
      secs: 0
      nsecs:  50000000
---
header: 
  seq: 40
  stamp: 
    secs: 1737603604
    nsecs: 931560277
  frame_id: ''
joint_names: 
  - joint_1
  - joint_2
  - joint_3
  - joint_4
  - joint_5
  - joint_6
  - tcp_lin
  - tcp_rot
points: 
  - 
    positions: [0.40687557392102863, 0.40687557392102863, -0.40687557392102863, 0.40687557392102863, 0.40687557392102863, 0.40687557392102863, 0.1, 0.1]
    velocities: []
    accelerations: []
    effort: []
    time_from_start: 
      secs: 0
      nsecs:  50000000
---
header: 
  seq: 41
  stamp: 
    secs: 1737603604
    nsecs: 981220722
  frame_id: ''
joint_names: 
  - joint_1
  - joint_2
  - joint_3
  - joint_4
  - joint_5
  - joint_6
  - tcp_lin
  - tcp_rot
points: 
  - 
    positions: [0.42187557392102865, 0.42187557392102865, -0.42187557392102865, 0.42187557392102865, 0.42187557392102865, 0.42187557392102865, 0.1, 0.1]
    velocities: []
    accelerations: []
    effort: []
    time_from_start: 
      secs: 0
      nsecs:  50000000
---
header: 
  seq: 42
  stamp: 
    secs: 1737603605
    nsecs:  31257629
  frame_id: ''
joint_names: 
  - joint_1
  - joint_2
  - joint_3
  - joint_4
  - joint_5
  - joint_6
  - tcp_lin
  - tcp_rot
points: 
  - 
    positions: [0.43687557392102866, 0.43687557392102866, -0.43687557392102866, 0.43687557392102866, 0.43687557392102866, 0.43687557392102866, 0.1, 0.1]
    velocities: []
    accelerations: []
    effort: []
    time_from_start: 
      secs: 0
      nsecs:  50000000
---
header: 
  seq: 43
  stamp: 
    secs: 1737603605
    nsecs:  81239223
  frame_id: ''
joint_names: 
  - joint_1
  - joint_2
  - joint_3
  - joint_4
  - joint_5
  - joint_6
  - tcp_lin
  - tcp_rot
points: 
  - 
    positions: [0.4518755739210287, 0.4518755739210287, -0.4518755739210287, 0.4518755739210287, 0.4518755739210287, 0.4518755739210287, 0.1, 0.1]
    velocities: []
    accelerations: []
    effort: []
    time_from_start: 
      secs: 0
      nsecs:  50000000
---
header: 
  seq: 44
  stamp: 
    secs: 1737603605
    nsecs: 131242275
  frame_id: ''
joint_names: 
  - joint_1
  - joint_2
  - joint_3
  - joint_4
  - joint_5
  - joint_6
  - tcp_lin
  - tcp_rot
points: 
  - 
    positions: [0.4668755739210287, 0.4668755739210287, -0.4668755739210287, 0.4668755739210287, 0.4668755739210287, 0.4668755739210287, 0.1, 0.1]
    velocities: []
    accelerations: []
    effort: []
    time_from_start: 
      secs: 0
      nsecs:  50000000
---
header: 
  seq: 45
  stamp: 
    secs: 1737603605
    nsecs: 181255102
  frame_id: ''
joint_names: 
  - joint_1
  - joint_2
  - joint_3
  - joint_4
  - joint_5
  - joint_6
  - tcp_lin
  - tcp_rot
points: 
  - 
    positions: [0.4818755739210287, 0.4818755739210287, -0.4818755739210287, 0.4818755739210287, 0.4818755739210287, 0.4818755739210287, 0.1, 0.1]
    velocities: []
    accelerations: []
    effort: []
    time_from_start: 
      secs: 0
      nsecs:  50000000
---
header: 
  seq: 46
  stamp: 
    secs: 1737603605
    nsecs: 231705904
  frame_id: ''
joint_names: 
  - joint_1
  - joint_2
  - joint_3
  - joint_4
  - joint_5
  - joint_6
  - tcp_lin
  - tcp_rot
points: 
  - 
    positions: [0.4968755739210287, 0.4968755739210287, -0.4968755739210287, 0.4968755739210287, 0.4968755739210287, 0.4968755739210287, 0.1, 0.1]
    velocities: []
    accelerations: []
    effort: []
    time_from_start: 
      secs: 0
      nsecs:  50000000
---
header: 
  seq: 47
  stamp: 
    secs: 1737603605
    nsecs: 281705379
  frame_id: ''
joint_names: 
  - joint_1
  - joint_2
  - joint_3
  - joint_4
  - joint_5
  - joint_6
  - tcp_lin
  - tcp_rot
points: 
  - 
    positions: [0.5118755739210287, 0.5118755739210287, -0.5118755739210287, 0.5118755739210287, 0.5118755739210287, 0.5118755739210287, 0.1, 0.1]
    velocities: []
    accelerations: []
    effort: []
    time_from_start: 
      secs: 0
      nsecs:  50000000
---
header: 
  seq: 48
  stamp: 
    secs: 1737603605
    nsecs: 331452369
  frame_id: ''
joint_names: 
  - joint_1
  - joint_2
  - joint_3
  - joint_4
  - joint_5
  - joint_6
  - tcp_lin
  - tcp_rot
points: 
  - 
    positions: [0.5268755739210287, 0.5268755739210287, -0.5268755739210287, 0.5268755739210287, 0.5268755739210287, 0.5268755739210287, 0.1, 0.1]
    velocities: []
    accelerations: []
    effort: []
    time_from_start: 
      secs: 0
      nsecs:  50000000
---
header: 
  seq: 49
  stamp: 
    secs: 1737603605
    nsecs: 381518840
  frame_id: ''
joint_names: 
  - joint_1
  - joint_2
  - joint_3
  - joint_4
  - joint_5
  - joint_6
  - tcp_lin
  - tcp_rot
points: 
  - 
    positions: [0.5418755739210287, 0.5418755739210287, -0.5418755739210287, 0.5418755739210287, 0.5418755739210287, 0.5418755739210287, 0.1, 0.1]
    velocities: []
    accelerations: []
    effort: []
    time_from_start: 
      secs: 0
      nsecs:  50000000
---
header: 
  seq: 50
  stamp: 
    secs: 1737603605
    nsecs: 431249380
  frame_id: ''
joint_names: 
  - joint_1
  - joint_2
  - joint_3
  - joint_4
  - joint_5
  - joint_6
  - tcp_lin
  - tcp_rot
points: 
  - 
    positions: [0.5568755739210287, 0.5568755739210287, -0.5568755739210287, 0.5568755739210287, 0.5568755739210287, 0.5568755739210287, 0.1, 0.1]
    velocities: []
    accelerations: []
    effort: []
    time_from_start: 
      secs: 0
      nsecs:  50000000
---
header: 
  seq: 51
  stamp: 
    secs: 1737603605
    nsecs: 481251239
  frame_id: ''
joint_names: 
  - joint_1
  - joint_2
  - joint_3
  - joint_4
  - joint_5
  - joint_6
  - tcp_lin
  - tcp_rot
points: 
  - 
    positions: [0.5718755739210287, 0.5718755739210287, -0.5718755739210287, 0.5718755739210287, 0.5718755739210287, 0.5718755739210287, 0.1, 0.1]
    velocities: []
    accelerations: []
    effort: []
    time_from_start: 
      secs: 0
      nsecs:  50000000
---
header: 
  seq: 52
  stamp: 
    secs: 1737603605
    nsecs: 531276702
  frame_id: ''
joint_names: 
  - joint_1
  - joint_2
  - joint_3
  - joint_4
  - joint_5
  - joint_6
  - tcp_lin
  - tcp_rot
points: 
  - 
    positions: [0.5868755739210287, 0.5868755739210287, -0.5868755739210287, 0.5868755739210287, 0.5868755739210287, 0.5868755739210287, 0.1, 0.1]
    velocities: []
    accelerations: []
    effort: []
    time_from_start: 
      secs: 0
      nsecs:  50000000
---
header: 
  seq: 53
  stamp: 
    secs: 1737603605
    nsecs: 581256866
  frame_id: ''
joint_names: 
  - joint_1
  - joint_2
  - joint_3
  - joint_4
  - joint_5
  - joint_6
  - tcp_lin
  - tcp_rot
points: 
  - 
    positions: [0.6018755739210288, 0.6018755739210288, -0.6018755739210288, 0.6018755739210288, 0.6018755739210288, 0.6018755739210288, 0.1, 0.1]
    velocities: []
    accelerations: []
    effort: []
    time_from_start: 
      secs: 0
      nsecs:  50000000
---
header: 
  seq: 54
  stamp: 
    secs: 1737603605
    nsecs: 631274700
  frame_id: ''
joint_names: 
  - joint_1
  - joint_2
  - joint_3
  - joint_4
  - joint_5
  - joint_6
  - tcp_lin
  - tcp_rot
points: 
  - 
    positions: [0.6168755739210288, 0.6168755739210288, -0.6168755739210288, 0.6168755739210288, 0.6168755739210288, 0.6168755739210288, 0.1, 0.1]
    velocities: []
    accelerations: []
    effort: []
    time_from_start: 
      secs: 0
      nsecs:  50000000
---
header: 
  seq: 55
  stamp: 
    secs: 1737603605
    nsecs: 681246042
  frame_id: ''
joint_names: 
  - joint_1
  - joint_2
  - joint_3
  - joint_4
  - joint_5
  - joint_6
  - tcp_lin
  - tcp_rot
points: 
  - 
    positions: [0.6318755739210288, 0.6318755739210288, -0.6318755739210288, 0.6318755739210288, 0.6318755739210288, 0.6318755739210288, 0.1, 0.1]
    velocities: []
    accelerations: []
    effort: []
    time_from_start: 
      secs: 0
      nsecs:  50000000
---
header: 
  seq: 56
  stamp: 
    secs: 1737603605
    nsecs: 731513261
  frame_id: ''
joint_names: 
  - joint_1
  - joint_2
  - joint_3
  - joint_4
  - joint_5
  - joint_6
  - tcp_lin
  - tcp_rot
points: 
  - 
    positions: [0.6468755739210288, 0.6468755739210288, -0.6468755739210288, 0.6468755739210288, 0.6468755739210288, 0.6468755739210288, 0.1, 0.1]
    velocities: []
    accelerations: []
    effort: []
    time_from_start: 
      secs: 0
      nsecs:  50000000
---
header: 
  seq: 57
  stamp: 
    secs: 1737603605
    nsecs: 781673192
  frame_id: ''
joint_names: 
  - joint_1
  - joint_2
  - joint_3
  - joint_4
  - joint_5
  - joint_6
  - tcp_lin
  - tcp_rot
points: 
  - 
    positions: [0.6618755739210288, 0.6618755739210288, -0.6618755739210288, 0.6618755739210288, 0.6618755739210288, 0.6618755739210288, 0.1, 0.1]
    velocities: []
    accelerations: []
    effort: []
    time_from_start: 
      secs: 0
      nsecs:  50000000
---
header: 
  seq: 58
  stamp: 
    secs: 1737603605
    nsecs: 831286191
  frame_id: ''
joint_names: 
  - joint_1
  - joint_2
  - joint_3
  - joint_4
  - joint_5
  - joint_6
  - tcp_lin
  - tcp_rot
points: 
  - 
    positions: [0.6768755739210288, 0.6768755739210288, -0.6768755739210288, 0.6768755739210288, 0.6768755739210288, 0.6768755739210288, 0.1, 0.1]
    velocities: []
    accelerations: []
    effort: []
    time_from_start: 
      secs: 0
      nsecs:  50000000
---
header: 
  seq: 59
  stamp: 
    secs: 1737603605
    nsecs: 881249189
  frame_id: ''
joint_names: 
  - joint_1
  - joint_2
  - joint_3
  - joint_4
  - joint_5
  - joint_6
  - tcp_lin
  - tcp_rot
points: 
  - 
    positions: [0.6918755739210288, 0.6918755739210288, -0.6918755739210288, 0.6918755739210288, 0.6918755739210288, 0.6918755739210288, 0.1, 0.1]
    velocities: []
    accelerations: []
    effort: []
    time_from_start: 
      secs: 0
      nsecs:  50000000
---
header: 
  seq: 60
  stamp: 
    secs: 1737603605
    nsecs: 931236982
  frame_id: ''
joint_names: 
  - joint_1
  - joint_2
  - joint_3
  - joint_4
  - joint_5
  - joint_6
  - tcp_lin
  - tcp_rot
points: 
  - 
    positions: [0.7068755739210288, 0.7068755739210288, -0.7068755739210288, 0.7068755739210288, 0.7068755739210288, 0.7068755739210288, 0.1, 0.1]
    velocities: []
    accelerations: []
    effort: []
    time_from_start: 
      secs: 0
      nsecs:  50000000
---
header: 
  seq: 61
  stamp: 
    secs: 1737603605
    nsecs: 981253385
  frame_id: ''
joint_names: 
  - joint_1
  - joint_2
  - joint_3
  - joint_4
  - joint_5
  - joint_6
  - tcp_lin
  - tcp_rot
points: 
  - 
    positions: [0.7218755739210289, 0.7218755739210289, -0.7218755739210289, 0.7218755739210289, 0.7218755739210289, 0.7218755739210289, 0.1, 0.1]
    velocities: []
    accelerations: []
    effort: []
    time_from_start: 
      secs: 0
      nsecs:  50000000
---
header: 
  seq: 62
  stamp: 
    secs: 1737603606
    nsecs:  31257152
  frame_id: ''
joint_names: 
  - joint_1
  - joint_2
  - joint_3
  - joint_4
  - joint_5
  - joint_6
  - tcp_lin
  - tcp_rot
points: 
  - 
    positions: [0.7368755739210289, 0.7368755739210289, -0.7368755739210289, 0.7368755739210289, 0.7368755739210289, 0.7368755739210289, 0.1, 0.1]
    velocities: []
    accelerations: []
    effort: []
    time_from_start: 
      secs: 0
      nsecs:  50000000
---
header: 
  seq: 63
  stamp: 
    secs: 1737603606
    nsecs:  81325531
  frame_id: ''
joint_names: 
  - joint_1
  - joint_2
  - joint_3
  - joint_4
  - joint_5
  - joint_6
  - tcp_lin
  - tcp_rot
points: 
  - 
    positions: [0.7518755739210289, 0.7518755739210289, -0.7518755739210289, 0.7518755739210289, 0.7518755739210289, 0.7518755739210289, 0.1, 0.1]
    velocities: []
    accelerations: []
    effort: []
    time_from_start: 
      secs: 0
      nsecs:  50000000
---
header: 
  seq: 64
  stamp: 
    secs: 1737603606
    nsecs: 131365060
  frame_id: ''
joint_names: 
  - joint_1
  - joint_2
  - joint_3
  - joint_4
  - joint_5
  - joint_6
  - tcp_lin
  - tcp_rot
points: 
  - 
    positions: [0.7668755739210289, 0.7668755739210289, -0.7668755739210289, 0.7668755739210289, 0.7668755739210289, 0.7668755739210289, 0.1, 0.1]
    velocities: []
    accelerations: []
    effort: []
    time_from_start: 
      secs: 0
      nsecs:  50000000
---
header: 
  seq: 65
  stamp: 
    secs: 1737603606
    nsecs: 181471824
  frame_id: ''
joint_names: 
  - joint_1
  - joint_2
  - joint_3
  - joint_4
  - joint_5
  - joint_6
  - tcp_lin
  - tcp_rot
points: 
  - 
    positions: [0.7818755739210289, 0.7818755739210289, -0.7818755739210289, 0.7818755739210289, 0.7818755739210289, 0.7818755739210289, 0.1, 0.1]
    velocities: []
    accelerations: []
    effort: []
    time_from_start: 
      secs: 0
      nsecs:  50000000
---
header: 
  seq: 66
  stamp: 
    secs: 1737603606
    nsecs: 231360912
  frame_id: ''
joint_names: 
  - joint_1
  - joint_2
  - joint_3
  - joint_4
  - joint_5
  - joint_6
  - tcp_lin
  - tcp_rot
points: 
  - 
    positions: [0.7968755739210289, 0.7968755739210289, -0.7968755739210289, 0.7968755739210289, 0.7968755739210289, 0.7968755739210289, 0.1, 0.1]
    velocities: []
    accelerations: []
    effort: []
    time_from_start: 
      secs: 0
      nsecs:  50000000
---
header: 
  seq: 67
  stamp: 
    secs: 1737603606
    nsecs: 281213045
  frame_id: ''
joint_names: 
  - joint_1
  - joint_2
  - joint_3
  - joint_4
  - joint_5
  - joint_6
  - tcp_lin
  - tcp_rot
points: 
  - 
    positions: [0.8118755739210289, 0.8118755739210289, -0.8118755739210289, 0.8118755739210289, 0.8118755739210289, 0.8118755739210289, 0.1, 0.1]
    velocities: []
    accelerations: []
    effort: []
    time_from_start: 
      secs: 0
      nsecs:  50000000
---
header: 
  seq: 68
  stamp: 
    secs: 1737603606
    nsecs: 331252336
  frame_id: ''
joint_names: 
  - joint_1
  - joint_2
  - joint_3
  - joint_4
  - joint_5
  - joint_6
  - tcp_lin
  - tcp_rot
points: 
  - 
    positions: [0.826875573921029, 0.826875573921029, -0.826875573921029, 0.826875573921029, 0.826875573921029, 0.826875573921029, 0.1, 0.1]
    velocities: []
    accelerations: []
    effort: []
    time_from_start: 
      secs: 0
      nsecs:  50000000
---
header: 
  seq: 69
  stamp: 
    secs: 1737603606
    nsecs: 381571769
  frame_id: ''
joint_names: 
  - joint_1
  - joint_2
  - joint_3
  - joint_4
  - joint_5
  - joint_6
  - tcp_lin
  - tcp_rot
points: 
  - 
    positions: [0.841875573921029, 0.841875573921029, -0.841875573921029, 0.841875573921029, 0.841875573921029, 0.841875573921029, 0.1, 0.1]
    velocities: []
    accelerations: []
    effort: []
    time_from_start: 
      secs: 0
      nsecs:  50000000
---
header: 
  seq: 70
  stamp: 
    secs: 1737603606
    nsecs: 431676626
  frame_id: ''
joint_names: 
  - joint_1
  - joint_2
  - joint_3
  - joint_4
  - joint_5
  - joint_6
  - tcp_lin
  - tcp_rot
points: 
  - 
    positions: [0.856875573921029, 0.856875573921029, -0.856875573921029, 0.856875573921029, 0.856875573921029, 0.856875573921029, 0.1, 0.1]
    velocities: []
    accelerations: []
    effort: []
    time_from_start: 
      secs: 0
      nsecs:  50000000
---
header: 
  seq: 71
  stamp: 
    secs: 1737603606
    nsecs: 481341361
  frame_id: ''
joint_names: 
  - joint_1
  - joint_2
  - joint_3
  - joint_4
  - joint_5
  - joint_6
  - tcp_lin
  - tcp_rot
points: 
  - 
    positions: [0.871875573921029, 0.871875573921029, -0.871875573921029, 0.871875573921029, 0.871875573921029, 0.871875573921029, 0.1, 0.1]
    velocities: []
    accelerations: []
    effort: []
    time_from_start: 
      secs: 0
      nsecs:  50000000
---
header: 
  seq: 72
  stamp: 
    secs: 1737603606
    nsecs: 531664848
  frame_id: ''
joint_names: 
  - joint_1
  - joint_2
  - joint_3
  - joint_4
  - joint_5
  - joint_6
  - tcp_lin
  - tcp_rot
points: 
  - 
    positions: [0.886875573921029, 0.886875573921029, -0.886875573921029, 0.886875573921029, 0.886875573921029, 0.886875573921029, 0.1, 0.1]
    velocities: []
    accelerations: []
    effort: []
    time_from_start: 
      secs: 0
      nsecs:  50000000
---
header: 
  seq: 73
  stamp: 
    secs: 1737603606
    nsecs: 581249952
  frame_id: ''
joint_names: 
  - joint_1
  - joint_2
  - joint_3
  - joint_4
  - joint_5
  - joint_6
  - tcp_lin
  - tcp_rot
points: 
  - 
    positions: [0.901875573921029, 0.901875573921029, -0.901875573921029, 0.901875573921029, 0.901875573921029, 0.901875573921029, 0.1, 0.1]
    velocities: []
    accelerations: []
    effort: []
    time_from_start: 
      secs: 0
      nsecs:  50000000
---
header: 
  seq: 74
  stamp: 
    secs: 1737603606
    nsecs: 631242752
  frame_id: ''
joint_names: 
  - joint_1
  - joint_2
  - joint_3
  - joint_4
  - joint_5
  - joint_6
  - tcp_lin
  - tcp_rot
points: 
  - 
    positions: [0.916875573921029, 0.916875573921029, -0.916875573921029, 0.916875573921029, 0.916875573921029, 0.916875573921029, 0.1, 0.1]
    velocities: []
    accelerations: []
    effort: []
    time_from_start: 
      secs: 0
      nsecs:  50000000
---
header: 
  seq: 75
  stamp: 
    secs: 1737603606
    nsecs: 681255578
  frame_id: ''
joint_names: 
  - joint_1
  - joint_2
  - joint_3
  - joint_4
  - joint_5
  - joint_6
  - tcp_lin
  - tcp_rot
points: 
  - 
    positions: [0.931875573921029, 0.931875573921029, -0.931875573921029, 0.931875573921029, 0.931875573921029, 0.931875573921029, 0.1, 0.1]
    velocities: []
    accelerations: []
    effort: []
    time_from_start: 
      secs: 0
      nsecs:  50000000
---
header: 
  seq: 76
  stamp: 
    secs: 1737603606
    nsecs: 731323719
  frame_id: ''
joint_names: 
  - joint_1
  - joint_2
  - joint_3
  - joint_4
  - joint_5
  - joint_6
  - tcp_lin
  - tcp_rot
points: 
  - 
    positions: [0.9468325298438941, 0.9468325298438941, -0.9468325298438941, 0.9468325298438941, 0.9468325298438941, 0.9468325298438941, 0.1, 0.1]
    velocities: []
    accelerations: []
    effort: []
    time_from_start: 
      secs: 0
      nsecs:  50000000
---
header: 
  seq: 77
  stamp: 
    secs: 1737603606
    nsecs: 781307697
  frame_id: ''
joint_names: 
  - joint_1
  - joint_2
  - joint_3
  - joint_4
  - joint_5
  - joint_6
  - tcp_lin
  - tcp_rot
points: 
  - 
    positions: [0.9615981787572703, 0.9615981787572703, -0.9615981787572703, 0.9615981787572703, 0.9615981787572703, 0.9615981787572703, 0.1, 0.1]
    velocities: []
    accelerations: []
    effort: []
    time_from_start: 
      secs: 0
      nsecs:  50000000
---
header: 
  seq: 78
  stamp: 
    secs: 1737603606
    nsecs: 831310749
  frame_id: ''
joint_names: 
  - joint_1
  - joint_2
  - joint_3
  - joint_4
  - joint_5
  - joint_6
  - tcp_lin
  - tcp_rot
points: 
  - 
    positions: [0.9760194750535666, 0.9760194750535666, -0.9760194750535666, 0.9760194750535666, 0.9760194750535666, 0.9760194750535666, 0.1, 0.1]
    velocities: []
    accelerations: []
    effort: []
    time_from_start: 
      secs: 0
      nsecs:  50000000
---
header: 
  seq: 79
  stamp: 
    secs: 1737603606
    nsecs: 881380558
  frame_id: ''
joint_names: 
  - joint_1
  - joint_2
  - joint_3
  - joint_4
  - joint_5
  - joint_6
  - tcp_lin
  - tcp_rot
points: 
  - 
    positions: [0.9899433731251919, 0.9899433731251919, -0.9899433731251919, 0.9899433731251919, 0.9899433731251919, 0.9899433731251919, 0.1, 0.1]
    velocities: []
    accelerations: []
    effort: []
    time_from_start: 
      secs: 0
      nsecs:  50000000
---
header: 
  seq: 80
  stamp: 
    secs: 1737603606
    nsecs: 931298255
  frame_id: ''
joint_names: 
  - joint_1
  - joint_2
  - joint_3
  - joint_4
  - joint_5
  - joint_6
  - tcp_lin
  - tcp_rot
points: 
  - 
    positions: [1.0032168273645552, 1.0032168273645552, -1.0032168273645552, 1.0032168273645552, 1.0032168273645552, 1.0032168273645552, 0.1, 0.1]
    velocities: []
    accelerations: []
    effort: []
    time_from_start: 
      secs: 0
      nsecs:  50000000
---
header: 
  seq: 81
  stamp: 
    secs: 1737603606
    nsecs: 981277227
  frame_id: ''
joint_names: 
  - joint_1
  - joint_2
  - joint_3
  - joint_4
  - joint_5
  - joint_6
  - tcp_lin
  - tcp_rot
points: 
  - 
    positions: [1.0157357667584945, 1.0157357667584945, -1.0157357667584945, 1.0157357667584945, 1.0157357667584945, 1.0157357667584945, 0.1, 0.1]
    velocities: []
    accelerations: []
    effort: []
    time_from_start: 
      secs: 0
      nsecs:  50000000
---
header: 
  seq: 82
  stamp: 
    secs: 1737603607
    nsecs:  31293869
  frame_id: ''
joint_names: 
  - joint_1
  - joint_2
  - joint_3
  - joint_4
  - joint_5
  - joint_6
  - tcp_lin
  - tcp_rot
points: 
  - 
    positions: [1.0274971303948581, 1.0274971303948581, -1.0274971303948581, 1.0274971303948581, 1.0274971303948581, 1.0274971303948581, 0.1, 0.1]
    velocities: []
    accelerations: []
    effort: []
    time_from_start: 
      secs: 0
      nsecs:  50000000
---
header: 
  seq: 83
  stamp: 
    secs: 1737603607
    nsecs:  81265449
  frame_id: ''
joint_names: 
  - joint_1
  - joint_2
  - joint_3
  - joint_4
  - joint_5
  - joint_6
  - tcp_lin
  - tcp_rot
points: 
  - 
    positions: [1.038500918273646, 1.038500918273646, -1.038500918273646, 1.038500918273646, 1.038500918273646, 1.038500918273646, 0.1, 0.1]
    velocities: []
    accelerations: []
    effort: []
    time_from_start: 
      secs: 0
      nsecs:  50000000
---
header: 
  seq: 84
  stamp: 
    secs: 1737603607
    nsecs: 131245613
  frame_id: ''
joint_names: 
  - joint_1
  - joint_2
  - joint_3
  - joint_4
  - joint_5
  - joint_6
  - tcp_lin
  - tcp_rot
points: 
  - 
    positions: [1.0487471303948581, 1.0487471303948581, -1.0487471303948581, 1.0487471303948581, 1.0487471303948581, 1.0487471303948581, 0.1, 0.1]
    velocities: []
    accelerations: []
    effort: []
    time_from_start: 
      secs: 0
      nsecs:  50000000
---
header: 
  seq: 85
  stamp: 
    secs: 1737603607
    nsecs: 181247711
  frame_id: ''
joint_names: 
  - joint_1
  - joint_2
  - joint_3
  - joint_4
  - joint_5
  - joint_6
  - tcp_lin
  - tcp_rot
points: 
  - 
    positions: [1.0582357667584945, 1.0582357667584945, -1.0582357667584945, 1.0582357667584945, 1.0582357667584945, 1.0582357667584945, 0.1, 0.1]
    velocities: []
    accelerations: []
    effort: []
    time_from_start: 
      secs: 0
      nsecs:  50000000
---
header: 
  seq: 86
  stamp: 
    secs: 1737603607
    nsecs: 231334924
  frame_id: ''
joint_names: 
  - joint_1
  - joint_2
  - joint_3
  - joint_4
  - joint_5
  - joint_6
  - tcp_lin
  - tcp_rot
points: 
  - 
    positions: [1.0669668273645552, 1.0669668273645552, -1.0669668273645552, 1.0669668273645552, 1.0669668273645552, 1.0669668273645552, 0.1, 0.1]
    velocities: []
    accelerations: []
    effort: []
    time_from_start: 
      secs: 0
      nsecs:  50000000
---
header: 
  seq: 87
  stamp: 
    secs: 1737603607
    nsecs: 281595706
  frame_id: ''
joint_names: 
  - joint_1
  - joint_2
  - joint_3
  - joint_4
  - joint_5
  - joint_6
  - tcp_lin
  - tcp_rot
points: 
  - 
    positions: [1.07494031221304, 1.07494031221304, -1.07494031221304, 1.07494031221304, 1.07494031221304, 1.07494031221304, 0.1, 0.1]
    velocities: []
    accelerations: []
    effort: []
    time_from_start: 
      secs: 0
      nsecs:  50000000
---
header: 
  seq: 88
  stamp: 
    secs: 1737603607
    nsecs: 331365823
  frame_id: ''
joint_names: 
  - joint_1
  - joint_2
  - joint_3
  - joint_4
  - joint_5
  - joint_6
  - tcp_lin
  - tcp_rot
points: 
  - 
    positions: [1.0821562213039493, 1.0821562213039493, -1.0821562213039493, 1.0821562213039493, 1.0821562213039493, 1.0821562213039493, 0.1, 0.1]
    velocities: []
    accelerations: []
    effort: []
    time_from_start: 
      secs: 0
      nsecs:  50000000
---
header: 
  seq: 89
  stamp: 
    secs: 1737603607
    nsecs: 381259202
  frame_id: ''
joint_names: 
  - joint_1
  - joint_2
  - joint_3
  - joint_4
  - joint_5
  - joint_6
  - tcp_lin
  - tcp_rot
points: 
  - 
    positions: [1.0886145546372825, 1.0886145546372825, -1.0886145546372825, 1.0886145546372825, 1.0886145546372825, 1.0886145546372825, 0.1, 0.1]
    velocities: []
    accelerations: []
    effort: []
    time_from_start: 
      secs: 0
      nsecs:  50000000
---
header: 
  seq: 90
  stamp: 
    secs: 1737603607
    nsecs: 431249856
  frame_id: ''
joint_names: 
  - joint_1
  - joint_2
  - joint_3
  - joint_4
  - joint_5
  - joint_6
  - tcp_lin
  - tcp_rot
points: 
  - 
    positions: [1.09431531221304, 1.09431531221304, -1.09431531221304, 1.09431531221304, 1.09431531221304, 1.09431531221304, 0.1, 0.1]
    velocities: []
    accelerations: []
    effort: []
    time_from_start: 
      secs: 0
      nsecs:  50000000
---
header: 
  seq: 91
  stamp: 
    secs: 1737603607
    nsecs: 481243610
  frame_id: ''
joint_names: 
  - joint_1
  - joint_2
  - joint_3
  - joint_4
  - joint_5
  - joint_6
  - tcp_lin
  - tcp_rot
points: 
  - 
    positions: [1.0992584940312218, 1.0992584940312218, -1.0992584940312218, 1.0992584940312218, 1.0992584940312218, 1.0992584940312218, 0.1, 0.1]
    velocities: []
    accelerations: []
    effort: []
    time_from_start: 
      secs: 0
      nsecs:  50000000
---
header: 
  seq: 92
  stamp: 
    secs: 1737603607
    nsecs: 531238555
  frame_id: ''
joint_names: 
  - joint_1
  - joint_2
  - joint_3
  - joint_4
  - joint_5
  - joint_6
  - tcp_lin
  - tcp_rot
points: 
  - 
    positions: [1.1034441000918278, 1.1034441000918278, -1.1034441000918278, 1.1034441000918278, 1.1034441000918278, 1.1034441000918278, 0.1, 0.1]
    velocities: []
    accelerations: []
    effort: []
    time_from_start: 
      secs: 0
      nsecs:  50000000
---
header: 
  seq: 93
  stamp: 
    secs: 1737603607
    nsecs: 581249952
  frame_id: ''
joint_names: 
  - joint_1
  - joint_2
  - joint_3
  - joint_4
  - joint_5
  - joint_6
  - tcp_lin
  - tcp_rot
points: 
  - 
    positions: [1.106872130394858, 1.106872130394858, -1.106872130394858, 1.106872130394858, 1.106872130394858, 1.106872130394858, 0.1, 0.1]
    velocities: []
    accelerations: []
    effort: []
    time_from_start: 
      secs: 0
      nsecs:  50000000
---
header: 
  seq: 94
  stamp: 
    secs: 1737603607
    nsecs: 631247520
  frame_id: ''
joint_names: 
  - joint_1
  - joint_2
  - joint_3
  - joint_4
  - joint_5
  - joint_6
  - tcp_lin
  - tcp_rot
points: 
  - 
    positions: [1.1095425849403127, 1.1095425849403127, -1.1095425849403127, 1.1095425849403127, 1.1095425849403127, 1.1095425849403127, 0.1, 0.1]
    velocities: []
    accelerations: []
    effort: []
    time_from_start: 
      secs: 0
      nsecs:  50000000
---
header: 
  seq: 95
  stamp: 
    secs: 1737603607
    nsecs: 681465387
  frame_id: ''
joint_names: 
  - joint_1
  - joint_2
  - joint_3
  - joint_4
  - joint_5
  - joint_6
  - tcp_lin
  - tcp_rot
points: 
  - 
    positions: [1.1114554637281915, 1.1114554637281915, -1.1114554637281915, 1.1114554637281915, 1.1114554637281915, 1.1114554637281915, 0.1, 0.1]
    velocities: []
    accelerations: []
    effort: []
    time_from_start: 
      secs: 0
      nsecs:  50000000
---
header: 
  seq: 96
  stamp: 
    secs: 1737603607
    nsecs: 731369495
  frame_id: ''
joint_names: 
  - joint_1
  - joint_2
  - joint_3
  - joint_4
  - joint_5
  - joint_6
  - tcp_lin
  - tcp_rot
points: 
  - 
    positions: [1.11267982858892, 1.11267982858892, -1.11267982858892, 1.11267982858892, 1.11267982858892, 1.11267982858892, 0.1, 0.1]
    velocities: []
    accelerations: []
    effort: []
    time_from_start: 
      secs: 0
      nsecs:  50000000
---
header: 
  seq: 97
  stamp: 
    secs: 1737603607
    nsecs: 781553983
  frame_id: ''
joint_names: 
  - joint_1
  - joint_2
  - joint_3
  - joint_4
  - joint_5
  - joint_6
  - tcp_lin
  - tcp_rot
points: 
  - 
    positions: [1.1133685338230797, 1.1133685338230797, -1.1133685338230797, 1.1133685338230797, 1.1133685338230797, 1.1133685338230797, 0.1, 0.1]
    velocities: []
    accelerations: []
    effort: []
    time_from_start: 
      secs: 0
      nsecs:  50000000
---
header: 
  seq: 98
  stamp: 
    secs: 1737603607
    nsecs: 831254720
  frame_id: ''
joint_names: 
  - joint_1
  - joint_2
  - joint_3
  - joint_4
  - joint_5
  - joint_6
  - tcp_lin
  - tcp_rot
points: 
  - 
    positions: [1.1136746250382619, 1.1136746250382619, -1.1136746250382619, 1.1136746250382619, 1.1136746250382619, 1.1136746250382619, 0.1, 0.1]
    velocities: []
    accelerations: []
    effort: []
    time_from_start: 
      secs: 0
      nsecs:  50000000
---
header: 
  seq: 99
  stamp: 
    secs: 1737603607
    nsecs: 881238222
  frame_id: ''
joint_names: 
  - joint_1
  - joint_2
  - joint_3
  - joint_4
  - joint_5
  - joint_6
  - tcp_lin
  - tcp_rot
points: 
  - 
    positions: [1.1137511478420574, 1.1137511478420574, -1.1137511478420574, 1.1137511478420574, 1.1137511478420574, 1.1137511478420574, 0.1, 0.1]
    velocities: []
    accelerations: []
    effort: []
    time_from_start: 
      secs: 0
      nsecs:  50000000
---
header: 
  seq: 100
  stamp: 
    secs: 1737603607
    nsecs: 931378364
  frame_id: ''
joint_names: 
  - joint_1
  - joint_2
  - joint_3
  - joint_4
  - joint_5
  - joint_6
  - tcp_lin
  - tcp_rot
points: 
  - 
    positions: [1.1137511478420574, 1.1137511478420574, -1.1137511478420574, 1.1137511478420574, 1.1137511478420574, 1.1137511478420574, 0.1, 0.1]
    velocities: []
    accelerations: []
    effort: []
    time_from_start: 
      secs: 0
      nsecs:  50000000
---
header: 
  seq: 101
  stamp: 
    secs: 1737603607
    nsecs: 981308460
  frame_id: ''
joint_names: 
  - joint_1
  - joint_2
  - joint_3
  - joint_4
  - joint_5
  - joint_6
  - tcp_lin
  - tcp_rot
points: 
  - 
    positions: [1.1137511478420574, 1.1137511478420574, -1.1137511478420574, 1.1137511478420574, 1.1137511478420574, 1.1137511478420574, 0.1, 0.1]
    velocities: []
    accelerations: []
    effort: []
    time_from_start: 
      secs: 0
      nsecs:  50000000
---
header: 
  seq: 102
  stamp: 
    secs: 1737603609
    nsecs:  32577276
  frame_id: ''
joint_names: 
  - joint_1
  - joint_2
  - joint_3
  - joint_4
  - joint_5
  - joint_6
  - tcp_lin
  - tcp_rot
points: 
  - 
    positions: [0.0, 0.0, 0.0, 0.0, 0.0, 0.0, 0.1, 0.1]
    velocities: []
    accelerations: []
    effort: []
    time_from_start: 
      secs: 3
      nsecs:         0
---
header: 
  seq: 103
  stamp: 
    secs: 1737603614
    nsecs:  35672903
  frame_id: ''
joint_names: 
  - joint_1
  - joint_2
  - joint_3
  - joint_4
  - joint_5
  - joint_6
  - tcp_lin
  - tcp_rot
points: 
  - 
    positions: [0.0, 0.0, -0.0, 0.0, 0.0, 0.0, 0.1, 0.1]
    velocities: []
    accelerations: []
    effort: []
    time_from_start: 
      secs: 0
      nsecs:  33333333
---
header: 
  seq: 104
  stamp: 
    secs: 1737603614
    nsecs:  69141149
  frame_id: ''
joint_names: 
  - joint_1
  - joint_2
  - joint_3
  - joint_4
  - joint_5
  - joint_6
  - tcp_lin
  - tcp_rot
points: 
  - 
    positions: [2.2521508040178367e-05, 2.2521508040178367e-05, -2.2521508040178367e-05, 2.2521508040178367e-05, 2.2521508040178367e-05, 2.2521508040178367e-05, 0.1, 0.1]
    velocities: []
    accelerations: []
    effort: []
    time_from_start: 
      secs: 0
      nsecs:  33333333
---
header: 
  seq: 105
  stamp: 
    secs: 1737603614
    nsecs: 102465867
  frame_id: ''
joint_names: 
  - joint_1
  - joint_2
  - joint_3
  - joint_4
  - joint_5
  - joint_6
  - tcp_lin
  - tcp_rot
points: 
  - 
    positions: [0.00011260754020089183, 0.00011260754020089183, -0.00011260754020089183, 0.00011260754020089183, 0.00011260754020089183, 0.00011260754020089183, 0.1, 0.1]
    velocities: []
    accelerations: []
    effort: []
    time_from_start: 
      secs: 0
      nsecs:  33333333
---
header: 
  seq: 106
  stamp: 
    secs: 1737603614
    nsecs: 135799646
  frame_id: ''
joint_names: 
  - joint_1
  - joint_2
  - joint_3
  - joint_4
  - joint_5
  - joint_6
  - tcp_lin
  - tcp_rot
points: 
  - 
    positions: [0.0003153011125624971, 0.0003153011125624971, -0.0003153011125624971, 0.0003153011125624971, 0.0003153011125624971, 0.0003153011125624971, 0.1, 0.1]
    velocities: []
    accelerations: []
    effort: []
    time_from_start: 
      secs: 0
      nsecs:  33333333
---
header: 
  seq: 107
  stamp: 
    secs: 1737603614
    nsecs: 169668197
  frame_id: ''
joint_names: 
  - joint_1
  - joint_2
  - joint_3
  - joint_4
  - joint_5
  - joint_6
  - tcp_lin
  - tcp_rot
points: 
  - 
    positions: [0.0006756452412053509, 0.0006756452412053509, -0.0006756452412053509, 0.0006756452412053509, 0.0006756452412053509, 0.0006756452412053509, 0.1, 0.1]
    velocities: []
    accelerations: []
    effort: []
    time_from_start: 
      secs: 0
      nsecs:  33333333
---
header: 
  seq: 108
  stamp: 
    secs: 1737603614
    nsecs: 202641487
  frame_id: ''
joint_names: 
  - joint_1
  - joint_2
  - joint_3
  - joint_4
  - joint_5
  - joint_6
  - tcp_lin
  - tcp_rot
points: 
  - 
    positions: [0.0012386829422098102, 0.0012386829422098102, -0.0012386829422098102, 0.0012386829422098102, 0.0012386829422098102, 0.0012386829422098102, 0.1, 0.1]
    velocities: []
    accelerations: []
    effort: []
    time_from_start: 
      secs: 0
      nsecs:  33333333
---
header: 
  seq: 109
  stamp: 
    secs: 1737603614
    nsecs: 235835790
  frame_id: ''
joint_names: 
  - joint_1
  - joint_2
  - joint_3
  - joint_4
  - joint_5
  - joint_6
  - tcp_lin
  - tcp_rot
points: 
  - 
    positions: [0.0020494572316562317, 0.0020494572316562317, -0.0020494572316562317, 0.0020494572316562317, 0.0020494572316562317, 0.0020494572316562317, 0.1, 0.1]
    velocities: []
    accelerations: []
    effort: []
    time_from_start: 
      secs: 0
      nsecs:  33333333
---
header: 
  seq: 110
  stamp: 
    secs: 1737603614
    nsecs: 269224643
  frame_id: ''
joint_names: 
  - joint_1
  - joint_2
  - joint_3
  - joint_4
  - joint_5
  - joint_6
  - tcp_lin
  - tcp_rot
points: 
  - 
    positions: [0.0031530111256249716, 0.0031530111256249716, -0.0031530111256249716, 0.0031530111256249716, 0.0031530111256249716, 0.0031530111256249716, 0.1, 0.1]
    velocities: []
    accelerations: []
    effort: []
    time_from_start: 
      secs: 0
      nsecs:  33333333
---
header: 
  seq: 111
  stamp: 
    secs: 1737603614
    nsecs: 302675485
  frame_id: ''
joint_names: 
  - joint_1
  - joint_2
  - joint_3
  - joint_4
  - joint_5
  - joint_6
  - tcp_lin
  - tcp_rot
points: 
  - 
    positions: [0.004587574884014233, 0.004587574884014233, -0.004587574884014233, 0.004587574884014233, 0.004587574884014233, 0.004587574884014233, 0.1, 0.1]
    velocities: []
    accelerations: []
    effort: []
    time_from_start: 
      secs: 0
      nsecs:  33333333
---
header: 
  seq: 112
  stamp: 
    secs: 1737603614
    nsecs: 336150884
  frame_id: ''
joint_names: 
  - joint_1
  - joint_2
  - joint_3
  - joint_4
  - joint_5
  - joint_6
  - tcp_lin
  - tcp_rot
points: 
  - 
    positions: [0.0063577091122021525, 0.0063577091122021525, -0.0063577091122021525, 0.0063577091122021525, 0.0063577091122021525, 0.0063577091122021525, 0.1, 0.1]
    velocities: []
    accelerations: []
    effort: []
    time_from_start: 
      secs: 0
      nsecs:  33333333
---
header: 
  seq: 113
  stamp: 
    secs: 1737603614
    nsecs: 369345903
  frame_id: ''
joint_names: 
  - joint_1
  - joint_2
  - joint_3
  - joint_4
  - joint_5
  - joint_6
  - tcp_lin
  - tcp_rot
points: 
  - 
    positions: [0.00846341381018873, 0.00846341381018873, -0.00846341381018873, 0.00846341381018873, 0.00846341381018873, 0.00846341381018873, 0.1, 0.1]
    velocities: []
    accelerations: []
    effort: []
    time_from_start: 
      secs: 0
      nsecs:  33333333
---
header: 
  seq: 114
  stamp: 
    secs: 1737603614
    nsecs: 402688026
  frame_id: ''
joint_names: 
  - joint_1
  - joint_2
  - joint_3
  - joint_4
  - joint_5
  - joint_6
  - tcp_lin
  - tcp_rot
points: 
  - 
    positions: [0.010904688977973965, 0.010904688977973965, -0.010904688977973965, 0.010904688977973965, 0.010904688977973965, 0.010904688977973965, 0.1, 0.1]
    velocities: []
    accelerations: []
    effort: []
    time_from_start: 
      secs: 0
      nsecs:  33333333
---
header: 
  seq: 115
  stamp: 
    secs: 1737603614
    nsecs: 436045169
  frame_id: ''
joint_names: 
  - joint_1
  - joint_2
  - joint_3
  - joint_4
  - joint_5
  - joint_6
  - tcp_lin
  - tcp_rot
points: 
  - 
    positions: [0.013681534615557857, 0.013681534615557857, -0.013681534615557857, 0.013681534615557857, 0.013681534615557857, 0.013681534615557857, 0.1, 0.1]
    velocities: []
    accelerations: []
    effort: []
    time_from_start: 
      secs: 0
      nsecs:  33333333
---
header: 
  seq: 116
  stamp: 
    secs: 1737603614
    nsecs: 469194650
  frame_id: ''
joint_names: 
  - joint_1
  - joint_2
  - joint_3
  - joint_4
  - joint_5
  - joint_6
  - tcp_lin
  - tcp_rot
points: 
  - 
    positions: [0.016793950722940407, 0.016793950722940407, -0.016793950722940407, 0.016793950722940407, 0.016793950722940407, 0.016793950722940407, 0.1, 0.1]
    velocities: []
    accelerations: []
    effort: []
    time_from_start: 
      secs: 0
      nsecs:  33333333
---
header: 
  seq: 117
  stamp: 
    secs: 1737603614
    nsecs: 502473831
  frame_id: ''
joint_names: 
  - joint_1
  - joint_2
  - joint_3
  - joint_4
  - joint_5
  - joint_6
  - tcp_lin
  - tcp_rot
points: 
  - 
    positions: [0.020241937300121617, 0.020241937300121617, -0.020241937300121617, 0.020241937300121617, 0.020241937300121617, 0.020241937300121617, 0.1, 0.1]
    velocities: []
    accelerations: []
    effort: []
    time_from_start: 
      secs: 0
      nsecs:  33333333
---
header: 
  seq: 118
  stamp: 
    secs: 1737603614
    nsecs: 536153078
  frame_id: ''
joint_names: 
  - joint_1
  - joint_2
  - joint_3
  - joint_4
  - joint_5
  - joint_6
  - tcp_lin
  - tcp_rot
points: 
  - 
    positions: [0.02402549434710148, 0.02402549434710148, -0.02402549434710148, 0.02402549434710148, 0.02402549434710148, 0.02402549434710148, 0.1, 0.1]
    velocities: []
    accelerations: []
    effort: []
    time_from_start: 
      secs: 0
      nsecs:  33333333
---
header: 
  seq: 119
  stamp: 
    secs: 1737603614
    nsecs: 569277763
  frame_id: ''
joint_names: 
  - joint_1
  - joint_2
  - joint_3
  - joint_4
  - joint_5
  - joint_6
  - tcp_lin
  - tcp_rot
points: 
  - 
    positions: [0.028144621863880004, 0.028144621863880004, -0.028144621863880004, 0.028144621863880004, 0.028144621863880004, 0.028144621863880004, 0.1, 0.1]
    velocities: []
    accelerations: []
    effort: []
    time_from_start: 
      secs: 0
      nsecs:  33333333
---
header: 
  seq: 120
  stamp: 
    secs: 1737603614
    nsecs: 602816581
  frame_id: ''
joint_names: 
  - joint_1
  - joint_2
  - joint_3
  - joint_4
  - joint_5
  - joint_6
  - tcp_lin
  - tcp_rot
points: 
  - 
    positions: [0.032599319850457185, 0.032599319850457185, -0.032599319850457185, 0.032599319850457185, 0.032599319850457185, 0.032599319850457185, 0.1, 0.1]
    velocities: []
    accelerations: []
    effort: []
    time_from_start: 
      secs: 0
      nsecs:  33333333
---
header: 
  seq: 121
  stamp: 
    secs: 1737603614
    nsecs: 636018991
  frame_id: ''
joint_names: 
  - joint_1
  - joint_2
  - joint_3
  - joint_4
  - joint_5
  - joint_6
  - tcp_lin
  - tcp_rot
points: 
  - 
    positions: [0.037389588306833026, 0.037389588306833026, -0.037389588306833026, 0.037389588306833026, 0.037389588306833026, 0.037389588306833026, 0.1, 0.1]
    velocities: []
    accelerations: []
    effort: []
    time_from_start: 
      secs: 0
      nsecs:  33333333
---
header: 
  seq: 122
  stamp: 
    secs: 1737603614
    nsecs: 669138431
  frame_id: ''
joint_names: 
  - joint_1
  - joint_2
  - joint_3
  - joint_4
  - joint_5
  - joint_6
  - tcp_lin
  - tcp_rot
points: 
  - 
    positions: [0.042515427233007524, 0.042515427233007524, -0.042515427233007524, 0.042515427233007524, 0.042515427233007524, 0.042515427233007524, 0.1, 0.1]
    velocities: []
    accelerations: []
    effort: []
    time_from_start: 
      secs: 0
      nsecs:  33333333
---
header: 
  seq: 123
  stamp: 
    secs: 1737603614
    nsecs: 702506065
  frame_id: ''
joint_names: 
  - joint_1
  - joint_2
  - joint_3
  - joint_4
  - joint_5
  - joint_6
  - tcp_lin
  - tcp_rot
points: 
  - 
    positions: [0.04797683662898068, 0.04797683662898068, -0.04797683662898068, 0.04797683662898068, 0.04797683662898068, 0.04797683662898068, 0.1, 0.1]
    velocities: []
    accelerations: []
    effort: []
    time_from_start: 
      secs: 0
      nsecs:  33333333
---
header: 
  seq: 124
  stamp: 
    secs: 1737603614
    nsecs: 735805511
  frame_id: ''
joint_names: 
  - joint_1
  - joint_2
  - joint_3
  - joint_4
  - joint_5
  - joint_6
  - tcp_lin
  - tcp_rot
points: 
  - 
    positions: [0.05377381649475249, 0.05377381649475249, -0.05377381649475249, 0.05377381649475249, 0.05377381649475249, 0.05377381649475249, 0.1, 0.1]
    velocities: []
    accelerations: []
    effort: []
    time_from_start: 
      secs: 0
      nsecs:  33333333
---
header: 
  seq: 125
  stamp: 
    secs: 1737603614
    nsecs: 769147157
  frame_id: ''
joint_names: 
  - joint_1
  - joint_2
  - joint_3
  - joint_4
  - joint_5
  - joint_6
  - tcp_lin
  - tcp_rot
points: 
  - 
    positions: [0.05990636683032296, 0.05990636683032296, -0.05990636683032296, 0.05990636683032296, 0.05990636683032296, 0.05990636683032296, 0.1, 0.1]
    velocities: []
    accelerations: []
    effort: []
    time_from_start: 
      secs: 0
      nsecs:  33333333
---
header: 
  seq: 126
  stamp: 
    secs: 1737603614
    nsecs: 802471637
  frame_id: ''
joint_names: 
  - joint_1
  - joint_2
  - joint_3
  - joint_4
  - joint_5
  - joint_6
  - tcp_lin
  - tcp_rot
points: 
  - 
