header: 
  seq: 1
  stamp: 
    secs: 1737602894
    nsecs: 153564929
  frame_id: ''
joint_names: 
  - joint_1
  - joint_2
  - joint_3
  - joint_4
  - joint_5
  - joint_6
  - tcp_lin
  - tcp_rot
points: 
  - 
    positions: [0.0, 0.0, -0.0, 0.0, 0.0, 0.0, 0.1, 0.1]
    velocities: []
    accelerations: []
    effort: []
    time_from_start: 
      secs: 0
      nsecs: 100000000
---
header: 
  seq: 2
  stamp: 
    secs: 1737602894
    nsecs: 203653573
  frame_id: ''
joint_names: 
  - joint_1
  - joint_2
  - joint_3
  - joint_4
  - joint_5
  - joint_6
  - tcp_lin
  - tcp_rot
points: 
  - 
    positions: [0.004355387523629489, 0.004355387523629489, -0.004355387523629489, 0.004355387523629489, 0.004355387523629489, 0.004355387523629489, 0.1, 0.1]
    velocities: []
    accelerations: []
    effort: []
    time_from_start: 
      secs: 0
      nsecs: 100000000
---
header: 
  seq: 3
  stamp: 
    secs: 1737602894
    nsecs: 253662347
  frame_id: ''
joint_names: 
  - joint_1
  - joint_2
  - joint_3
  - joint_4
  - joint_5
  - joint_6
  - tcp_lin
  - tcp_rot
points: 
  - 
    positions: [0.0195992438563327, 0.0195992438563327, -0.0195992438563327, 0.0195992438563327, 0.0195992438563327, 0.0195992438563327, 0.1, 0.1]
    velocities: []
    accelerations: []
    effort: []
    time_from_start: 
      secs: 0
      nsecs: 100000000
---
header: 
  seq: 4
  stamp: 
    secs: 1737602894
    nsecs: 303967952
  frame_id: ''
joint_names: 
  - joint_1
  - joint_2
  - joint_3
  - joint_4
  - joint_5
  - joint_6
  - tcp_lin
  - tcp_rot
points: 
  - 
    positions: [0.05008695652173912, 0.05008695652173912, -0.05008695652173912, 0.05008695652173912, 0.05008695652173912, 0.05008695652173912, 0.1, 0.1]
    velocities: []
    accelerations: []
    effort: []
    time_from_start: 
      secs: 0
      nsecs: 100000000
---
header: 
  seq: 5
  stamp: 
    secs: 1737602894
    nsecs: 354092836
  frame_id: ''
joint_names: 
  - joint_1
  - joint_2
  - joint_3
  - joint_4
  - joint_5
  - joint_6
  - tcp_lin
  - tcp_rot
points: 
  - 
    positions: [0.10017391304347824, 0.10017391304347824, -0.10017391304347824, 0.10017391304347824, 0.10017391304347824, 0.10017391304347824, 0.1, 0.1]
    velocities: []
    accelerations: []
    effort: []
    time_from_start: 
      secs: 0
      nsecs: 100000000
---
header: 
  seq: 6
  stamp: 
    secs: 1737602894
    nsecs: 404162406
  frame_id: ''
joint_names: 
  - joint_1
  - joint_2
  - joint_3
  - joint_4
  - joint_5
  - joint_6
  - tcp_lin
  - tcp_rot
points: 
  - 
    positions: [0.17383742911153116, 0.17383742911153116, -0.17383742911153116, 0.17383742911153116, 0.17383742911153116, 0.17383742911153116, 0.1, 0.1]
    velocities: []
    accelerations: []
    effort: []
    time_from_start: 
      secs: 0
      nsecs: 100000000
---
header: 
  seq: 7
  stamp: 
    secs: 1737602894
    nsecs: 453659057
  frame_id: ''
joint_names: 
  - joint_1
  - joint_2
  - joint_3
  - joint_4
  - joint_5
  - joint_6
  - tcp_lin
  - tcp_rot
points: 
  - 
    positions: [0.26365973534971643, 0.26365973534971643, -0.26365973534971643, 0.26365973534971643, 0.26365973534971643, 0.26365973534971643, 0.1, 0.1]
    velocities: []
    accelerations: []
    effort: []
    time_from_start: 
      secs: 0
      nsecs: 100000000
---
header: 
  seq: 8
  stamp: 
    secs: 1737602894
    nsecs: 504025936
  frame_id: ''
joint_names: 
  - joint_1
  - joint_2
  - joint_3
  - joint_4
  - joint_5
  - joint_6
  - tcp_lin
  - tcp_rot
points: 
  - 
    positions: [0.3625557655954631, 0.3625557655954631, -0.3625557655954631, 0.3625557655954631, 0.3625557655954631, 0.3625557655954631, 0.1, 0.1]
    velocities: []
    accelerations: []
    effort: []
    time_from_start: 
      secs: 0
      nsecs: 100000000
---
header: 
  seq: 9
  stamp: 
    secs: 1737602894
    nsecs: 553831338
  frame_id: ''
joint_names: 
  - joint_1
  - joint_2
  - joint_3
  - joint_4
  - joint_5
  - joint_6
  - tcp_lin
  - tcp_rot
points: 
  - 
    positions: [0.46617013232514176, 0.46617013232514176, -0.46617013232514176, 0.46617013232514176, 0.46617013232514176, 0.46617013232514176, 0.1, 0.1]
    velocities: []
    accelerations: []
    effort: []
    time_from_start: 
      secs: 0
      nsecs: 100000000
---
header: 
  seq: 10
  stamp: 
    secs: 1737602894
    nsecs: 603638887
  frame_id: ''
joint_names: 
  - joint_1
  - joint_2
  - joint_3
  - joint_4
  - joint_5
  - joint_6
  - tcp_lin
  - tcp_rot
points: 
  - 
    positions: [0.570147448015123, 0.570147448015123, -0.570147448015123, 0.570147448015123, 0.570147448015123, 0.570147448015123, 0.1, 0.1]
    velocities: []
    accelerations: []
    effort: []
    time_from_start: 
      secs: 0
      nsecs: 100000000
---
header: 
  seq: 11
  stamp: 
    secs: 1737602894
    nsecs: 653915405
  frame_id: ''
joint_names: 
  - joint_1
  - joint_2
  - joint_3
  - joint_4
  - joint_5
  - joint_6
  - tcp_lin
  - tcp_rot
points: 
  - 
    positions: [0.6708884688090737, 0.6708884688090737, -0.6708884688090737, 0.6708884688090737, 0.6708884688090737, 0.6708884688090737, 0.1, 0.1]
    velocities: []
    accelerations: []
    effort: []
    time_from_start: 
      secs: 0
      nsecs: 100000000
---
header: 
  seq: 12
  stamp: 
    secs: 1737602894
    nsecs: 703717470
  frame_id: ''
joint_names: 
  - joint_1
  - joint_2
  - joint_3
  - joint_4
  - joint_5
  - joint_6
  - tcp_lin
  - tcp_rot
points: 
  - 
    positions: [0.7708884688090737, 0.7708884688090737, -0.7708884688090737, 0.7708884688090737, 0.7708884688090737, 0.7708884688090737, 0.1, 0.1]
    velocities: []
    accelerations: []
    effort: []
    time_from_start: 
      secs: 0
      nsecs: 100000000
---
header: 
  seq: 13
  stamp: 
    secs: 1737602894
    nsecs: 753933429
  frame_id: ''
joint_names: 
  - joint_1
  - joint_2
  - joint_3
  - joint_4
  - joint_5
  - joint_6
  - tcp_lin
  - tcp_rot
points: 
  - 
    positions: [0.8708884688090738, 0.8708884688090738, -0.8708884688090738, 0.8708884688090738, 0.8708884688090738, 0.8708884688090738, 0.1, 0.1]
    velocities: []
    accelerations: []
    effort: []
    time_from_start: 
      secs: 0
      nsecs: 100000000
---
header: 
  seq: 14
  stamp: 
    secs: 1737602894
    nsecs: 803617477
  frame_id: ''
joint_names: 
  - joint_1
  - joint_2
  - joint_3
  - joint_4
  - joint_5
  - joint_6
  - tcp_lin
  - tcp_rot
points: 
  - 
    positions: [0.9708884688090739, 0.9708884688090739, -0.9708884688090739, 0.9708884688090739, 0.9708884688090739, 0.9708884688090739, 0.1, 0.1]
    velocities: []
    accelerations: []
    effort: []
    time_from_start: 
      secs: 0
      nsecs: 100000000
---
header: 
  seq: 15
  stamp: 
    secs: 1737602894
    nsecs: 854104042
  frame_id: ''
joint_names: 
  - joint_1
  - joint_2
  - joint_3
  - joint_4
  - joint_5
  - joint_6
  - tcp_lin
  - tcp_rot
points: 
  - 
    positions: [1.069406427221172, 1.069406427221172, -1.069406427221172, 1.069406427221172, 1.069406427221172, 1.069406427221172, 0.1, 0.1]
    velocities: []
    accelerations: []
    effort: []
    time_from_start: 
      secs: 0
      nsecs: 100000000
---
header: 
  seq: 16
  stamp: 
    secs: 1737602894
    nsecs: 904095888
  frame_id: ''
joint_names: 
  - joint_1
  - joint_2
  - joint_3
  - joint_4
  - joint_5
  - joint_6
  - tcp_lin
  - tcp_rot
points: 
  - 
    positions: [1.1592287334593572, 1.1592287334593572, -1.1592287334593572, 1.1592287334593572, 1.1592287334593572, 1.1592287334593572, 0.1, 0.1]
    velocities: []
    accelerations: []
    effort: []
    time_from_start: 
      secs: 0
      nsecs: 100000000
---
header: 
  seq: 17
  stamp: 
    secs: 1737602894
    nsecs: 954561710
  frame_id: ''
joint_names: 
  - joint_1
  - joint_2
  - joint_3
  - joint_4
  - joint_5
  - joint_6
  - tcp_lin
  - tcp_rot
points: 
  - 
    positions: [1.2356219281663514, 1.2356219281663514, -1.2356219281663514, 1.2356219281663514, 1.2356219281663514, 1.2356219281663514, 0.1, 0.1]
    velocities: []
    accelerations: []
    effort: []
    time_from_start: 
      secs: 0
      nsecs: 100000000
---
header: 
  seq: 18
  stamp: 
    secs: 1737602895
    nsecs:   3874778
  frame_id: ''
joint_names: 
  - joint_1
  - joint_2
  - joint_3
  - joint_4
  - joint_5
  - joint_6
  - tcp_lin
  - tcp_rot
points: 
  - 
    positions: [1.2942306238185253, 1.2942306238185253, -1.2942306238185253, 1.2942306238185253, 1.2942306238185253, 1.2942306238185253, 0.1, 0.1]
    velocities: []
    accelerations: []
    effort: []
    time_from_start: 
      secs: 0
      nsecs: 100000000
---
header: 
  seq: 19
  stamp: 
    secs: 1737602895
    nsecs:  53627729
  frame_id: ''
joint_names: 
  - joint_1
  - joint_2
  - joint_3
  - joint_4
  - joint_5
  - joint_6
  - tcp_lin
  - tcp_rot
points: 
  - 
    positions: [1.3306994328922492, 1.3306994328922492, -1.3306994328922492, 1.3306994328922492, 1.3306994328922492, 1.3306994328922492, 0.1, 0.1]
    velocities: []
    accelerations: []
    effort: []
    time_from_start: 
      secs: 0
      nsecs: 100000000
---
header: 
  seq: 20
  stamp: 
    secs: 1737602895
    nsecs: 103900909
  frame_id: ''
joint_names: 
  - joint_1
  - joint_2
  - joint_3
  - joint_4
  - joint_5
  - joint_6
  - tcp_lin
  - tcp_rot
points: 
  - 
    positions: [1.3461323251417767, 1.3461323251417767, -1.3461323251417767, 1.3461323251417767, 1.3461323251417767, 1.3461323251417767, 0.1, 0.1]
    velocities: []
    accelerations: []
    effort: []
    time_from_start: 
      secs: 0
      nsecs: 100000000
---
header: 
  seq: 21
  stamp: 
    secs: 1737602895
    nsecs: 153655529
  frame_id: ''
joint_names: 
  - joint_1
  - joint_2
  - joint_3
  - joint_4
  - joint_5
  - joint_6
  - tcp_lin
  - tcp_rot
points: 
  - 
    positions: [1.3504877126654062, 1.3504877126654062, -1.3504877126654062, 1.3504877126654062, 1.3504877126654062, 1.3504877126654062, 0.1, 0.1]
    velocities: []
    accelerations: []
    effort: []
    time_from_start: 
      secs: 0
      nsecs: 100000000
---
header: 
  seq: 22
  stamp: 
    secs: 1737602895
    nsecs: 204238653
  frame_id: ''
joint_names: 
  - joint_1
  - joint_2
  - joint_3
  - joint_4
  - joint_5
  - joint_6
  - tcp_lin
  - tcp_rot
points: 
  - 
    positions: [1.3483100189035917, 1.3483100189035917, -1.3483100189035917, 1.3483100189035917, 1.3483100189035917, 1.3483100189035917, 0.1, 0.1]
    velocities: []
    accelerations: []
    effort: []
    time_from_start: 
      secs: 0
      nsecs: 100000000
---
header: 
  seq: 23
  stamp: 
    secs: 1737602895
    nsecs: 254134893
  frame_id: ''
joint_names: 
  - joint_1
  - joint_2
  - joint_3
  - joint_4
  - joint_5
  - joint_6
  - tcp_lin
  - tcp_rot
points: 
  - 
    positions: [1.3439546313799622, 1.3439546313799622, -1.3439546313799622, 1.3439546313799622, 1.3439546313799622, 1.3439546313799622, 0.1, 0.1]
    velocities: []
    accelerations: []
    effort: []
    time_from_start: 
      secs: 0
      nsecs: 100000000
---
header: 
  seq: 24
  stamp: 
    secs: 1737602895
    nsecs: 303630352
  frame_id: ''
joint_names: 
  - joint_1
  - joint_2
  - joint_3
  - joint_4
  - joint_5
  - joint_6
  - tcp_lin
  - tcp_rot
points: 
  - 
    positions: [1.3417769376181474, 1.3417769376181474, -1.3417769376181474, 1.3417769376181474, 1.3417769376181474, 1.3417769376181474, 0.1, 0.1]
    velocities: []
    accelerations: []
    effort: []
    time_from_start: 
      secs: 0
      nsecs: 100000000
---
header: 
  seq: 25
  stamp: 
    secs: 1737602895
    nsecs: 353613853
  frame_id: ''
joint_names: 
  - joint_1
  - joint_2
  - joint_3
  - joint_4
  - joint_5
  - joint_6
  - tcp_lin
  - tcp_rot
points: 
  - 
    positions: [1.3417769376181474, 1.3417769376181474, -1.3417769376181474, 1.3417769376181474, 1.3417769376181474, 1.3417769376181474, 0.1, 0.1]
    velocities: []
    accelerations: []
    effort: []
    time_from_start: 
      secs: 0
      nsecs: 100000000
---
header: 
  seq: 26
  stamp: 
    secs: 1737602896
    nsecs: 404753446
  frame_id: ''
joint_names: 
  - joint_1
  - joint_2
  - joint_3
  - joint_4
  - joint_5
  - joint_6
  - tcp_lin
  - tcp_rot
points: 
  - 
    positions: [0.0, 0.0, 0.0, 0.0, 0.0, 0.0, 0.1, 0.1]
    velocities: []
    accelerations: []
    effort: []
    time_from_start: 
      secs: 3
      nsecs:         0
---
header: 
  seq: 27
  stamp: 
    secs: 1737602901
    nsecs: 410876989
  frame_id: ''
joint_names: 
  - joint_1
  - joint_2
  - joint_3
  - joint_4
  - joint_5
  - joint_6
  - tcp_lin
  - tcp_rot
points: 
  - 
    positions: [0.0, 0.0, -0.0, 0.0, 0.0, 0.0, 0.1, 0.1]
    velocities: []
    accelerations: []
    effort: []
    time_from_start: 
      secs: 0
      nsecs:  66666666
---
header: 
  seq: 28
  stamp: 
    secs: 1737602901
    nsecs: 444443941
  frame_id: ''
joint_names: 
  - joint_1
  - joint_2
  - joint_3
  - joint_4
  - joint_5
  - joint_6
  - tcp_lin
  - tcp_rot
points: 
  - 
    positions: [0.0012538775510204082, 0.0012538775510204082, -0.0012538775510204082, 0.0012538775510204082, 0.0012538775510204082, 0.0012538775510204082, 0.1, 0.1]
    velocities: []
    accelerations: []
    effort: []
    time_from_start: 
      secs: 0
      nsecs:  66666666
---
header: 
  seq: 29
  stamp: 
    secs: 1737602901
    nsecs: 477591276
  frame_id: ''
joint_names: 
  - joint_1
  - joint_2
  - joint_3
  - joint_4
  - joint_5
  - joint_6
  - tcp_lin
  - tcp_rot
points: 
  - 
    positions: [0.005642448979591837, 0.005642448979591837, -0.005642448979591837, 0.005642448979591837, 0.005642448979591837, 0.005642448979591837, 0.1, 0.1]
    velocities: []
    accelerations: []
    effort: []
    time_from_start: 
      secs: 0
      nsecs:  66666666
---
header: 
  seq: 30
  stamp: 
    secs: 1737602901
    nsecs: 510965824
  frame_id: ''
joint_names: 
  - joint_1
  - joint_2
  - joint_3
  - joint_4
  - joint_5
  - joint_6
  - tcp_lin
  - tcp_rot
points: 
  - 
    positions: [0.014419591836734694, 0.014419591836734694, -0.014419591836734694, 0.014419591836734694, 0.014419591836734694, 0.014419591836734694, 0.1, 0.1]
    velocities: []
    accelerations: []
    effort: []
    time_from_start: 
      secs: 0
      nsecs:  66666666
---
header: 
  seq: 31
  stamp: 
    secs: 1737602901
    nsecs: 544224023
  frame_id: ''
joint_names: 
  - joint_1
  - joint_2
  - joint_3
  - joint_4
  - joint_5
  - joint_6
  - tcp_lin
  - tcp_rot
points: 
  - 
    positions: [0.02883918367346939, 0.02883918367346939, -0.02883918367346939, 0.02883918367346939, 0.02883918367346939, 0.02883918367346939, 0.1, 0.1]
    velocities: []
    accelerations: []
    effort: []
    time_from_start: 
      secs: 0
      nsecs:  66666666
---
header: 
  seq: 32
  stamp: 
    secs: 1737602901
    nsecs: 577589750
  frame_id: ''
joint_names: 
  - joint_1
  - joint_2
  - joint_3
  - joint_4
  - joint_5
  - joint_6
  - tcp_lin
  - tcp_rot
points: 
  - 
    positions: [0.05015510204081633, 0.05015510204081633, -0.05015510204081633, 0.05015510204081633, 0.05015510204081633, 0.05015510204081633, 0.1, 0.1]
    velocities: []
    accelerations: []
    effort: []
    time_from_start: 
      secs: 0
      nsecs:  66666666
---
header: 
  seq: 33
  stamp: 
    secs: 1737602901
    nsecs: 610913753
  frame_id: ''
joint_names: 
  - joint_1
  - joint_2
  - joint_3
  - joint_4
  - joint_5
  - joint_6
  - tcp_lin
  - tcp_rot
points: 
  - 
    positions: [0.07962122448979593, 0.07962122448979593, -0.07962122448979593, 0.07962122448979593, 0.07962122448979593, 0.07962122448979593, 0.1, 0.1]
    velocities: []
    accelerations: []
    effort: []
    time_from_start: 
      secs: 0
      nsecs:  66666666
---
header: 
  seq: 34
  stamp: 
    secs: 1737602901
    nsecs: 644240856
  frame_id: ''
joint_names: 
  - joint_1
  - joint_2
  - joint_3
  - joint_4
  - joint_5
  - joint_6
  - tcp_lin
  - tcp_rot
points: 
  - 
    positions: [0.11849142857142858, 0.11849142857142858, -0.11849142857142858, 0.11849142857142858, 0.11849142857142858, 0.11849142857142858, 0.1, 0.1]
    velocities: []
    accelerations: []
    effort: []
    time_from_start: 
      secs: 0
      nsecs:  66666666
---
header: 
  seq: 35
  stamp: 
    secs: 1737602901
    nsecs: 677610158
  frame_id: ''
joint_names: 
  - joint_1
  - joint_2
  - joint_3
  - joint_4
  - joint_5
  - joint_6
  - tcp_lin
  - tcp_rot
points: 
  - 
    positions: [0.16676136054421772, 0.16676136054421772, -0.16676136054421772, 0.16676136054421772, 0.16676136054421772, 0.16676136054421772, 0.1, 0.1]
    velocities: []
    accelerations: []
    effort: []
    time_from_start: 
      secs: 0
      nsecs:  66666666
---
header: 
  seq: 36
  stamp: 
    secs: 1737602901
    nsecs: 710944652
  frame_id: ''
joint_names: 
  - joint_1
  - joint_2
  - joint_3
  - joint_4
  - joint_5
  - joint_6
  - tcp_lin
  - tcp_rot
points: 
  - 
    positions: [0.22151183673469393, 0.22151183673469393, -0.22151183673469393, 0.22151183673469393, 0.22151183673469393, 0.22151183673469393, 0.1, 0.1]
    velocities: []
    accelerations: []
    effort: []
    time_from_start: 
      secs: 0
      nsecs:  66666666
---
header: 
  seq: 37
  stamp: 
    secs: 1737602901
    nsecs: 744259834
  frame_id: ''
joint_names: 
  - joint_1
  - joint_2
  - joint_3
  - joint_4
  - joint_5
  - joint_6
  - tcp_lin
  - tcp_rot
points: 
  - 
    positions: [0.28138231292517013, 0.28138231292517013, -0.28138231292517013, 0.28138231292517013, 0.28138231292517013, 0.28138231292517013, 0.1, 0.1]
    velocities: []
    accelerations: []
    effort: []
    time_from_start: 
      secs: 0
      nsecs:  66666666
---
header: 
  seq: 38
  stamp: 
    secs: 1737602901
    nsecs: 777589321
  frame_id: ''
joint_names: 
  - joint_1
  - joint_2
  - joint_3
  - joint_4
  - joint_5
  - joint_6
  - tcp_lin
  - tcp_rot
points: 
  - 
    positions: [0.34511891156462593, 0.34511891156462593, -0.34511891156462593, 0.34511891156462593, 0.34511891156462593, 0.34511891156462593, 0.1, 0.1]
    velocities: []
    accelerations: []
    effort: []
    time_from_start: 
      secs: 0
      nsecs:  66666666
---
header: 
  seq: 39
  stamp: 
    secs: 1737602901
    nsecs: 810885429
  frame_id: ''
joint_names: 
  - joint_1
  - joint_2
  - joint_3
  - joint_4
  - joint_5
  - joint_6
  - tcp_lin
  - tcp_rot
points: 
  - 
    positions: [0.4114677551020409, 0.4114677551020409, -0.4114677551020409, 0.4114677551020409, 0.4114677551020409, 0.4114677551020409, 0.1, 0.1]
    velocities: []
    accelerations: []
    effort: []
    time_from_start: 
      secs: 0
      nsecs:  66666666
---
header: 
  seq: 40
  stamp: 
    secs: 1737602901
    nsecs: 844264745
  frame_id: ''
joint_names: 
  - joint_1
  - joint_2
  - joint_3
  - joint_4
  - joint_5
  - joint_6
  - tcp_lin
  - tcp_rot
points: 
  - 
    positions: [0.4791749659863946, 0.4791749659863946, -0.4791749659863946, 0.4791749659863946, 0.4791749659863946, 0.4791749659863946, 0.1, 0.1]
    velocities: []
    accelerations: []
    effort: []
    time_from_start: 
      secs: 0
      nsecs:  66666666
---
header: 
  seq: 41
  stamp: 
    secs: 1737602901
    nsecs: 877574443
  frame_id: ''
joint_names: 
  - joint_1
  - joint_2
  - joint_3
  - joint_4
  - joint_5
  - joint_6
  - tcp_lin
  - tcp_rot
points: 
  - 
    positions: [0.5469866666666667, 0.5469866666666667, -0.5469866666666667, 0.5469866666666667, 0.5469866666666667, 0.5469866666666667, 0.1, 0.1]
    velocities: []
    accelerations: []
    effort: []
    time_from_start: 
      secs: 0
      nsecs:  66666666
---
header: 
  seq: 42
  stamp: 
    secs: 1737602901
    nsecs: 910952806
  frame_id: ''
joint_names: 
  - joint_1
  - joint_2
  - joint_3
  - joint_4
  - joint_5
  - joint_6
  - tcp_lin
  - tcp_rot
points: 
  - 
    positions: [0.6138666666666667, 0.6138666666666667, -0.6138666666666667, 0.6138666666666667, 0.6138666666666667, 0.6138666666666667, 0.1, 0.1]
    velocities: []
    accelerations: []
    effort: []
    time_from_start: 
      secs: 0
      nsecs:  66666666
---
header: 
  seq: 43
  stamp: 
    secs: 1737602901
    nsecs: 944291830
  frame_id: ''
joint_names: 
  - joint_1
  - joint_2
  - joint_3
  - joint_4
  - joint_5
  - joint_6
  - tcp_lin
  - tcp_rot
points: 
  - 
    positions: [0.6805333333333333, 0.6805333333333333, -0.6805333333333333, 0.6805333333333333, 0.6805333333333333, 0.6805333333333333, 0.1, 0.1]
    velocities: []
    accelerations: []
    effort: []
    time_from_start: 
      secs: 0
      nsecs:  66666666
---
header: 
  seq: 44
  stamp: 
    secs: 1737602901
    nsecs: 977554082
  frame_id: ''
joint_names: 
  - joint_1
  - joint_2
  - joint_3
  - joint_4
  - joint_5
  - joint_6
  - tcp_lin
  - tcp_rot
points: 
  - 
    positions: [0.7472, 0.7472, -0.7472, 0.7472, 0.7472, 0.7472, 0.1, 0.1]
    velocities: []
    accelerations: []
    effort: []
    time_from_start: 
      secs: 0
      nsecs:  66666666
---
header: 
  seq: 45
  stamp: 
    secs: 1737602902
    nsecs:  10896205
  frame_id: ''
joint_names: 
  - joint_1
  - joint_2
  - joint_3
  - joint_4
  - joint_5
  - joint_6
  - tcp_lin
  - tcp_rot
points: 
  - 
    positions: [0.8138666666666666, 0.8138666666666666, -0.8138666666666666, 0.8138666666666666, 0.8138666666666666, 0.8138666666666666, 0.1, 0.1]
    velocities: []
    accelerations: []
    effort: []
    time_from_start: 
      secs: 0
      nsecs:  66666666
---
header: 
  seq: 46
  stamp: 
    secs: 1737602902
    nsecs:  44223070
  frame_id: ''
joint_names: 
  - joint_1
  - joint_2
  - joint_3
  - joint_4
  - joint_5
  - joint_6
  - tcp_lin
  - tcp_rot
points: 
  - 
    positions: [0.8805333333333333, 0.8805333333333333, -0.8805333333333333, 0.8805333333333333, 0.8805333333333333, 0.8805333333333333, 0.1, 0.1]
    velocities: []
    accelerations: []
    effort: []
    time_from_start: 
      secs: 0
      nsecs:  66666666
---
header: 
  seq: 47
  stamp: 
    secs: 1737602902
    nsecs:  77784538
  frame_id: ''
joint_names: 
  - joint_1
  - joint_2
  - joint_3
  - joint_4
  - joint_5
  - joint_6
  - tcp_lin
  - tcp_rot
points: 
  - 
    positions: [0.9472, 0.9472, -0.9472, 0.9472, 0.9472, 0.9472, 0.1, 0.1]
    velocities: []
    accelerations: []
    effort: []
    time_from_start: 
      secs: 0
      nsecs:  66666666
---
header: 
  seq: 48
  stamp: 
    secs: 1737602902
    nsecs: 111044406
  frame_id: ''
joint_names: 
  - joint_1
  - joint_2
  - joint_3
  - joint_4
  - joint_5
  - joint_6
  - tcp_lin
  - tcp_rot
points: 
  - 
    positions: [1.0134400000000001, 1.0134400000000001, -1.0134400000000001, 1.0134400000000001, 1.0134400000000001, 1.0134400000000001, 0.1, 0.1]
    velocities: []
    accelerations: []
    effort: []
    time_from_start: 
      secs: 0
      nsecs:  66666666
---
header: 
  seq: 49
  stamp: 
    secs: 1737602902
    nsecs: 144320011
  frame_id: ''
joint_names: 
  - joint_1
  - joint_2
  - joint_3
  - joint_4
  - joint_5
  - joint_6
  - tcp_lin
  - tcp_rot
points: 
  - 
    positions: [1.077176598639456, 1.077176598639456, -1.077176598639456, 1.077176598639456, 1.077176598639456, 1.077176598639456, 0.1, 0.1]
    velocities: []
    accelerations: []
    effort: []
    time_from_start: 
      secs: 0
      nsecs:  66666666
---
header: 
  seq: 50
  stamp: 
    secs: 1737602902
    nsecs: 177838802
  frame_id: ''
joint_names: 
  - joint_1
  - joint_2
  - joint_3
  - joint_4
  - joint_5
  - joint_6
  - tcp_lin
  - tcp_rot
points: 
  - 
    positions: [1.137047074829932, 1.137047074829932, -1.137047074829932, 1.137047074829932, 1.137047074829932, 1.137047074829932, 0.1, 0.1]
    velocities: []
    accelerations: []
    effort: []
    time_from_start: 
      secs: 0
      nsecs:  66666666
---
header: 
  seq: 51
  stamp: 
    secs: 1737602902
    nsecs: 211363554
  frame_id: ''
joint_names: 
  - joint_1
  - joint_2
  - joint_3
  - joint_4
  - joint_5
  - joint_6
  - tcp_lin
  - tcp_rot
points: 
  - 
    positions: [1.1917975510204082, 1.1917975510204082, -1.1917975510204082, 1.1917975510204082, 1.1917975510204082, 1.1917975510204082, 0.1, 0.1]
    velocities: []
    accelerations: []
    effort: []
    time_from_start: 
      secs: 0
      nsecs:  66666666
---
header: 
  seq: 52
  stamp: 
    secs: 1737602902
    nsecs: 244643211
  frame_id: ''
joint_names: 
  - joint_1
  - joint_2
  - joint_3
  - joint_4
  - joint_5
  - joint_6
  - tcp_lin
  - tcp_rot
points: 
  - 
    positions: [1.240174149659864, 1.240174149659864, -1.240174149659864, 1.240174149659864, 1.240174149659864, 1.240174149659864, 0.1, 0.1]
    velocities: []
    accelerations: []
    effort: []
    time_from_start: 
      secs: 0
      nsecs:  66666666
---
header: 
  seq: 53
  stamp: 
    secs: 1737602902
    nsecs: 278060436
  frame_id: ''
joint_names: 
  - joint_1
  - joint_2
  - joint_3
  - joint_4
  - joint_5
  - joint_6
  - tcp_lin
  - tcp_rot
points: 
  - 
    positions: [1.280922993197279, 1.280922993197279, -1.280922993197279, 1.280922993197279, 1.280922993197279, 1.280922993197279, 0.1, 0.1]
    velocities: []
    accelerations: []
    effort: []
    time_from_start: 
      secs: 0
      nsecs:  66666666
---
header: 
  seq: 54
  stamp: 
    secs: 1737602902
    nsecs: 311007738
  frame_id: ''
joint_names: 
  - joint_1
  - joint_2
  - joint_3
  - joint_4
  - joint_5
  - joint_6
  - tcp_lin
  - tcp_rot
points: 
  - 
    positions: [1.3127902040816328, 1.3127902040816328, -1.3127902040816328, 1.3127902040816328, 1.3127902040816328, 1.3127902040816328, 0.1, 0.1]
    velocities: []
    accelerations: []
    effort: []
    time_from_start: 
      secs: 0
      nsecs:  66666666
---
header: 
  seq: 55
  stamp: 
    secs: 1737602902
    nsecs: 344248771
  frame_id: ''
joint_names: 
  - joint_1
  - joint_2
  - joint_3
  - joint_4
  - joint_5
  - joint_6
  - tcp_lin
  - tcp_rot
points: 
  - 
    positions: [1.3347352380952382, 1.3347352380952382, -1.3347352380952382, 1.3347352380952382, 1.3347352380952382, 1.3347352380952382, 0.1, 0.1]
    velocities: []
    accelerations: []
    effort: []
    time_from_start: 
      secs: 0
      nsecs:  66666666
---
header: 
  seq: 56
  stamp: 
    secs: 1737602902
    nsecs: 377660989
  frame_id: ''
joint_names: 
  - joint_1
  - joint_2
  - joint_3
  - joint_4
  - joint_5
  - joint_6
  - tcp_lin
  - tcp_rot
points: 
  - 
    positions: [1.3491548299319729, 1.3491548299319729, -1.3491548299319729, 1.3491548299319729, 1.3491548299319729, 1.3491548299319729, 0.1, 0.1]
    velocities: []
    accelerations: []
    effort: []
    time_from_start: 
      secs: 0
      nsecs:  66666666
---
header: 
  seq: 57
  stamp: 
    secs: 1737602902
    nsecs: 410895347
  frame_id: ''
joint_names: 
  - joint_1
  - joint_2
  - joint_3
  - joint_4
  - joint_5
  - joint_6
  - tcp_lin
  - tcp_rot
points: 
  - 
    positions: [1.3579319727891157, 1.3579319727891157, -1.3579319727891157, 1.3579319727891157, 1.3579319727891157, 1.3579319727891157, 0.1, 0.1]
    velocities: []
    accelerations: []
    effort: []
    time_from_start: 
      secs: 0
      nsecs:  66666666
---
header: 
  seq: 58
  stamp: 
    secs: 1737602902
    nsecs: 444385290
  frame_id: ''
joint_names: 
  - joint_1
  - joint_2
  - joint_3
  - joint_4
  - joint_5
  - joint_6
  - tcp_lin
  - tcp_rot
points: 
  - 
    positions: [1.3623205442176871, 1.3623205442176871, -1.3623205442176871, 1.3623205442176871, 1.3623205442176871, 1.3623205442176871, 0.1, 0.1]
    velocities: []
    accelerations: []
    effort: []
    time_from_start: 
      secs: 0
      nsecs:  66666666
---
header: 
  seq: 59
  stamp: 
    secs: 1737602902
    nsecs: 477586269
  frame_id: ''
joint_names: 
  - joint_1
  - joint_2
  - joint_3
  - joint_4
  - joint_5
  - joint_6
  - tcp_lin
  - tcp_rot
points: 
  - 
    positions: [1.3635744217687076, 1.3635744217687076, -1.3635744217687076, 1.3635744217687076, 1.3635744217687076, 1.3635744217687076, 0.1, 0.1]
    velocities: []
    accelerations: []
    effort: []
    time_from_start: 
      secs: 0
      nsecs:  66666666
---
header: 
  seq: 60
  stamp: 
    secs: 1737602902
    nsecs: 510914802
  frame_id: ''
joint_names: 
  - joint_1
  - joint_2
  - joint_3
  - joint_4
  - joint_5
  - joint_6
  - tcp_lin
  - tcp_rot
points: 
  - 
    positions: [1.3629474829931973, 1.3629474829931973, -1.3629474829931973, 1.3629474829931973, 1.3629474829931973, 1.3629474829931973, 0.1, 0.1]
    velocities: []
    accelerations: []
    effort: []
    time_from_start: 
      secs: 0
      nsecs:  66666666
---
header: 
  seq: 61
  stamp: 
    secs: 1737602902
    nsecs: 544254302
  frame_id: ''
joint_names: 
  - joint_1
  - joint_2
  - joint_3
  - joint_4
  - joint_5
  - joint_6
  - tcp_lin
  - tcp_rot
points: 
  - 
    positions: [1.361693605442177, 1.361693605442177, -1.361693605442177, 1.361693605442177, 1.361693605442177, 1.361693605442177, 0.1, 0.1]
    velocities: []
    accelerations: []
    effort: []
    time_from_start: 
      secs: 0
      nsecs:  66666666
---
header: 
  seq: 62
  stamp: 
    secs: 1737602902
    nsecs: 577582836
  frame_id: ''
joint_names: 
  - joint_1
  - joint_2
  - joint_3
  - joint_4
  - joint_5
  - joint_6
  - tcp_lin
  - tcp_rot
points: 
  - 
    positions: [1.3610666666666669, 1.3610666666666669, -1.3610666666666669, 1.3610666666666669, 1.3610666666666669, 1.3610666666666669, 0.1, 0.1]
    velocities: []
    accelerations: []
    effort: []
    time_from_start: 
      secs: 0
      nsecs:  66666666
---
header: 
  seq: 63
  stamp: 
    secs: 1737602902
    nsecs: 610901832
  frame_id: ''
joint_names: 
  - joint_1
  - joint_2
  - joint_3
  - joint_4
  - joint_5
  - joint_6
  - tcp_lin
  - tcp_rot
points: 
  - 
    positions: [1.3610666666666669, 1.3610666666666669, -1.3610666666666669, 1.3610666666666669, 1.3610666666666669, 1.3610666666666669, 0.1, 0.1]
    velocities: []
    accelerations: []
    effort: []
    time_from_start: 
      secs: 0
      nsecs:  66666666
---
header: 
  seq: 64
  stamp: 
    secs: 1737602903
    nsecs: 644341707
  frame_id: ''
joint_names: 
  - joint_1
  - joint_2
  - joint_3
  - joint_4
  - joint_5
  - joint_6
  - tcp_lin
  - tcp_rot
points: 
  - 
    positions: [0.0, 0.0, 0.0, 0.0, 0.0, 0.0, 0.1, 0.1]
    velocities: []
    accelerations: []
    effort: []
    time_from_start: 
      secs: 3
      nsecs:         0
---
header: 
  seq: 65
  stamp: 
    secs: 1737602908
    nsecs: 648347377
  frame_id: ''
joint_names: 
  - joint_1
  - joint_2
  - joint_3
  - joint_4
  - joint_5
  - joint_6
  - tcp_lin
  - tcp_rot
points: 
  - 
    positions: [0.0, 0.0, -0.0, 0.0, 0.0, 0.0, 0.1, 0.1]
    velocities: []
    accelerations: []
    effort: []
    time_from_start: 
      secs: 0
      nsecs:  50000000
---
header: 
  seq: 66
  stamp: 
    secs: 1737602908
    nsecs: 673542261
  frame_id: ''
joint_names: 
  - joint_1
  - joint_2
  - joint_3
  - joint_4
  - joint_5
  - joint_6
  - tcp_lin
  - tcp_rot
points: 
  - 
    positions: [0.000521502942507922, 0.000521502942507922, -0.000521502942507922, 0.000521502942507922, 0.000521502942507922, 0.000521502942507922, 0.1, 0.1]
    velocities: []
    accelerations: []
    effort: []
    time_from_start: 
      secs: 0
      nsecs:  50000000
---
header: 
  seq: 67
  stamp: 
    secs: 1737602908
    nsecs: 698502302
  frame_id: ''
joint_names: 
  - joint_1
  - joint_2
  - joint_3
  - joint_4
  - joint_5
  - joint_6
  - tcp_lin
  - tcp_rot
points: 
  - 
    positions: [0.0023467632412856494, 0.0023467632412856494, -0.0023467632412856494, 0.0023467632412856494, 0.0023467632412856494, 0.0023467632412856494, 0.1, 0.1]
    velocities: []
    accelerations: []
    effort: []
    time_from_start: 
      secs: 0
      nsecs:  50000000
---
header: 
  seq: 68
  stamp: 
    secs: 1737602908
    nsecs: 723457574
  frame_id: ''
joint_names: 
  - joint_1
  - joint_2
  - joint_3
  - joint_4
  - joint_5
  - joint_6
  - tcp_lin
  - tcp_rot
points: 
  - 
    positions: [0.005997283838841104, 0.005997283838841104, -0.005997283838841104, 0.005997283838841104, 0.005997283838841104, 0.005997283838841104, 0.1, 0.1]
    velocities: []
    accelerations: []
    effort: []
    time_from_start: 
      secs: 0
      nsecs:  50000000
---
header: 
  seq: 69
  stamp: 
    secs: 1737602908
    nsecs: 748476982
  frame_id: ''
joint_names: 
  - joint_1
  - joint_2
  - joint_3
  - joint_4
  - joint_5
  - joint_6
  - tcp_lin
  - tcp_rot
points: 
  - 
    positions: [0.011994567677682207, 0.011994567677682207, -0.011994567677682207, 0.011994567677682207, 0.011994567677682207, 0.011994567677682207, 0.1, 0.1]
    velocities: []
    accelerations: []
    effort: []
    time_from_start: 
      secs: 0
      nsecs:  50000000
---
header: 
  seq: 70
  stamp: 
    secs: 1737602908
    nsecs: 773527622
  frame_id: ''
joint_names: 
  - joint_1
  - joint_2
  - joint_3
  - joint_4
  - joint_5
  - joint_6
  - tcp_lin
  - tcp_rot
points: 
  - 
    positions: [0.020860117700316882, 0.020860117700316882, -0.020860117700316882, 0.020860117700316882, 0.020860117700316882, 0.020860117700316882, 0.1, 0.1]
    velocities: []
    accelerations: []
    effort: []
    time_from_start: 
      secs: 0
      nsecs:  50000000
---
header: 
  seq: 71
  stamp: 
    secs: 1737602908
    nsecs: 798597097
  frame_id: ''
joint_names: 
  - joint_1
  - joint_2
  - joint_3
  - joint_4
  - joint_5
  - joint_6
  - tcp_lin
  - tcp_rot
points: 
  - 
    positions: [0.033115436849253055, 0.033115436849253055, -0.033115436849253055, 0.033115436849253055, 0.033115436849253055, 0.033115436849253055, 0.1, 0.1]
    velocities: []
    accelerations: []
    effort: []
    time_from_start: 
      secs: 0
      nsecs:  50000000
---
header: 
  seq: 72
  stamp: 
    secs: 1737602908
    nsecs: 824319124
  frame_id: ''
joint_names: 
  - joint_1
  - joint_2
  - joint_3
  - joint_4
  - joint_5
  - joint_6
  - tcp_lin
  - tcp_rot
points: 
  - 
    positions: [0.049282028066998634, 0.049282028066998634, -0.049282028066998634, 0.049282028066998634, 0.049282028066998634, 0.049282028066998634, 0.1, 0.1]
    velocities: []
    accelerations: []
    effort: []
    time_from_start: 
      secs: 0
      nsecs:  50000000
---
header: 
  seq: 73
  stamp: 
    secs: 1737602908
    nsecs: 848469972
  frame_id: ''
joint_names: 
  - joint_1
  - joint_2
  - joint_3
  - joint_4
  - joint_5
  - joint_6
  - tcp_lin
  - tcp_rot
points: 
  - 
    positions: [0.06988139429606155, 0.06988139429606155, -0.06988139429606155, 0.06988139429606155, 0.06988139429606155, 0.06988139429606155, 0.1, 0.1]
    velocities: []
    accelerations: []
    effort: []
    time_from_start: 
      secs: 0
      nsecs:  50000000
---
header: 
  seq: 74
  stamp: 
    secs: 1737602908
    nsecs: 873627662
  frame_id: ''
joint_names: 
  - joint_1
  - joint_2
  - joint_3
  - joint_4
  - joint_5
  - joint_6
  - tcp_lin
  - tcp_rot
points: 
  - 
    positions: [0.09543503847894974, 0.09543503847894974, -0.09543503847894974, 0.09543503847894974, 0.09543503847894974, 0.09543503847894974, 0.1, 0.1]
    velocities: []
    accelerations: []
    effort: []
    time_from_start: 
      secs: 0
      nsecs:  50000000
---
header: 
  seq: 75
  stamp: 
    secs: 1737602908
    nsecs: 899275779
  frame_id: ''
joint_names: 
  - joint_1
  - joint_2
  - joint_3
  - joint_4
  - joint_5
  - joint_6
  - tcp_lin
  - tcp_rot
points: 
  - 
    positions: [0.12641919420552283, 0.12641919420552283, -0.12641919420552283, 0.12641919420552283, 0.12641919420552283, 0.12641919420552283, 0.1, 0.1]
    velocities: []
    accelerations: []
    effort: []
    time_from_start: 
      secs: 0
      nsecs:  50000000
---
header: 
  seq: 76
  stamp: 
    secs: 1737602908
    nsecs: 923498392
  frame_id: ''
joint_names: 
  - joint_1
  - joint_2
  - joint_3
  - joint_4
  - joint_5
  - joint_6
  - tcp_lin
  - tcp_rot
points: 
  - 
    positions: [0.16194567677682206, 0.16194567677682206, -0.16194567677682206, 0.16194567677682206, 0.16194567677682206, 0.16194567677682206, 0.1, 0.1]
    velocities: []
    accelerations: []
    effort: []
    time_from_start: 
      secs: 0
      nsecs:  50000000
---
header: 
  seq: 77
  stamp: 
    secs: 1737602908
    nsecs: 948478698
  frame_id: ''
joint_names: 
  - joint_1
  - joint_2
  - joint_3
  - joint_4
  - joint_5
  - joint_6
  - tcp_lin
  - tcp_rot
points: 
  - 
    positions: [0.20116613852421908, 0.20116613852421908, -0.20116613852421908, 0.20116613852421908, 0.20116613852421908, 0.20116613852421908, 0.1, 0.1]
    velocities: []
    accelerations: []
    effort: []
    time_from_start: 
      secs: 0
      nsecs:  50000000
---
header: 
  seq: 78
  stamp: 
    secs: 1737602908
    nsecs: 973479986
  frame_id: ''
joint_names: 
  - joint_1
  - joint_2
  - joint_3
  - joint_4
  - joint_5
  - joint_6
  - tcp_lin
  - tcp_rot
points: 
  - 
    positions: [0.24355907650520595, 0.24355907650520595, -0.24355907650520595, 0.24355907650520595, 0.24355907650520595, 0.24355907650520595, 0.1, 0.1]
    velocities: []
    accelerations: []
    effort: []
    time_from_start: 
      secs: 0
      nsecs:  50000000
---
header: 
  seq: 79
  stamp: 
    secs: 1737602908
    nsecs: 998768329
  frame_id: ''
joint_names: 
  - joint_1
  - joint_2
  - joint_3
  - joint_4
  - joint_5
  - joint_6
  - tcp_lin
  - tcp_rot
points: 
  - 
    positions: [0.2886029877772747, 0.2886029877772747, -0.2886029877772747, 0.2886029877772747, 0.2886029877772747, 0.2886029877772747, 0.1, 0.1]
    velocities: []
    accelerations: []
    effort: []
    time_from_start: 
      secs: 0
      nsecs:  50000000
---
header: 
  seq: 80
  stamp: 
    secs: 1737602909
    nsecs:  23660659
  frame_id: ''
joint_names: 
  - joint_1
  - joint_2
  - joint_3
  - joint_4
  - joint_5
  - joint_6
  - tcp_lin
  - tcp_rot
points: 
  - 
    positions: [0.33577636939791755, 0.33577636939791755, -0.33577636939791755, 0.33577636939791755, 0.33577636939791755, 0.33577636939791755, 0.1, 0.1]
    velocities: []
    accelerations: []
    effort: []
    time_from_start: 
      secs: 0
      nsecs:  50000000
---
header: 
  seq: 81
  stamp: 
    secs: 1737602909
    nsecs:  48559427
  frame_id: ''
joint_names: 
  - joint_1
  - joint_2
  - joint_3
  - joint_4
  - joint_5
  - joint_6
  - tcp_lin
  - tcp_rot
points: 
  - 
    positions: [0.3845577184246265, 0.3845577184246265, -0.3845577184246265, 0.3845577184246265, 0.3845577184246265, 0.3845577184246265, 0.1, 0.1]
    velocities: []
    accelerations: []
    effort: []
    time_from_start: 
      secs: 0
      nsecs:  50000000
---
header: 
  seq: 82
  stamp: 
    secs: 1737602909
    nsecs:  73504686
  frame_id: ''
joint_names: 
  - joint_1
  - joint_2
  - joint_3
  - joint_4
  - joint_5
  - joint_6
  - tcp_lin
  - tcp_rot
points: 
  - 
    positions: [0.4344255319148935, 0.4344255319148935, -0.4344255319148935, 0.4344255319148935, 0.4344255319148935, 0.4344255319148935, 0.1, 0.1]
    velocities: []
    accelerations: []
    effort: []
    time_from_start: 
      secs: 0
      nsecs:  50000000
---
header: 
  seq: 83
  stamp: 
    secs: 1737602909
    nsecs:  98473548
  frame_id: ''
joint_names: 
  - joint_1
  - joint_2
  - joint_3
  - joint_4
  - joint_5
  - joint_6
  - tcp_lin
  - tcp_rot
points: 
  - 
    positions: [0.4848583069262109, 0.4848583069262109, -0.4848583069262109, 0.4848583069262109, 0.4848583069262109, 0.4848583069262109, 0.1, 0.1]
    velocities: []
    accelerations: []
    effort: []
    time_from_start: 
      secs: 0
      nsecs:  50000000
---
header: 
  seq: 84
  stamp: 
    secs: 1737602909
    nsecs: 123952388
  frame_id: ''
joint_names: 
  - joint_1
  - joint_2
  - joint_3
  - joint_4
  - joint_5
  - joint_6
  - tcp_lin
  - tcp_rot
points: 
  - 
    positions: [0.5353345405160705, 0.5353345405160705, -0.5353345405160705, 0.5353345405160705, 0.5353345405160705, 0.5353345405160705, 0.1, 0.1]
    velocities: []
    accelerations: []
    effort: []
    time_from_start: 
      secs: 0
      nsecs:  50000000
---
header: 
  seq: 85
  stamp: 
    secs: 1737602909
    nsecs: 148590087
  frame_id: ''
joint_names: 
  - joint_1
  - joint_2
  - joint_3
  - joint_4
  - joint_5
  - joint_6
  - tcp_lin
  - tcp_rot
points: 
  - 
    positions: [0.5854232684472611, 0.5854232684472611, -0.5854232684472611, 0.5854232684472611, 0.5854232684472611, 0.5854232684472611, 0.1, 0.1]
    velocities: []
    accelerations: []
    effort: []
    time_from_start: 
      secs: 0
      nsecs:  50000000
---
header: 
  seq: 86
  stamp: 
    secs: 1737602909
    nsecs: 173509120
  frame_id: ''
joint_names: 
  - joint_1
  - joint_2
  - joint_3
  - joint_4
  - joint_5
  - joint_6
  - tcp_lin
  - tcp_rot
points: 
  - 
    positions: [0.635423268447261, 0.635423268447261, -0.635423268447261, 0.635423268447261, 0.635423268447261, 0.635423268447261, 0.1, 0.1]
    velocities: []
    accelerations: []
    effort: []
    time_from_start: 
      secs: 0
      nsecs:  50000000
---
header: 
  seq: 87
  stamp: 
    secs: 1737602909
    nsecs: 198469161
  frame_id: ''
joint_names: 
  - joint_1
  - joint_2
  - joint_3
  - joint_4
  - joint_5
  - joint_6
  - tcp_lin
  - tcp_rot
points: 
  - 
    positions: [0.685423268447261, 0.685423268447261, -0.685423268447261, 0.685423268447261, 0.685423268447261, 0.685423268447261, 0.1, 0.1]
    velocities: []
    accelerations: []
    effort: []
    time_from_start: 
      secs: 0
      nsecs:  50000000
---
header: 
  seq: 88
  stamp: 
    secs: 1737602909
    nsecs: 223499774
  frame_id: ''
joint_names: 
  - joint_1
  - joint_2
  - joint_3
  - joint_4
  - joint_5
  - joint_6
  - tcp_lin
  - tcp_rot
points: 
  - 
    positions: [0.7354232684472609, 0.7354232684472609, -0.7354232684472609, 0.7354232684472609, 0.7354232684472609, 0.7354232684472609, 0.1, 0.1]
    velocities: []
    accelerations: []
    effort: []
    time_from_start: 
      secs: 0
      nsecs:  50000000
---
header: 
  seq: 89
  stamp: 
    secs: 1737602909
    nsecs: 248558521
  frame_id: ''
joint_names: 
  - joint_1
  - joint_2
  - joint_3
  - joint_4
  - joint_5
  - joint_6
  - tcp_lin
  - tcp_rot
points: 
  - 
    positions: [0.7854232684472608, 0.7854232684472608, -0.7854232684472608, 0.7854232684472608, 0.7854232684472608, 0.7854232684472608, 0.1, 0.1]
    velocities: []
    accelerations: []
    effort: []
    time_from_start: 
      secs: 0
      nsecs:  50000000
---
header: 
  seq: 90
  stamp: 
    secs: 1737602909
    nsecs: 273531198
  frame_id: ''
joint_names: 
  - joint_1
  - joint_2
  - joint_3
  - joint_4
  - joint_5
  - joint_6
  - tcp_lin
  - tcp_rot
points: 
  - 
    positions: [0.8354232684472608, 0.8354232684472608, -0.8354232684472608, 0.8354232684472608, 0.8354232684472608, 0.8354232684472608, 0.1, 0.1]
    velocities: []
    accelerations: []
    effort: []
    time_from_start: 
      secs: 0
      nsecs:  50000000
---
header: 
  seq: 91
  stamp: 
    secs: 1737602909
    nsecs: 298468112
  frame_id: ''
joint_names: 
  - joint_1
  - joint_2
  - joint_3
  - joint_4
  - joint_5
  - joint_6
  - tcp_lin
  - tcp_rot
points: 
  - 
    positions: [0.8854232684472607, 0.8854232684472607, -0.8854232684472607, 0.8854232684472607, 0.8854232684472607, 0.8854232684472607, 0.1, 0.1]
    velocities: []
    accelerations: []
    effort: []
    time_from_start: 
      secs: 0
      nsecs:  50000000
---
header: 
  seq: 92
  stamp: 
    secs: 1737602909
    nsecs: 323487281
  frame_id: ''
joint_names: 
  - joint_1
  - joint_2
  - joint_3
  - joint_4
  - joint_5
  - joint_6
  - tcp_lin
  - tcp_rot
points: 
  - 
    positions: [0.9354232684472606, 0.9354232684472606, -0.9354232684472606, 0.9354232684472606, 0.9354232684472606, 0.9354232684472606, 0.1, 0.1]
    velocities: []
    accelerations: []
    effort: []
    time_from_start: 
      secs: 0
      nsecs:  50000000
---
header: 
  seq: 93
  stamp: 
    secs: 1737602909
    nsecs: 348469018
  frame_id: ''
joint_names: 
  - joint_1
  - joint_2
  - joint_3
  - joint_4
  - joint_5
  - joint_6
  - tcp_lin
  - tcp_rot
points: 
  - 
    positions: [0.9852458125848795, 0.9852458125848795, -0.9852458125848795, 0.9852458125848795, 0.9852458125848795, 0.9852458125848795, 0.1, 0.1]
    velocities: []
    accelerations: []
    effort: []
    time_from_start: 
      secs: 0
      nsecs:  50000000
---
header: 
  seq: 94
  stamp: 
    secs: 1737602909
    nsecs: 373551130
  frame_id: ''
joint_names: 
  - joint_1
  - joint_2
  - joint_3
  - joint_4
  - joint_5
  - joint_6
  - tcp_lin
  - tcp_rot
points: 
  - 
    positions: [1.0340271616115884, 1.0340271616115884, -1.0340271616115884, 1.0340271616115884, 1.0340271616115884, 1.0340271616115884, 0.1, 0.1]
    velocities: []
    accelerations: []
    effort: []
    time_from_start: 
      secs: 0
      nsecs:  50000000
---
header: 
  seq: 95
  stamp: 
    secs: 1737602909
    nsecs: 398477792
  frame_id: ''
joint_names: 
  - joint_1
  - joint_2
  - joint_3
  - joint_4
  - joint_5
  - joint_6
  - tcp_lin
  - tcp_rot
points: 
  - 
    positions: [1.0812005432322311, 1.0812005432322311, -1.0812005432322311, 1.0812005432322311, 1.0812005432322311, 1.0812005432322311, 0.1, 0.1]
    velocities: []
    accelerations: []
    effort: []
    time_from_start: 
      secs: 0
      nsecs:  50000000
---
header: 
  seq: 96
  stamp: 
    secs: 1737602909
    nsecs: 423454761
  frame_id: ''
joint_names: 
  - joint_1
  - joint_2
  - joint_3
  - joint_4
  - joint_5
  - joint_6
  - tcp_lin
  - tcp_rot
points: 
  - 
    positions: [1.1262444545043, 1.1262444545043, -1.1262444545043, 1.1262444545043, 1.1262444545043, 1.1262444545043, 0.1, 0.1]
    velocities: []
    accelerations: []
    effort: []
    time_from_start: 
      secs: 0
      nsecs:  50000000
---
header: 
  seq: 97
  stamp: 
    secs: 1737602909
    nsecs: 448465108
  frame_id: ''
joint_names: 
  - joint_1
  - joint_2
  - joint_3
  - joint_4
  - joint_5
  - joint_6
  - tcp_lin
  - tcp_rot
points: 
  - 
    positions: [1.1686373924852869, 1.1686373924852869, -1.1686373924852869, 1.1686373924852869, 1.1686373924852869, 1.1686373924852869, 0.1, 0.1]
    velocities: []
    accelerations: []
    effort: []
    time_from_start: 
      secs: 0
      nsecs:  50000000
---
header: 
  seq: 98
  stamp: 
    secs: 1737602909
    nsecs: 473661661
  frame_id: ''
joint_names: 
  - joint_1
  - joint_2
  - joint_3
  - joint_4
  - joint_5
  - joint_6
  - tcp_lin
  - tcp_rot
points: 
  - 
    positions: [1.2078578542326837, 1.2078578542326837, -1.2078578542326837, 1.2078578542326837, 1.2078578542326837, 1.2078578542326837, 0.1, 0.1]
    velocities: []
    accelerations: []
    effort: []
    time_from_start: 
      secs: 0
      nsecs:  50000000
---
header: 
  seq: 99
  stamp: 
    secs: 1737602909
    nsecs: 498596429
  frame_id: ''
joint_names: 
  - joint_1
  - joint_2
  - joint_3
  - joint_4
  - joint_5
  - joint_6
  - tcp_lin
  - tcp_rot
points: 
  - 
    positions: [1.2433843368039827, 1.2433843368039827, -1.2433843368039827, 1.2433843368039827, 1.2433843368039827, 1.2433843368039827, 0.1, 0.1]
    velocities: []
    accelerations: []
    effort: []
    time_from_start: 
      secs: 0
      nsecs:  50000000
---
header: 
  seq: 100
  stamp: 
    secs: 1737602909
    nsecs: 523482322
  frame_id: ''
joint_names: 
  - joint_1
  - joint_2
  - joint_3
  - joint_4
  - joint_5
  - joint_6
  - tcp_lin
  - tcp_rot
points: 
  - 
    positions: [1.2746953372566763, 1.2746953372566763, -1.2746953372566763, 1.2746953372566763, 1.2746953372566763, 1.2746953372566763, 0.1, 0.1]
    velocities: []
    accelerations: []
    effort: []
    time_from_start: 
      secs: 0
      nsecs:  50000000
---
header: 
  seq: 101
  stamp: 
    secs: 1737602909
    nsecs: 548454761
  frame_id: ''
joint_names: 
  - joint_1
  - joint_2
  - joint_3
  - joint_4
  - joint_5
  - joint_6
  - tcp_lin
  - tcp_rot
points: 
  - 
    positions: [1.3012693526482562, 1.3012693526482562, -1.3012693526482562, 1.3012693526482562, 1.3012693526482562, 1.3012693526482562, 0.1, 0.1]
    velocities: []
    accelerations: []
    effort: []
    time_from_start: 
      secs: 0
      nsecs:  50000000
---
header: 
  seq: 102
  stamp: 
    secs: 1737602909
    nsecs: 573945522
  frame_id: ''
joint_names: 
  - joint_1
  - joint_2
  - joint_3
  - joint_4
  - joint_5
  - joint_6
  - tcp_lin
  - tcp_rot
points: 
  - 
    positions: [1.3225848800362145, 1.3225848800362145, -1.3225848800362145, 1.3225848800362145, 1.3225848800362145, 1.3225848800362145, 0.1, 0.1]
    velocities: []
    accelerations: []
    effort: []
    time_from_start: 
      secs: 0
      nsecs:  50000000
---
header: 
  seq: 103
  stamp: 
    secs: 1737602909
    nsecs: 598815441
  frame_id: ''
joint_names: 
  - joint_1
  - joint_2
  - joint_3
  - joint_4
  - joint_5
  - joint_6
  - tcp_lin
  - tcp_rot
points: 
  - 
    positions: [1.3387741059302842, 1.3387741059302842, -1.3387741059302842, 1.3387741059302842, 1.3387741059302842, 1.3387741059302842, 0.1, 0.1]
    velocities: []
    accelerations: []
    effort: []
    time_from_start: 
      secs: 0
      nsecs:  50000000
---
header: 
  seq: 104
  stamp: 
    secs: 1737602909
    nsecs: 623675823
  frame_id: ''
joint_names: 
  - joint_1
  - joint_2
  - joint_3
  - joint_4
  - joint_5
  - joint_6
  - tcp_lin
  - tcp_rot
points: 
  - 
    positions: [1.3510294250792205, 1.3510294250792205, -1.3510294250792205, 1.3510294250792205, 1.3510294250792205, 1.3510294250792205, 0.1, 0.1]
    velocities: []
    accelerations: []
    effort: []
    time_from_start: 
      secs: 0
      nsecs:  50000000
---
header: 
  seq: 105
  stamp: 
    secs: 1737602909
    nsecs: 648482799
  frame_id: ''
joint_names: 
  - joint_1
  - joint_2
  - joint_3
  - joint_4
  - joint_5
  - joint_6
  - tcp_lin
  - tcp_rot
points: 
  - 
    positions: [1.3598949751018554, 1.3598949751018554, -1.3598949751018554, 1.3598949751018554, 1.3598949751018554, 1.3598949751018554, 0.1, 0.1]
    velocities: []
    accelerations: []
    effort: []
    time_from_start: 
      secs: 0
      nsecs:  50000000
---
header: 
  seq: 106
  stamp: 
    secs: 1737602909
    nsecs: 673607587
  frame_id: ''
joint_names: 
  - joint_1
  - joint_2
  - joint_3
  - joint_4
  - joint_5
  - joint_6
  - tcp_lin
  - tcp_rot
points: 
  - 
    positions: [1.3658922589406965, 1.3658922589406965, -1.3658922589406965, 1.3658922589406965, 1.3658922589406965, 1.3658922589406965, 0.1, 0.1]
    velocities: []
    accelerations: []
    effort: []
    time_from_start: 
      secs: 0
      nsecs:  50000000
---
header: 
  seq: 107
  stamp: 
    secs: 1737602909
    nsecs: 698759078
  frame_id: ''
joint_names: 
  - joint_1
  - joint_2
  - joint_3
  - joint_4
  - joint_5
  - joint_6
  - tcp_lin
  - tcp_rot
points: 
  - 
    positions: [1.369542779538252, 1.369542779538252, -1.369542779538252, 1.369542779538252, 1.369542779538252, 1.369542779538252, 0.1, 0.1]
    velocities: []
    accelerations: []
    effort: []
    time_from_start: 
      secs: 0
      nsecs:  50000000
---
header: 
  seq: 108
  stamp: 
    secs: 1737602909
    nsecs: 723664283
  frame_id: ''
joint_names: 
  - joint_1
  - joint_2
  - joint_3
  - joint_4
  - joint_5
  - joint_6
  - tcp_lin
  - tcp_rot
points: 
  - 
    positions: [1.3713680398370298, 1.3713680398370298, -1.3713680398370298, 1.3713680398370298, 1.3713680398370298, 1.3713680398370298, 0.1, 0.1]
    velocities: []
    accelerations: []
    effort: []
    time_from_start: 
      secs: 0
      nsecs:  50000000
---
header: 
  seq: 109
  stamp: 
    secs: 1737602909
    nsecs: 748456478
  frame_id: ''
joint_names: 
  - joint_1
  - joint_2
  - joint_3
  - joint_4
  - joint_5
  - joint_6
  - tcp_lin
  - tcp_rot
points: 
  - 
    positions: [1.371889542779538, 1.371889542779538, -1.371889542779538, 1.371889542779538, 1.371889542779538, 1.371889542779538, 0.1, 0.1]
    velocities: []
    accelerations: []
    effort: []
    time_from_start: 
      secs: 0
      nsecs:  50000000
---
header: 
  seq: 110
  stamp: 
    secs: 1737602909
    nsecs: 773485660
  frame_id: ''
joint_names: 
  - joint_1
  - joint_2
  - joint_3
  - joint_4
  - joint_5
  - joint_6
  - tcp_lin
  - tcp_rot
points: 
  - 
    positions: [1.3716287913082839, 1.3716287913082839, -1.3716287913082839, 1.3716287913082839, 1.3716287913082839, 1.3716287913082839, 0.1, 0.1]
    velocities: []
    accelerations: []
    effort: []
    time_from_start: 
      secs: 0
      nsecs:  50000000
---
header: 
  seq: 111
  stamp: 
    secs: 1737602909
    nsecs: 798465490
  frame_id: ''
joint_names: 
  - joint_1
  - joint_2
  - joint_3
  - joint_4
  - joint_5
  - joint_6
  - tcp_lin
  - tcp_rot
points: 
  - 
    positions: [1.3711072883657758, 1.3711072883657758, -1.3711072883657758, 1.3711072883657758, 1.3711072883657758, 1.3711072883657758, 0.1, 0.1]
    velocities: []
    accelerations: []
    effort: []
    time_from_start: 
      secs: 0
      nsecs:  50000000
---
header: 
  seq: 112
  stamp: 
    secs: 1737602909
    nsecs: 823582172
  frame_id: ''
joint_names: 
  - joint_1
  - joint_2
  - joint_3
  - joint_4
  - joint_5
  - joint_6
  - tcp_lin
  - tcp_rot
points: 
  - 
    positions: [1.3708465368945217, 1.3708465368945217, -1.3708465368945217, 1.3708465368945217, 1.3708465368945217, 1.3708465368945217, 0.1, 0.1]
    velocities: []
    accelerations: []
    effort: []
    time_from_start: 
      secs: 0
      nsecs:  50000000
---
header: 
  seq: 113
  stamp: 
    secs: 1737602909
    nsecs: 848652601
  frame_id: ''
joint_names: 
  - joint_1
  - joint_2
  - joint_3
  - joint_4
  - joint_5
  - joint_6
  - tcp_lin
  - tcp_rot
points: 
  - 
    positions: [1.3708465368945217, 1.3708465368945217, -1.3708465368945217, 1.3708465368945217, 1.3708465368945217, 1.3708465368945217, 0.1, 0.1]
    velocities: []
    accelerations: []
    effort: []
    time_from_start: 
      secs: 0
      nsecs:  50000000
---
header: 
  seq: 114
  stamp: 
    secs: 1737602910
    nsecs: 874034404
  frame_id: ''
joint_names: 
  - joint_1
  - joint_2
  - joint_3
  - joint_4
  - joint_5
  - joint_6
  - tcp_lin
  - tcp_rot
points: 
  - 
    positions: [0.0, 0.0, 0.0, 0.0, 0.0, 0.0, 0.1, 0.1]
    velocities: []
    accelerations: []
    effort: []
    time_from_start: 
      secs: 3
      nsecs:         0
---
header: 
  seq: 115
  stamp: 
    secs: 1737602915
    nsecs: 878645896
  frame_id: ''
joint_names: 
  - joint_1
  - joint_2
  - joint_3
  - joint_4
  - joint_5
  - joint_6
  - tcp_lin
  - tcp_rot
points: 
  - 
    positions: [0.0, 0.0, -0.0, 0.0, 0.0, 0.0, 0.1, 0.1]
    velocities: []
    accelerations: []
    effort: []
    time_from_start: 
      secs: 0
      nsecs:  40000000
---
header: 
  seq: 116
  stamp: 
    secs: 1737602915
    nsecs: 898763418
  frame_id: ''
joint_names: 
  - joint_1
  - joint_2
  - joint_3
  - joint_4
  - joint_5
  - joint_6
  - tcp_lin
  - tcp_rot
points: 
  - 
    positions: [0.0002647515081873025, 0.0002647515081873025, -0.0002647515081873025, 0.0002647515081873025, 0.0002647515081873025, 0.0002647515081873025, 0.1, 0.1]
    velocities: []
    accelerations: []
    effort: []
    time_from_start: 
      secs: 0
      nsecs:  40000000
---
header: 
  seq: 117
  stamp: 
    secs: 1737602915
    nsecs: 918971061
  frame_id: ''
joint_names: 
  - joint_1
  - joint_2
  - joint_3
  - joint_4
  - joint_5
  - joint_6
  - tcp_lin
  - tcp_rot
points: 
  - 
    positions: [0.0011913817868428613, 0.0011913817868428613, -0.0011913817868428613, 0.0011913817868428613, 0.0011913817868428613, 0.0011913817868428613, 0.1, 0.1]
    velocities: []
    accelerations: []
    effort: []
    time_from_start: 
      secs: 0
      nsecs:  40000000
---
header: 
  seq: 118
  stamp: 
    secs: 1737602915
    nsecs: 939445972
  frame_id: ''
joint_names: 
  - joint_1
  - joint_2
  - joint_3
  - joint_4
  - joint_5
  - joint_6
  - tcp_lin
  - tcp_rot
points: 
  - 
    positions: [0.0030446423441539785, 0.0030446423441539785, -0.0030446423441539785, 0.0030446423441539785, 0.0030446423441539785, 0.0030446423441539785, 0.1, 0.1]
    velocities: []
    accelerations: []
    effort: []
    time_from_start: 
      secs: 0
      nsecs:  40000000
---
header: 
  seq: 119
  stamp: 
    secs: 1737602915
    nsecs: 958932161
  frame_id: ''
joint_names: 
  - joint_1
  - joint_2
  - joint_3
  - joint_4
  - joint_5
  - joint_6
  - tcp_lin
  - tcp_rot
points: 
  - 
    positions: [0.006089284688307957, 0.006089284688307957, -0.006089284688307957, 0.006089284688307957, 0.006089284688307957, 0.006089284688307957, 0.1, 0.1]
    velocities: []
    accelerations: []
    effort: []
    time_from_start: 
      secs: 0
      nsecs:  40000000
---
header: 
  seq: 120
  stamp: 
    secs: 1737602915
    nsecs: 978799104
  frame_id: ''
joint_names: 
  - joint_1
  - joint_2
  - joint_3
  - joint_4
  - joint_5
  - joint_6
  - tcp_lin
  - tcp_rot
points: 
  - 
    positions: [0.0105900603274921, 0.0105900603274921, -0.0105900603274921, 0.0105900603274921, 0.0105900603274921, 0.0105900603274921, 0.1, 0.1]
    velocities: []
    accelerations: []
    effort: []
    time_from_start: 
      secs: 0
      nsecs:  40000000
---
header: 
  seq: 121
  stamp: 
    secs: 1737602915
    nsecs: 999367952
  frame_id: ''
joint_names: 
  - joint_1
  - joint_2
  - joint_3
  - joint_4
  - joint_5
  - joint_6
  - tcp_lin
  - tcp_rot
points: 
  - 
    positions: [0.016811720769893707, 0.016811720769893707, -0.016811720769893707, 0.016811720769893707, 0.016811720769893707, 0.016811720769893707, 0.1, 0.1]
    velocities: []
    accelerations: []
    effort: []
    time_from_start: 
      secs: 0
      nsecs:  40000000
---
header: 
  seq: 122
  stamp: 
    secs: 1737602916
    nsecs:  19566535
  frame_id: ''
joint_names: 
  - joint_1
  - joint_2
  - joint_3
  - joint_4
  - joint_5
  - joint_6
  - tcp_lin
  - tcp_rot
points: 
  - 
    positions: [0.025019017523700084, 0.025019017523700084, -0.025019017523700084, 0.025019017523700084, 0.025019017523700084, 0.025019017523700084, 0.1, 0.1]
    velocities: []
    accelerations: []
    effort: []
    time_from_start: 
      secs: 0
      nsecs:  40000000
---
header: 
  seq: 123
  stamp: 
    secs: 1737602916
    nsecs:  39099216
  frame_id: ''
joint_names: 
  - joint_1
  - joint_2
  - joint_3
  - joint_4
  - joint_5
  - joint_6
  - tcp_lin
  - tcp_rot
points: 
  - 
    positions: [0.035476702097098536, 0.035476702097098536, -0.035476702097098536, 0.035476702097098536, 0.035476702097098536, 0.035476702097098536, 0.1, 0.1]
    velocities: []
    accelerations: []
    effort: []
    time_from_start: 
      secs: 0
      nsecs:  40000000
---
header: 
  seq: 124
  stamp: 
    secs: 1737602916
    nsecs:  58772563
  frame_id: ''
joint_names: 
  - joint_1
  - joint_2
  - joint_3
  - joint_4
  - joint_5
  - joint_6
  - tcp_lin
  - tcp_rot
points: 
  - 
    positions: [0.04844952599827636, 0.04844952599827636, -0.04844952599827636, 0.04844952599827636, 0.04844952599827636, 0.04844952599827636, 0.1, 0.1]
    velocities: []
    accelerations: []
    effort: []
    time_from_start: 
      secs: 0
      nsecs:  40000000
---
header: 
  seq: 125
  stamp: 
    secs: 1737602916
    nsecs:  78839778
  frame_id: ''
joint_names: 
  - joint_1
  - joint_2
  - joint_3
  - joint_4
  - joint_5
  - joint_6
  - tcp_lin
  - tcp_rot
points: 
  - 
    positions: [0.06420224073542084, 0.06420224073542084, -0.06420224073542084, 0.06420224073542084, 0.06420224073542084, 0.06420224073542084, 0.1, 0.1]
    velocities: []
    accelerations: []
    effort: []
    time_from_start: 
      secs: 0
      nsecs:  40000000
---
header: 
  seq: 126
  stamp: 
    secs: 1737602916
    nsecs:  98887681
  frame_id: ''
joint_names: 
  - joint_1
  - joint_2
  - joint_3
  - joint_4
  - joint_5
  - joint_6
  - tcp_lin
  - tcp_rot
points: 
  - 
    positions: [0.08299959781671931, 0.08299959781671931, -0.08299959781671931, 0.08299959781671931, 0.08299959781671931, 0.08299959781671931, 0.1, 0.1]
    velocities: []
    accelerations: []
    effort: []
    time_from_start: 
      secs: 0
      nsecs:  40000000
---
header: 
  seq: 127
  stamp: 
    secs: 1737602916
    nsecs: 118766307
  frame_id: ''
joint_names: 
  - joint_1
  - joint_2
  - joint_3
  - joint_4
  - joint_5
  - joint_6
  - tcp_lin
  - tcp_rot
points: 
  - 
    positions: [0.10510634875035907, 0.10510634875035907, -0.10510634875035907, 0.10510634875035907, 0.10510634875035907, 0.10510634875035907, 0.1, 0.1]
    velocities: []
    accelerations: []
    effort: []
    time_from_start: 
      secs: 0
      nsecs:  40000000
---
