header: 
  seq: 240639
  stamp: 
    secs: 1737602693
    nsecs: 636801824
  frame_id: ''
name: 
  - joint_1
  - joint_2
  - joint_3
  - joint_4
  - joint_5
  - joint_6
  - tcp_lin
  - tcp_rot
position: [4.4000674626257906e-08, -3.000081157977115e-08, -1.7766097175492075e-07, -1.1597123972348294e-07, -1.847100863995499e-07, 4.113722606830077e-10, -1.1102230246251565e-16, -1.1102230246251565e-16]
velocity: [1.4882448519866176e-05, -6.9811887452738656e-06, -3.446897420235356e-05, -8.525015772234983e-06, -3.369007408141049e-05, 8.247134346945431e-06, 0.0, 0.0]
effort: [-11.948805000000002, -26.529, -18.389599999999998, -0.9664457142857142, -1.01088, -0.016, 0.0, 0.0]
---
header: 
  seq: 240640
  stamp: 
    secs: 1737602693
    nsecs: 656802694
  frame_id: ''
name: 
  - joint_1
  - joint_2
  - joint_3
  - joint_4
  - joint_5
  - joint_6
  - tcp_lin
  - tcp_rot
position: [-3.460623966478962e-08, 1.8045363334992842e-12, 1.2171178436177932e-07, 2.877321372844891e-08, 4.4385679784934464e-07, 6.698170383507302e-12, -1.1102230246251565e-16, -1.1102230246251565e-16]
velocity: [-1.2312958410864704e-05, -5.983153570454581e-07, 2.5844339152319478e-05, 1.571849467485464e-05, 0.00012910338092165662, -1.0742330127754513e-05, 0.0, 0.0]
effort: [-12.310890000000002, -26.051, -18.084799999999998, -1.033097142857143, -1.01088, -0.048, 0.0, 0.0]
---
header: 
  seq: 240641
  stamp: 
    secs: 1737602693
    nsecs: 676797096
  frame_id: ''
name: 
  - joint_1
  - joint_2
  - joint_3
  - joint_4
  - joint_5
  - joint_6
  - tcp_lin
  - tcp_rot
position: [-1.2344070091993982e-08, -3.086073795528674e-08, 5.367217024726844e-08, -9.009766262326672e-08, 1.2311343712382507e-07, -1.2368658102475412e-07, -1.1102230246251565e-16, -1.1102230246251565e-16]
velocity: [2.7283161534136547e-07, -8.278484227890989e-06, 2.3567599755042084e-05, -2.416090205478617e-05, 4.292532340503654e-05, -2.7545790212336065e-05, 0.0, 0.0]
effort: [-12.672975000000001, -27.246, -18.1864, -0.8664685714285714, -0.9849600000000001, -0.048, 0.0, 0.0]
---
header: 
  seq: 240642
  stamp: 
    secs: 1737602693
    nsecs: 696897223
  frame_id: ''
name: 
  - joint_1
  - joint_2
  - joint_3
  - joint_4
  - joint_5
  - joint_6
  - tcp_lin
  - tcp_rot
position: [-3.423949258496093e-08, 3.085814889339999e-08, 4.201925294937842e-08, -3.198724829402445e-08, 5.691981789049634e-07, -1.2619937418124621e-07, -1.1102230246251565e-16, -1.1102230246251565e-16]
velocity: [-8.548396150178877e-06, 8.127679161630191e-06, 1.219672600308453e-06, -9.068614101635248e-06, 0.0001654723404661416, -2.782451694302646e-05, 0.0, 0.0]
effort: [-12.310890000000002, -27.485, -18.288, -0.5665371428571429, -1.01088, -0.048, 0.0, 0.0]
---
header: 
  seq: 240643
  stamp: 
    secs: 1737602693
    nsecs: 716807383
  frame_id: ''
name: 
  - joint_1
  - joint_2
  - joint_3
  - joint_4
  - joint_5
  - joint_6
  - tcp_lin
  - tcp_rot
position: [4.949206304904789e-09, -2.996144762872014e-08, 9.380779903282541e-09, 2.593945272056172e-12, -2.218946204630408e-07, -5.991432071227277e-08, -1.1102230246251565e-16, -1.1102230246251565e-16]
velocity: [-7.951066441691306e-07, -6.567530502566984e-06, -1.5392460634427907e-05, -9.496379290027617e-06, -6.93313077175335e-05, -9.369445535900387e-06, 0.0, 0.0]
effort: [-12.672975000000001, -26.29, -18.1864, -0.9997714285714285, -0.9849600000000001, -0.048, 0.0, 0.0]
---
header: 
  seq: 240644
  stamp: 
    secs: 1737602693
    nsecs: 736795969
  frame_id: ''
name: 
  - joint_1
  - joint_2
  - joint_3
  - joint_4
  - joint_5
  - joint_6
  - tcp_lin
  - tcp_rot
position: [-3.5438045611836694e-08, -3.0052854240658363e-08, 4.5258246295618694e-08, -1.7319706129256023e-07, -2.2029640581184004e-07, -1.382786982164558e-09, -1.1102230246251565e-16, -1.1102230246251565e-16]
velocity: [-5.290377672048866e-06, -7.121483521283933e-06, 2.7621183081016763e-05, -1.713679824989953e-05, -5.71448310462023e-05, 1.1549497963760728e-05, 0.0, 0.0]
effort: [-12.672975000000001, -27.006999999999998, -18.288, -1.1663999999999999, -0.9331200000000001, -0.064, 0.0, 0.0]
---
header: 
  seq: 240645
  stamp: 
    secs: 1737602693
    nsecs: 756964294
  frame_id: ''
name: 
  - joint_1
  - joint_2
  - joint_3
  - joint_4
  - joint_5
  - joint_6
  - tcp_lin
  - tcp_rot
position: [-3.4303010014862566e-08, -3.000438268919451e-08, 4.6041408594353853e-08, 5.825504167277195e-08, 1.1369357036571784e-07, 1.1816225477932692e-07, -1.1102230246251565e-16, -1.1102230246251565e-16]
velocity: [-2.2703000387001164e-06, -5.797970796303201e-06, 1.8940183348355573e-05, -1.7719878227397175e-06, -4.563529074653598e-06, 3.5589989673599624e-05, 0.0, 0.0]
effort: [-11.948805000000002, -27.246, -18.288, -0.7998171428571428, -1.01088, -0.08, 0.0, 0.0]
---
header: 
  seq: 240646
  stamp: 
    secs: 1737602693
    nsecs: 776806666
  frame_id: ''
name: 
  - joint_1
  - joint_2
  - joint_3
  - joint_4
  - joint_5
  - joint_6
  - tcp_lin
  - tcp_rot
position: [-7.35790270796042e-08, 2.976411247445515e-08, -2.7713728889311004e-08, 2.8419287829846834e-08, -7.30614947999285e-08, 2.2615015249087547e-11, -1.1102230246251565e-16, -1.1102230246251565e-16]
velocity: [-1.975402783891819e-05, 9.59170680616857e-06, 8.71758747337941e-07, 2.178229497935276e-05, -2.053107334448881e-05, 2.3291292399451314e-06, 0.0, 0.0]
effort: [-13.035060000000001, -26.768, -18.4912, -0.7331657142857143, -1.0368000000000002, -0.064, 0.0, 0.0]
---
header: 
  seq: 240647
  stamp: 
    secs: 1737602693
    nsecs: 796967510
  frame_id: ''
name: 
  - joint_1
  - joint_2
  - joint_3
  - joint_4
  - joint_5
  - joint_6
  - tcp_lin
  - tcp_rot
position: [4.4464842702797336e-08, 1.0479883986425769e-10, 8.40478895897531e-08, -5.909143252821858e-10, 4.424848072675947e-07, 6.040134232545378e-08, -1.1102230246251565e-16, -1.1102230246251565e-16]
velocity: [1.2100160609948466e-05, -1.9352719383130883e-06, 2.1148882542265113e-05, 1.6325686599879304e-05, 0.00013163639336260006, 1.7094770453801536e-05, 0.0, 0.0]
effort: [-12.310890000000002, -27.246, -18.288, -1.033097142857143, -1.0368000000000002, -0.016, 0.0, 0.0]
---
header: 
  seq: 240648
  stamp: 
    secs: 1737602693
    nsecs: 816794978
  frame_id: ''
name: 
  - joint_1
  - joint_2
  - joint_3
  - joint_4
  - joint_5
  - joint_6
  - tcp_lin
  - tcp_rot
position: [-3.4611473655391194e-08, -2.996486234340527e-08, 9.358729257664135e-09, 8.631329766037168e-08, -1.8497247035920085e-07, 1.198565538305806e-07, -1.1102230246251565e-16, -1.1102230246251565e-16]
velocity: [-4.3711041412119506e-06, -1.7442264349883238e-05, 1.4791048539850244e-06, 1.5882068460089934e-05, -6.648310828466026e-05, 3.8657190231016106e-05, 0.0, 0.0]
effort: [-11.948805000000002, -26.29, -18.084799999999998, -0.6331885714285714, -0.9849600000000001, -0.064, 0.0, 0.0]
---
header: 
  seq: 240649
  stamp: 
    secs: 1737602693
    nsecs: 836794866
  frame_id: ''
name: 
  - joint_1
  - joint_2
  - joint_3
  - joint_4
  - joint_5
  - joint_6
  - tcp_lin
  - tcp_rot
position: [-7.408914829843499e-08, -2.997112621388355e-08, -1.4017890149712788e-07, 8.645250955643097e-08, -2.586060992942196e-07, -2.3953089042762927e-07, -1.1102230246251565e-16, -1.1102230246251565e-16]
velocity: [-2.6427270625576313e-05, -4.881805293725543e-06, -2.843282485996113e-05, 1.032706927488906e-05, -7.674025934844383e-05, -4.819648751736992e-05, 0.0, 0.0]
effort: [-12.672975000000001, -26.768, -18.389599999999998, -0.8331428571428571, -1.06272, -0.032, 0.0, 0.0]
---
header: 
  seq: 240650
  stamp: 
    secs: 1737602693
    nsecs: 857056454
  frame_id: ''
name: 
  - joint_1
  - joint_2
  - joint_3
  - joint_4
  - joint_5
  - joint_6
  - tcp_lin
  - tcp_rot
position: [-1.4796542970267446e-08, -3.004965953042572e-08, 4.673290047724984e-08, 2.8892475626066676e-08, 1.8417417771487675e-07, -1.1999750867112101e-07, -1.1102230246251565e-16, -1.1102230246251565e-16]
velocity: [-7.957641703839502e-07, -7.837399528851613e-06, 5.843077589545433e-06, 1.1640665814726678e-05, 2.746882170467414e-05, -2.7811500737286503e-05, 0.0, 0.0]
effort: [-12.310890000000002, -27.485, -18.288, -0.9664457142857142, -1.06272, -0.08, 0.0, 0.0]
---
header: 
  seq: 240651
  stamp: 
    secs: 1737602693
    nsecs: 876792265
  frame_id: ''
name: 
  - joint_1
  - joint_2
  - joint_3
  - joint_4
  - joint_5
  - joint_6
  - tcp_lin
  - tcp_rot
position: [-7.414509799183527e-08, 1.1982040781573285e-07, -1.0297865927023606e-07, -8.629540024230945e-08, -3.703521421915656e-08, -1.1981897079696022e-07, -1.1102230246251565e-16, -1.1102230246251565e-16]
velocity: [-1.9144010592987884e-05, 3.0784841592691514e-05, -3.0990614945141344e-05, -1.3711468813451867e-05, -6.104512765213449e-06, -2.492617882599264e-05, 0.0, 0.0]
effort: [-11.948805000000002, -26.529, -18.288, -0.93312, -1.06272, 0.0, 0.0, 0.0]
---
header: 
  seq: 240652
  stamp: 
    secs: 1737602693
    nsecs: 896800445
  frame_id: ''
name: 
  - joint_1
  - joint_2
  - joint_3
  - joint_4
  - joint_5
  - joint_6
  - tcp_lin
  - tcp_rot
position: [-1.4831617458308352e-08, -8.214327946933884e-11, 9.294678625460935e-09, -1.7191196771508268e-10, -1.847746450347476e-07, -5.996723829741631e-08, -1.1102230246251565e-16, -1.1102230246251565e-16]
velocity: [-3.4157282736590917e-07, -8.344278495044219e-06, -7.397522382157927e-06, -3.0652963758697824e-05, -1.781548458710065e-05, -1.4127449064088685e-05, 0.0, 0.0]
effort: [-12.672975000000001, -27.006999999999998, -18.1864, -0.6331885714285714, -1.01088, -0.048, 0.0, 0.0]
---
header: 
  seq: 240653
  stamp: 
    secs: 1737602693
    nsecs: 916793916
  frame_id: ''
name: 
  - joint_1
  - joint_2
  - joint_3
  - joint_4
  - joint_5
  - joint_6
  - tcp_lin
  - tcp_rot
position: [2.47331528994691e-08, 2.996193310432723e-08, -2.8071882160581463e-08, -2.0139985305241007e-07, -1.1086504269676385e-07, -5.990938507616526e-08, -1.1102230246251565e-16, -1.1102230246251565e-16]
velocity: [6.349032908142367e-06, 4.753630883461253e-06, -1.883581343806041e-05, -3.6646010590628026e-05, -5.956334433644289e-05, -1.9134184556117137e-05, 0.0, 0.0]
effort: [-12.672975000000001, -26.768, -18.1864, -0.5665371428571429, -1.06272, -0.064, 0.0, 0.0]
---
header: 
  seq: 240654
  stamp: 
    secs: 1737602693
    nsecs: 936798176
  frame_id: ''
name: 
  - joint_1
  - joint_2
  - joint_3
  - joint_4
  - joint_5
  - joint_6
  - tcp_lin
  - tcp_rot
position: [-5.4398476253363656e-08, -7.877309616581508e-12, -1.4044253686593191e-07, 2.8726983435950475e-08, -1.4800338613297552e-07, -1.798021506745497e-07, -1.1102230246251565e-16, -1.1102230246251565e-16]
velocity: [-2.615715151766472e-05, -1.425324919088626e-06, -2.8759717472505537e-05, -2.1433424674506115e-05, -4.081616415534078e-05, -3.9256709748717065e-05, 0.0, 0.0]
effort: [-11.948805000000002, -27.485, -18.1864, -0.9664457142857142, -0.8812800000000001, -0.064, 0.0, 0.0]
---
header: 
  seq: 240655
  stamp: 
    secs: 1737602693
    nsecs: 957211535
  frame_id: ''
name: 
  - joint_1
  - joint_2
  - joint_3
  - joint_4
  - joint_5
  - joint_6
  - tcp_lin
  - tcp_rot
position: [-7.409195233376236e-08, -2.9963421135490636e-08, 9.42644211659338e-09, -1.4382220637508862e-07, 2.590733102141609e-07, -3.0257681848287786e-11, -1.1102230246251565e-16, -1.1102230246251565e-16]
velocity: [-2.9915575645621506e-05, -5.1637474675645124e-06, -8.33248832266239e-06, -2.37858831918002e-05, 3.4051848560591574e-05, 1.3412052828143677e-05, 0.0, 0.0]
effort: [-10.86255, -27.006999999999998, -18.084799999999998, -1.0664228571428571, -0.9072000000000001, -0.064, 0.0, 0.0]
---
header: 
  seq: 240656
  stamp: 
    secs: 1737602693
    nsecs: 976793379
  frame_id: ''
name: 
  - joint_1
  - joint_2
  - joint_3
  - joint_4
  - joint_5
  - joint_6
  - tcp_lin
  - tcp_rot
position: [-1.4836639380767149e-08, 8.992080037392058e-08, 9.38919640891502e-09, 5.756791540729679e-08, -7.39817563472053e-08, -2.2785885210559086e-11, -1.1102230246251565e-16, -1.1102230246251565e-16]
velocity: [-8.050437389356152e-07, 1.9351519890783268e-05, 1.5834475441638016e-05, 1.42006298518713e-05, 2.529813944234281e-06, -1.1416375216480916e-05, 0.0, 0.0]
effort: [-13.759230000000002, -27.006999999999998, -18.389599999999998, -0.9997714285714285, -1.06272, -0.08, 0.0, 0.0]
---
header: 
  seq: 240657
  stamp: 
    secs: 1737602693
    nsecs: 996798118
  frame_id: ''
name: 
  - joint_1
  - joint_2
  - joint_3
  - joint_4
  - joint_5
  - joint_6
  - tcp_lin
  - tcp_rot
position: [2.4719586496714013e-08, 2.9971123208800286e-08, -2.7997059366255602e-08, 1.1509718124231342e-07, -3.7473916397557344e-08, 6.944003412593187e-11, -1.1102230246251565e-16, -1.1102230246251565e-16]
velocity: [-2.3980814103926687e-07, 8.163248567282618e-06, -4.594718406991604e-06, 1.7259199985718637e-05, 3.1290615117756935e-05, -6.238297384408306e-06, 0.0, 0.0]
effort: [-11.948805000000002, -27.485, -18.1864, -0.8997942857142857, -0.9590400000000001, -0.064, 0.0, 0.0]
---
header: 
  seq: 240658
  stamp: 
    secs: 1737602694
    nsecs:  16835193
  frame_id: ''
name: 
  - joint_1
  - joint_2
  - joint_3
  - joint_4
  - joint_5
  - joint_6
  - tcp_lin
  - tcp_rot
position: [2.4271856089122545e-08, 3.030971480020428e-08, 9.861274875405533e-09, -5.837777002508759e-08, -1.5050274582921056e-07, 6.061505613124611e-08, -1.1102230246251565e-16, -1.1102230246251565e-16]
velocity: [6.682008633990537e-06, 8.562214679696627e-06, 2.7113102394517076e-06, -1.9531299327038944e-05, -6.183378279247503e-05, 1.705875213772831e-05, 0.0, 0.0]
effort: [-11.948805000000002, -27.006999999999998, -18.288, -0.6665142857142857, -1.06272, -0.032, 0.0, 0.0]
---
header: 
  seq: 240659
  stamp: 
    secs: 1737602694
    nsecs:  36793073
  frame_id: ''
name: 
  - joint_1
  - joint_2
  - joint_3
  - joint_4
  - joint_5
  - joint_6
  - tcp_lin
  - tcp_rot
position: [-1.3345851146027265e-07, 2.995299898841084e-08, -6.558212100736532e-08, 2.8751048996652304e-08, -2.219090479422774e-07, -1.1977068760398933e-07, -1.1102230246251565e-16, -1.1102230246251565e-16]
velocity: [-3.8317452537227126e-05, 9.100232222999057e-06, -7.320249410977546e-06, 8.818728228852237e-06, -5.293788951114305e-05, -4.232387149464367e-05, 0.0, 0.0]
effort: [-11.948805000000002, -27.006999999999998, -18.288, -0.9997714285714285, -1.01088, -0.048, 0.0, 0.0]
---
header: 
  seq: 240660
  stamp: 
    secs: 1737602694
    nsecs:  56792749
  frame_id: ''
name: 
  - joint_1
  - joint_2
  - joint_3
  - joint_4
  - joint_5
  - joint_6
  - tcp_lin
  - tcp_rot
position: [4.961841481843845e-09, -1.6571308559588957e-11, 4.677627387908373e-08, -1.1503384270756083e-07, 6.28662442910521e-07, 1.6301694873593317e-10, -1.1102230246251565e-16, -1.1102230246251565e-16]
velocity: [-1.0211889426554643e-05, 2.778371348243678e-06, 1.3955068333918752e-05, -1.902378495698526e-05, 0.0001775597472925542, -3.2112386622831894e-05, 0.0, 0.0]
effort: [-11.948805000000002, -27.006999999999998, -18.288, -0.49988571428571427, -0.9590400000000001, -0.048, 0.0, 0.0]
---
header: 
  seq: 240661
  stamp: 
    secs: 1737602694
    nsecs:  76799506
  frame_id: ''
name: 
  - joint_1
  - joint_2
  - joint_3
  - joint_4
  - joint_5
  - joint_6
  - tcp_lin
  - tcp_rot
position: [-5.4396436093427376e-08, -2.996375022387652e-08, -1.4042604146255e-07, 2.6076153033797383e-12, -3.7056643850906496e-08, 1.1978076400376667e-07, -1.1102230246251565e-16, -1.1102230246251565e-16]
velocity: [-9.171935383519603e-06, -7.333349665654436e-06, -4.247432846981955e-05, 6.00290820849756e-06, -9.195368880452465e-06, 3.826899341517426e-05, 0.0, 0.0]
effort: [-12.672975000000001, -27.006999999999998, -18.4912, -0.9664457142857142, -1.0368000000000002, -0.064, 0.0, 0.0]
---
header: 
  seq: 240662
  stamp: 
    secs: 1737602694
    nsecs:  96793688
  frame_id: ''
name: 
  - joint_1
  - joint_2
  - joint_3
  - joint_4
  - joint_5
  - joint_6
  - tcp_lin
  - tcp_rot
position: [4.452469606425992e-08, -2.991381270614483e-08, 1.215679829866011e-07, -2.857054216798633e-08, -3.744246750073083e-08, -2.489275101379251e-11, -1.1102230246251565e-16, -1.1102230246251565e-16]
velocity: [1.5263195226810093e-05, -5.035239288814378e-06, 3.3836817498103147e-05, -9.436146484905608e-06, 1.6995967432115587e-05, -1.3084966531714315e-05, 0.0, 0.0]
effort: [-11.586720000000001, -27.006999999999998, -18.1864, -0.7998171428571428, -1.01088, -0.064, 0.0, 0.0]
---
header: 
  seq: 240663
  stamp: 
    secs: 1737602694
    nsecs: 116804030
  frame_id: ''
name: 
  - joint_1
  - joint_2
  - joint_3
  - joint_4
  - joint_5
  - joint_6
  - tcp_lin
  - tcp_rot
position: [-1.4359578842485408e-08, -8.106061022039085e-10, -6.389836665849184e-08, -1.1384581381260316e-07, -1.8278062657746026e-07, 6.033223379659171e-08, -1.1102230246251565e-16, -1.1102230246251565e-16]
velocity: [-3.6768706293259632e-06, 1.60859166740459e-06, -1.7517134680976883e-05, -1.5971411204612014e-05, -7.046846203718324e-05, 1.4033689298752126e-05, 0.0, 0.0]
effort: [-13.035060000000001, -27.485, -18.288, -1.033097142857143, -1.11456, -0.048, 0.0, 0.0]
---
header: 
  seq: 240664
  stamp: 
    secs: 1737602694
    nsecs: 136793163
  frame_id: ''
name: 
  - joint_1
  - joint_2
  - joint_3
  - joint_4
  - joint_5
  - joint_6
  - tcp_lin
  - tcp_rot
position: [-1.4826477360535183e-08, -2.995189795975772e-08, 4.680786954486719e-08, -2.8765086783430187e-08, -2.958808160695327e-07, 1.1981537521984285e-07, -1.1102230246251565e-16, -1.1102230246251565e-16]
velocity: [-7.412054266453411e-06, -9.14377464089918e-06, 5.152472918719769e-06, -7.497895868428051e-06, -6.967416348847097e-05, 2.2209277711194495e-05, 0.0, 0.0]
effort: [-11.586720000000001, -27.006999999999998, -18.4912, -0.6331885714285714, -0.9331200000000001, -0.032, 0.0, 0.0]
---
header: 
  seq: 240665
  stamp: 
    secs: 1737602694
    nsecs: 156793803
  frame_id: ''
name: 
  - joint_1
  - joint_2
  - joint_3
  - joint_4
  - joint_5
  - joint_6
  - tcp_lin
  - tcp_rot
position: [2.472054213898039e-08, 2.996097511847461e-08, 1.591691864038757e-07, -2.876693130684021e-08, 4.0687136764793285e-07, -5.992333966374489e-08, -1.1102230246251565e-16, -1.1102230246251565e-16]
velocity: [1.1086538856180243e-05, 1.0690920342566112e-05, 5.168874890569803e-05, 2.640399652361337e-06, 9.595950081197119e-05, -1.6136357179898976e-05, 0.0, 0.0]
effort: [-13.759230000000002, -26.529, -18.389599999999998, -1.033097142857143, -1.01088, -0.064, 0.0, 0.0]
---
header: 
  seq: 240666
  stamp: 
    secs: 1737602694
    nsecs: 176852238
  frame_id: ''
name: 
  - joint_1
  - joint_2
  - joint_3
  - joint_4
  - joint_5
  - joint_6
  - tcp_lin
  - tcp_rot
position: [-5.421343410746447e-08, 3.3036083095462667e-10, 8.454035483302803e-08, -8.741020071078567e-08, -2.223783934517352e-07, 5.908836234072204e-08, -1.1102230246251565e-16, -1.1102230246251565e-16]
velocity: [-1.3544801348287597e-05, 3.2937870874809834e-06, 1.4621915434885268e-05, -2.4636920464018177e-05, -7.326269595727895e-05, 7.417393656364288e-06, 0.0, 0.0]
effort: [-12.310890000000002, -26.768, -18.084799999999998, -0.6331885714285714, -1.06272, -0.096, 0.0, 0.0]
---
header: 
  seq: 240667
  stamp: 
    secs: 1737602694
    nsecs: 196793881
  frame_id: ''
name: 
  - joint_1
  - joint_2
  - joint_3
  - joint_4
  - joint_5
  - joint_6
  - tcp_lin
  - tcp_rot
position: [2.472009277627163e-08, -2.9960622472005845e-08, -6.553888438142581e-08, 5.753812444654968e-08, -3.698734646250738e-08, -1.1984249935493127e-07, -1.1102230246251565e-16, -1.1102230246251565e-16]
velocity: [1.976665165243681e-05, -7.961278216464565e-06, -1.6320561505797197e-05, 2.7543822381716196e-05, 3.0469704779502725e-05, -2.8296309932340055e-05, 0.0, 0.0]
effort: [-13.035060000000001, -27.006999999999998, -18.1864, -0.7998171428571428, -1.01088, -0.08, 0.0, 0.0]
---
header: 
  seq: 240668
  stamp: 
    secs: 1737602694
    nsecs: 216795801
  frame_id: ''
name: 
  - joint_1
  - joint_2
  - joint_3
  - joint_4
  - joint_5
  - joint_6
  - tcp_lin
  - tcp_rot
position: [-5.4382996397279095e-08, 2.993765393638201e-08, 9.394024320573958e-09, 2.873531010830842e-08, -1.1084174266864291e-07, -5.99257741749776e-08, -1.1102230246251565e-16, -1.1102230246251565e-16]
velocity: [-1.7928588113349065e-05, 1.039181493275751e-05, -7.135292733801418e-06, 1.4083793166656182e-05, -6.638750577391628e-05, -1.0057492859794174e-05, 0.0, 0.0]
effort: [-13.035060000000001, -27.246, -18.4912, -0.5998628571428571, -0.9849600000000001, -0.048, 0.0, 0.0]
---
header: 
  seq: 240669
  stamp: 
    secs: 1737602694
    nsecs: 236796896
  frame_id: ''
name: 
  - joint_1
  - joint_2
  - joint_3
  - joint_4
  - joint_5
  - joint_6
  - tcp_lin
  - tcp_rot
position: [-5.43773067588564e-08, 8.758982171673243e-13, -2.809057552811074e-08, -1.7261658882785112e-07, -2.588626030044164e-07, -1.797091929216082e-07, -1.1102230246251565e-16, -1.1102230246251565e-16]
velocity: [-1.7117771620032757e-05, 3.002996794218614e-06, -8.733409961741813e-06, -1.4688232499375996e-05, -6.765007865118789e-05, -5.410714242147567e-05, 0.0, 0.0]
effort: [-13.035060000000001, -26.529, -18.084799999999998, -0.9664457142857142, -0.9590400000000001, -0.048, 0.0, 0.0]
---
header: 
  seq: 240670
  stamp: 
    secs: 1737602694
    nsecs: 256795859
  frame_id: ''
name: 
  - joint_1
  - joint_2
  - joint_3
  - joint_4
  - joint_5
  - joint_6
  - tcp_lin
  - tcp_rot
position: [4.450672053903473e-08, -2.995738045975062e-08, -6.560211059020219e-08, 2.3015952746749881e-07, 5.180863064484064e-07, -1.2003541412011657e-07, -1.1102230246251565e-16, -1.1102230246251565e-16]
velocity: [8.967544295409952e-06, -3.1714876721222673e-06, -1.1711563604321142e-05, 4.772991803056821e-05, 0.00015813889661348303, -4.7099569151572135e-05, 0.0, 0.0]
effort: [-12.310890000000002, -28.201999999999998, -18.1864, -0.7331657142857143, -0.9849600000000001, -0.048, 0.0, 0.0]
---
header: 
  seq: 240671
  stamp: 
    secs: 1737602694
    nsecs: 276797197
  frame_id: ''
name: 
  - joint_1
  - joint_2
  - joint_3
  - joint_4
  - joint_5
  - joint_6
  - tcp_lin
  - tcp_rot
position: [-1.4734002544196046e-08, 2.9608252333197698e-08, -2.8376357105174605e-08, 2.8975710110205486e-08, -1.1064715125683573e-07, -6.033802889233823e-08, -1.1102230246251565e-16, -1.1102230246251565e-16]
velocity: [-5.7856954275145945e-06, 9.538024663195977e-06, -3.851106132591725e-06, 8.725264539225864e-07, -2.8632188224740474e-05, 2.3568169950738028e-07, 0.0, 0.0]
effort: [-11.948805000000002, -27.485, -18.288, -0.7998171428571428, -1.08864, -0.08, 0.0, 0.0]
---
header: 
  seq: 240672
  stamp: 
    secs: 1737602694
    nsecs: 296811824
  frame_id: ''
name: 
  - joint_1
  - joint_2
  - joint_3
  - joint_4
  - joint_5
  - joint_6
  - tcp_lin
  - tcp_rot
position: [-5.4404061732182504e-08, -9.322039777475712e-13, -1.0303247974411079e-07, 2.883767102910811e-08, -1.8487680408978216e-07, -1.1998993596339006e-07, -1.1102230246251565e-16, -1.1102230246251565e-16]
velocity: [-1.773445078598468e-05, 1.9172456996581564e-06, -2.3639055073079555e-05, 1.6821584708391887e-06, -2.2729109850213045e-05, -5.533572252988729e-05, 0.0, 0.0]
effort: [-11.586720000000001, -27.485, -18.084799999999998, -1.033097142857143, -0.9331200000000001, -0.016, 0.0, 0.0]
---
header: 
  seq: 240673
  stamp: 
    secs: 1737602694
    nsecs: 316793794
  frame_id: ''
name: 
  - joint_1
  - joint_2
  - joint_3
  - joint_4
  - joint_5
  - joint_6
  - tcp_lin
  - tcp_rot
position: [2.4778737545590014e-08, -2.571869497532548e-11, 9.293183518163305e-09, 8.632155396975695e-08, -1.479857549325473e-07, 1.494418427355208e-11, -1.1102230246251565e-16, -1.1102230246251565e-16]
velocity: [2.02234281139299e-06, 3.1273213165530163e-06, 2.3661886033279497e-06, 1.614070624517445e-05, -3.425283604996138e-05, 1.5691423518967695e-05, 0.0, 0.0]
effort: [-11.948805000000002, -26.768, -18.389599999999998, -1.033097142857143, -1.11456, -0.08, 0.0, 0.0]
---
header: 
  seq: 240674
  stamp: 
    secs: 1737602694
    nsecs: 336846355
  frame_id: ''
name: 
  - joint_1
  - joint_2
  - joint_3
  - joint_4
  - joint_5
  - joint_6
  - tcp_lin
  - tcp_rot
position: [-3.476401044514494e-08, -2.993648927191772e-08, -1.0429073658099885e-07, -5.811560213523599e-08, -2.97196044572649e-07, -1.8086748723785127e-07, -1.1102230246251565e-16, -1.1102230246251565e-16]
velocity: [-6.419650313964324e-07, -2.932299482629322e-06, -2.8068109005745077e-05, -4.395217560854011e-05, -6.417697512319133e-05, -4.462379854334952e-05, 0.0, 0.0]
effort: [-12.310890000000002, -26.768, -18.1864, -0.8664685714285714, -1.0368000000000002, -0.112, 0.0, 0.0]
---
header: 
  seq: 240675
  stamp: 
    secs: 1737602694
    nsecs: 356792521
  frame_id: ''
name: 
  - joint_1
  - joint_2
  - joint_3
  - joint_4
  - joint_5
  - joint_6
  - tcp_lin
  - tcp_rot
position: [1.4337448796619335e-07, 7.784356488886857e-15, -1.0299041284253534e-07, -8.630659595692762e-08, 3.698841358773646e-07, 1.696986208644273e-13, -1.1102230246251565e-16, -1.1102230246251565e-16]
velocity: [2.632278387186735e-05, -5.834605068004268e-07, -3.88588858939428e-05, -2.4214818312313062e-05, 9.88997363479214e-05, -1.2802664967330767e-05, 0.0, 0.0]
effort: [-12.310890000000002, -27.006999999999998, -18.1864, -0.8331428571428571, -1.06272, -0.08, 0.0, 0.0]
---
header: 
  seq: 240676
  stamp: 
    secs: 1737602694
    nsecs: 376793522
  frame_id: ''
name: 
  - joint_1
  - joint_2
  - joint_3
  - joint_4
  - joint_5
  - joint_6
  - tcp_lin
  - tcp_rot
position: [-9.391649185306824e-08, -1.2340958106643669e-11, 9.324362060374074e-09, -1.4381307141529603e-07, -3.702390766325521e-08, 1.796913267672619e-07, -1.1102230246251565e-16, -1.1102230246251565e-16]
velocity: [-3.4203502384251446e-05, 5.782824105098783e-06, 1.9168108567416616e-05, -3.878138003096423e-05, -8.050085066368608e-06, 4.341180518230472e-05, 0.0, 0.0]
effort: [-12.310890000000002, -26.768, -18.1864, -1.1330742857142857, -0.9849600000000001, -0.064, 0.0, 0.0]
---
header: 
  seq: 240677
  stamp: 
    secs: 1737602694
    nsecs: 396797348
  frame_id: ''
name: 
  - joint_1
  - joint_2
  - joint_3
  - joint_4
  - joint_5
  - joint_6
  - tcp_lin
  - tcp_rot
position: [-1.486472050948174e-08, -3.0016121366225876e-08, 9.407357881652928e-09, 1.7284437434232888e-07, -1.476114471571496e-07, 1.8025034377562697e-07, -1.1102230246251565e-16, -1.1102230246251565e-16]
velocity: [-1.1561727451887627e-05, -1.2554651951098171e-05, -6.024444196807068e-07, 3.226605137960179e-05, 4.348518188428886e-06, 6.423160834773066e-05, 0.0, 0.0]
effort: [-12.310890000000002, -26.768, -18.288, -1.2330514285714285, -0.9849600000000001, -0.048, 0.0, 0.0]
---
header: 
  seq: 240678
  stamp: 
    secs: 1737602694
    nsecs: 416792705
  frame_id: ''
name: 
  - joint_1
  - joint_2
  - joint_3
  - joint_4
  - joint_5
  - joint_6
  - tcp_lin
  - tcp_rot
position: [-1.4827758099165199e-08, -3.823086942874052e-12, 9.363465527806914e-09, 2.8750494344438015e-08, -1.4789077303756033e-07, -5.989975697560322e-08, -1.1102230246251565e-16, -1.1102230246251565e-16]
velocity: [-1.0358945752685142e-05, 3.4103715717307843e-06, 5.491071600882203e-06, 1.729776287442625e-05, -8.294167786311252e-05, -3.135698016038198e-05, 0.0, 0.0]
effort: [-11.948805000000002, -26.529, -18.389599999999998, -1.2330514285714285, -1.01088, -0.048, 0.0, 0.0]
---
header: 
  seq: 240679
  stamp: 
    secs: 1737602694
    nsecs: 436797884
  frame_id: ''
name: 
  - joint_1
  - joint_2
  - joint_3
  - joint_4
  - joint_5
  - joint_6
  - tcp_lin
  - tcp_rot
position: [-1.49539150966941e-08, 3.004389598966893e-08, 9.251418416419425e-09, -1.728191958300331e-07, -1.474365610181551e-07, -6.073304507448297e-08, -1.1102230246251565e-16, -1.1102230246251565e-16]
velocity: [-1.0166782489348972e-05, 1.0157724297581687e-05, -1.0226927525091446e-05, -3.6486718022319955e-05, -1.634680684338567e-05, -3.926006958726946e-05, 0.0, 0.0]
effort: [-11.948805000000002, -27.246, -18.389599999999998, -1.2330514285714285, -1.01088, -0.032, 0.0, 0.0]
---
header: 
  seq: 240680
  stamp: 
    secs: 1737602694
    nsecs: 456792465
  frame_id: ''
name: 
  - joint_1
  - joint_2
  - joint_3
  - joint_4
  - joint_5
  - joint_6
  - tcp_lin
  - tcp_rot
position: [-1.4822574051933486e-08, -2.995260347817814e-08, -2.8083596429291457e-08, -1.1507392266923006e-07, 4.438563824621299e-07, -1.1980531744138407e-07, -1.1102230246251565e-16, -1.1102230246251565e-16]
velocity: [-1.3302135577780452e-05, -4.127926275560224e-06, -6.380073768591626e-06, -2.2174796956194758e-05, 0.00012126118456160348, -4.068870583054168e-05, 0.0, 0.0]
effort: [-14.121315000000001, -27.006999999999998, -18.5928, -0.5998628571428571, -0.9849600000000001, -0.064, 0.0, 0.0]
---
header: 
  seq: 240681
  stamp: 
    secs: 1737602694
    nsecs: 476794527
  frame_id: ''
name: 
  - joint_1
  - joint_2
  - joint_3
  - joint_4
  - joint_5
  - joint_6
  - tcp_lin
  - tcp_rot
position: [-1.4828549872967596e-08, -9.48343013094934e-12, 9.362991927139435e-09, 2.881868263434337e-08, -1.1491384192909739e-10, -1.1983139491366343e-07, -1.1102230246251565e-16, -1.1102230246251565e-16]
velocity: [-9.421127510891143e-06, 1.1588335732594745e-06, 9.597002672506994e-07, -2.0864437642606578e-05, 2.0906416573243205e-05, -2.6952609524220053e-05, 0.0, 0.0]
effort: [-13.397145000000002, -27.246, -18.694399999999998, -0.5665371428571429, -1.0368000000000002, -0.048, 0.0, 0.0]
---
header: 
  seq: 240682
  stamp: 
    secs: 1737602694
    nsecs: 496966374
  frame_id: ''
name: 
  - joint_1
  - joint_2
  - joint_3
  - joint_4
  - joint_5
  - joint_6
  - tcp_lin
  - tcp_rot
position: [4.166010708963901e-08, -3.0169409309157846e-08, 1.8963018972422438e-07, -5.620360783071202e-08, 4.6319088699556795e-07, 2.402454333425657e-10, -1.1102230246251565e-16, -1.1102230246251565e-16]
velocity: [6.540121484661305e-06, -4.594583006411573e-06, 4.69254731926429e-05, -7.301710168012953e-06, 0.0001284594554276387, 1.905013290753795e-06, 0.0, 0.0]
effort: [-12.310890000000002, -26.529, -18.389599999999998, -0.93312, -0.9590400000000001, -0.048, 0.0, 0.0]
---
header: 
  seq: 240683
  stamp: 
    secs: 1737602694
    nsecs: 516792772
  frame_id: ''
name: 
  - joint_1
  - joint_2
  - joint_3
  - joint_4
  - joint_5
  - joint_6
  - tcp_lin
  - tcp_rot
position: [-1.4813105962789799e-08, -2.9962652248992564e-08, 4.676184103859229e-08, -1.1505941217256701e-07, -1.1080730728101525e-07, 1.1976397939587638e-07, -1.1102230246251565e-16, -1.1102230246251565e-16]
velocity: [-1.0047016014338736e-05, -5.4606677958515005e-06, 1.5105626947435609e-05, -1.7156280761848886e-05, -6.856413335318799e-05, 3.5114833216905014e-05, 0.0, 0.0]
effort: [-12.310890000000002, -26.768, -18.288, -0.8331428571428571, -0.9849600000000001, -0.048, 0.0, 0.0]
---
header: 
  seq: 240684
  stamp: 
    secs: 1737602694
    nsecs: 536793342
  frame_id: ''
name: 
  - joint_1
  - joint_2
  - joint_3
  - joint_4
  - joint_5
  - joint_6
  - tcp_lin
  - tcp_rot
position: [4.944094305998749e-09, -2.9958228848625954e-08, 9.365979408661126e-09, 1.1508898994960077e-07, -3.3286992928513416e-07, -1.1985602178635766e-07, -1.1102230246251565e-16, -1.1102230246251565e-16]
velocity: [1.096583542226171e-06, -5.97110433849338e-06, -3.501433960801131e-06, 1.2951483490268768e-06, -7.370225638962044e-05, -2.1651945049085354e-05, 0.0, 0.0]
effort: [-12.672975000000001, -28.201999999999998, -18.288, -0.4332342857142857, -0.9590400000000001, -0.08, 0.0, 0.0]
---
header: 
  seq: 240685
  stamp: 
    secs: 1737602694
    nsecs: 556793989
  frame_id: ''
name: 
  - joint_1
  - joint_2
  - joint_3
  - joint_4
  - joint_5
  - joint_6
  - tcp_lin
  - tcp_rot
position: [6.426414046860439e-08, -8.572412771590533e-13, 9.356328248832822e-09, 8.631643666015585e-08, 5.17821595456193e-07, -1.2298340408286525e-13, -1.1102230246251565e-16, -1.1102230246251565e-16]
velocity: [1.7832340882229865e-05, -4.62687466602152e-06, 3.202051621948023e-06, 2.6736368634477167e-05, 0.0001393606040889039, -6.677016736233897e-07, 0.0, 0.0]
effort: [-12.672975000000001, -27.246, -18.084799999999998, -1.4663314285714286, -1.01088, -0.064, 0.0, 0.0]
---
header: 
  seq: 240686
  stamp: 
    secs: 1737602694
    nsecs: 576793999
  frame_id: ''
name: 
  - joint_1
  - joint_2
  - joint_3
  - joint_4
  - joint_5
  - joint_6
  - tcp_lin
  - tcp_rot
position: [-1.5324544272014893e-07, -2.9962720874531645e-08, -2.8090548973678423e-08, -2.874378170680086e-08, -3.710347384143833e-08, -1.1985117394864484e-07, -1.1102230246251565e-16, -1.1102230246251565e-16]
velocity: [-4.6782208672403054e-05, -3.8485998892858234e-06, -4.50310046537564e-06, -1.3108344755351627e-05, -2.022621657687421e-05, -1.5912104985028062e-05, 0.0, 0.0]
effort: [-13.035060000000001, -26.051, -18.389599999999998, -1.2663771428571429, -1.01088, -0.048, 0.0, 0.0]
---
header: 
  seq: 240687
  stamp: 
    secs: 1737602694
    nsecs: 596924870
  frame_id: ''
name: 
  - joint_1
  - joint_2
  - joint_3
  - joint_4
  - joint_5
  - joint_6
  - tcp_lin
  - tcp_rot
position: [4.462731872230832e-08, -2.991092149486709e-08, 9.062780747869704e-09, -5.7711805354531875e-08, 3.726220432326984e-07, 1.2132708060508528e-07, -1.1102230246251565e-16, -1.1102230246251565e-16]
velocity: [7.252302025805134e-06, -4.669763246159942e-06, -8.558627979740205e-06, -1.2119876685014091e-05, 0.00010892392604844469, 3.6256623021132636e-05, 0.0, 0.0]
effort: [-12.672975000000001, -26.29, -18.1864, -0.7998171428571428, -0.9590400000000001, -0.064, 0.0, 0.0]
---
header: 
  seq: 240688
  stamp: 
    secs: 1737602694
    nsecs: 616792776
  frame_id: ''
name: 
  - joint_1
  - joint_2
  - joint_3
  - joint_4
  - joint_5
  - joint_6
  - tcp_lin
  - tcp_rot
position: [4.448388295655538e-08, -2.9948701739392794e-08, -6.552407947446465e-08, 1.4388244661052438e-07, -1.4782331890252218e-07, -8.549273677591435e-11, -1.1102230246251565e-16, -1.1102230246251565e-16]
velocity: [1.4953184974098749e-05, -5.653588961295281e-06, -7.415768980442305e-06, 2.2112752782628975e-05, -6.626022043296801e-05, 4.562016917529119e-06, 0.0, 0.0]
effort: [-13.035060000000001, -26.29, -18.1864, -0.8664685714285714, -0.9849600000000001, -0.048, 0.0, 0.0]
---
header: 
  seq: 240689
  stamp: 
    secs: 1737602694
    nsecs: 636793053
  frame_id: ''
name: 
  - joint_1
  - joint_2
  - joint_3
  - joint_4
  - joint_5
  - joint_6
  - tcp_lin
  - tcp_rot
position: [-1.483284766585417e-08, 1.2542052366813822e-12, -6.55363077087155e-08, -8.630477715570347e-08, -2.9590167193762547e-07, -4.57251932663835e-13, -1.1102230246251565e-16, -1.1102230246251565e-16]
velocity: [-1.6677662017282392e-06, 3.93632460871438e-07, -1.633303816857456e-05, -2.4283174849871206e-05, -6.0817900414888006e-05, -1.1084132809960165e-05, 0.0, 0.0]
effort: [-13.397145000000002, -26.529, -18.389599999999998, -0.9997714285714285, -0.9590400000000001, -0.048, 0.0, 0.0]
---
header: 
  seq: 240690
  stamp: 
    secs: 1737602694
    nsecs: 656890906
  frame_id: ''
name: 
  - joint_1
  - joint_2
  - joint_3
  - joint_4
  - joint_5
  - joint_6
  - tcp_lin
  - tcp_rot
position: [6.434775827752744e-08, -2.0904255414059144e-12, -6.56901066338453e-08, 2.873789096980864e-08, 1.1068782297181724e-07, 4.0732983014624754e-11, -1.1102230246251565e-16, -1.1102230246251565e-16]
velocity: [2.0717946536567223e-05, 2.592425624385536e-06, -2.9834632961123916e-05, 1.0700559779336192e-05, 2.2526302247783273e-05, 8.307612174584476e-06, 0.0, 0.0]
effort: [-11.586720000000001, -27.246, -18.288, -0.69984, -0.9849600000000001, -0.048, 0.0, 0.0]
---
header: 
  seq: 240691
  stamp: 
    secs: 1737602694
    nsecs: 676792381
  frame_id: ''
name: 
  - joint_1
  - joint_2
  - joint_3
  - joint_4
  - joint_5
  - joint_6
  - tcp_lin
  - tcp_rot
position: [6.426910487344408e-08, 8.897180349228304e-14, 4.680948427181626e-08, 1.1507096239179642e-07, -3.6999119464677465e-08, -1.1984084599903633e-07, -1.1102230246251565e-16, -1.1102230246251565e-16]
velocity: [2.0694046437767418e-05, 1.9069645990969672e-06, 2.8870211851000555e-05, 3.151202583694187e-05, -8.820330945876715e-06, -2.970378769403891e-05, 0.0, 0.0]
effort: [-12.672975000000001, -27.006999999999998, -18.694399999999998, -0.9664457142857142, -1.08864, -0.08, 0.0, 0.0]
---
header: 
  seq: 240692
  stamp: 
    secs: 1737602694
    nsecs: 696796562
  frame_id: ''
name: 
  - joint_1
  - joint_2
  - joint_3
  - joint_4
  - joint_5
  - joint_6
  - tcp_lin
  - tcp_rot
position: [-1.4810663928019992e-08, 2.9949178289542645e-12, -2.8119349155119073e-08, 5.757408392429713e-08, -7.380021389904206e-08, 5.340858621757463e-12, -1.1102230246251565e-16, -1.1102230246251565e-16]
velocity: [1.6127686141479588e-06, -5.408986877520682e-06, -1.9145610246353565e-05, 2.1100507016732558e-05, 1.8443094557325877e-05, -9.552071927596342e-06, 0.0, 0.0]
effort: [-13.035060000000001, -27.006999999999998, -18.1864, -1.0664228571428571, -0.9849600000000001, -0.08, 0.0, 0.0]
---
header: 
  seq: 240693
  stamp: 
    secs: 1737602694
    nsecs: 716801333
  frame_id: ''
name: 
  - joint_1
  - joint_2
  - joint_3
  - joint_4
  - joint_5
  - joint_6
  - tcp_lin
  - tcp_rot
position: [2.4708331726964318e-08, 1.904168039970071e-11, 9.361025418774818e-09, 5.751778240357274e-08, -2.2168449866889786e-07, 1.197422992964741e-07, -1.1102230246251565e-16, -1.1102230246251565e-16]
velocity: [2.797112815867877e-06, -2.1098409375883214e-06, -2.398046676172132e-06, 2.8783164509952873e-05, -8.455844410917774e-05, 3.3618640926011885e-05, 0.0, 0.0]
effort: [-12.672975000000001, -26.768, -18.4912, -0.9997714285714285, -1.06272, -0.064, 0.0, 0.0]
---
header: 
  seq: 240694
  stamp: 
    secs: 1737602694
    nsecs: 736793178
  frame_id: ''
name: 
  - joint_1
  - joint_2
  - joint_3
  - joint_4
  - joint_5
  - joint_6
  - tcp_lin
  - tcp_rot
position: [-5.438097956344734e-08, 1.0032792977020166e-11, -1.029859884239861e-07, -8.625797608214746e-08, -2.2186205037430095e-07, -2.1420529554991924e-11, -1.1102230246251565e-16, -1.1102230246251565e-16]
velocity: [-1.2611270425059626e-05, -4.98286346916893e-06, -2.8910477881916608e-05, -2.3805494730459507e-05, -5.231268662709173e-05, 6.5201587059399206e-06, 0.0, 0.0]
effort: [-11.586720000000001, -27.724, -18.288, -1.033097142857143, -1.0368000000000002, 0.016, 0.0, 0.0]
---
header: 
  seq: 240695
  stamp: 
    secs: 1737602694
    nsecs: 756795623
  frame_id: ''
name: 
  - joint_1
  - joint_2
  - joint_3
  - joint_4
  - joint_5
  - joint_6
  - tcp_lin
  - tcp_rot
position: [5.197096651416307e-09, 3.005698818422242e-08, 4.540650207486748e-08, 1.4488555644777756e-07, 5.214037887347915e-09, -1.1933293699128907e-07, -1.1102230246251565e-16, -1.1102230246251565e-16]
velocity: [-4.155239368705446e-06, 6.278031092552215e-06, 1.7160831380029007e-05, 1.5250216572760622e-05, -1.7842578143363e-05, -2.7405801909669706e-05, 0.0, 0.0]
effort: [-11.948805000000002, -27.006999999999998, -18.288, -0.8331428571428571, -1.08864, -0.064, 0.0, 0.0]
---
header: 
  seq: 240696
  stamp: 
    secs: 1737602694
    nsecs: 776792532
  frame_id: ''
name: 
  - joint_1
  - joint_2
  - joint_3
  - joint_4
  - joint_5
  - joint_6
  - tcp_lin
  - tcp_rot
position: [-3.460708042211839e-08, 2.99560489781038e-08, 1.2171436038901784e-07, -8.631846458656871e-08, -1.1103037958426745e-07, -1.2630869899060944e-11, -1.1102230246251565e-16, -1.1102230246251565e-16]
velocity: [4.372358021536718e-06, 6.1114436876347074e-06, 3.5187810475207645e-05, -7.505206808696033e-06, -1.2216895622571989e-05, -6.8043059224097135e-06, 0.0, 0.0]
effort: [-13.397145000000002, -26.768, -18.084799999999998, -0.7998171428571428, -1.08864, -0.096, 0.0, 0.0]
---
header: 
  seq: 240697
  stamp: 
    secs: 1737602694
    nsecs: 796796180
  frame_id: ''
name: 
  - joint_1
  - joint_2
  - joint_3
  - joint_4
  - joint_5
  - joint_6
  - tcp_lin
  - tcp_rot
position: [-3.4596259083003565e-08, 1.1979536687526392e-07, 9.41257483009075e-09, 2.8654435388178156e-08, -7.424491217530584e-08, -5.988581324069604e-08, -1.1102230246251565e-16, -1.1102230246251565e-16]
velocity: [-4.391391589437843e-06, 2.7947313755796055e-05, -8.990448459286462e-06, 2.163030369624399e-05, 1.5627932796811206e-05, -1.3296888516153027e-05, 0.0, 0.0]
effort: [-11.948805000000002, -27.246, -18.288, -0.7331657142857143, -1.01088, -0.032, 0.0, 0.0]
---
header: 
  seq: 240698
  stamp: 
    secs: 1737602694
    nsecs: 817143599
  frame_id: ''
name: 
  - joint_1
  - joint_2
  - joint_3
  - joint_4
  - joint_5
  - joint_6
  - tcp_lin
  - tcp_rot
position: [4.824092982367501e-09, -3.0106781988482e-08, -6.565614509371676e-08, 8.672109954843377e-08, -2.2507368097696166e-07, 5.999080391730449e-08, -1.1102230246251565e-16, -1.1102230246251565e-16]
velocity: [-1.743593398942744e-06, -7.155672727330338e-06, -1.6423881408843784e-05, 2.163969490495848e-05, -9.143159092003084e-05, -1.0451516117241286e-06, 0.0, 0.0]
effort: [-12.310890000000002, -27.006999999999998, -18.4912, -1.5663085714285714, -1.06272, -0.064, 0.0, 0.0]
---
header: 
  seq: 240699
  stamp: 
    secs: 1737602694
    nsecs: 836793305
  frame_id: ''
name: 
  - joint_1
  - joint_2
  - joint_3
  - joint_4
  - joint_5
  - joint_6
  - tcp_lin
  - tcp_rot
position: [-1.4818041322438984e-08, 8.834496636050471e-13, 4.6818019981991467e-08, -8.627181248163916e-08, -2.588735653280204e-07, -5.990857889780001e-08, -1.1102230246251565e-16, -1.1102230246251565e-16]
velocity: [-1.0538271939366531e-05, 3.0978922090986235e-06, 1.6271737229660237e-05, -2.3479366269515297e-05, -6.462446972551636e-05, -1.593908561750516e-05, 0.0, 0.0]
effort: [-11.224635000000001, -26.529, -18.084799999999998, -1.0997485714285713, -0.9590400000000001, -0.048, 0.0, 0.0]
---
header: 
  seq: 240700
  stamp: 
    secs: 1737602694
    nsecs: 856792364
  frame_id: ''
name: 
  - joint_1
  - joint_2
  - joint_3
  - joint_4
  - joint_5
  - joint_6
  - tcp_lin
  - tcp_rot
position: [-3.462314852864157e-08, -1.2204971119249848e-11, 4.67778982659939e-08, -5.7502167265718475e-08, 4.068541330864104e-07, -5.981904366798091e-08, -1.1102230246251565e-16, -1.1102230246251565e-16]
velocity: [-1.2798841186589387e-06, -2.738438413724647e-06, 1.7299162207467908e-05, -2.060726570840717e-05, 0.0001005610478028266, -2.6121521128110394e-05, 0.0, 0.0]
effort: [-11.586720000000001, -26.29, -18.084799999999998, -1.2663771428571429, -0.9072000000000001, -0.048, 0.0, 0.0]
---
header: 
  seq: 240701
  stamp: 
    secs: 1737602694
    nsecs: 876795820
  frame_id: ''
name: 
  - joint_1
  - joint_2
  - joint_3
  - joint_4
  - joint_5
  - joint_6
  - tcp_lin
  - tcp_rot
position: [-9.39374354626415e-08, -2.9962663569915415e-08, -6.551645641729895e-08, -2.8714848376405223e-08, -3.7032629742053843e-08, 1.7971031006331068e-07, -1.1102230246251565e-16, -1.1102230246251565e-16]
velocity: [-2.41977086200904e-05, -5.510261705407474e-06, -1.6492167323655783e-05, -2.5521123157398574e-06, -5.180107862482056e-06, 4.059053506844602e-05, 0.0, 0.0]
effort: [-11.586720000000001, -27.246, -18.1864, -0.7331657142857143, -1.08864, -0.048, 0.0, 0.0]
---
header: 
  seq: 240702
  stamp: 
    secs: 1737602694
    nsecs: 896794213
  frame_id: ''
name: 
  - joint_1
  - joint_2
  - joint_3
  - joint_4
  - joint_5
  - joint_6
  - tcp_lin
  - tcp_rot
position: [-3.461375976371337e-08, 3.3657690938862313e-13, -6.553331196450724e-08, 1.7261194373199316e-07, -7.396866078252753e-08, -1.8531426649636345e-11, -1.1102230246251565e-16, -1.1102230246251565e-16]
velocity: [-1.0565256125315992e-05, -2.803046853518015e-06, -7.666928445183362e-06, 3.174484588640472e-05, 6.9926924571561124e-06, -2.535249170174582e-05, 0.0, 0.0]
effort: [-11.586720000000001, -27.246, -18.288, -1.2663771428571429, -1.0368000000000002, -0.096, 0.0, 0.0]
---
header: 
  seq: 240703
  stamp: 
    secs: 1737602694
    nsecs: 916800090
  frame_id: ''
name: 
  - joint_1
  - joint_2
  - joint_3
  - joint_4
  - joint_5
  - joint_6
  - tcp_lin
  - tcp_rot
position: [8.292944959676523e-08, -3.0114277196300646e-08, -1.0083742341270863e-07, -2.2659340235443244e-08, -1.492836523903124e-07, -3.2931945351752592e-09, -1.1102230246251565e-16, -1.1102230246251565e-16]
velocity: [2.009844650357399e-05, -5.508516964117349e-06, -3.661927156235886e-05, -1.389754619960305e-05, -4.7619342563785206e-05, 3.290991808128143e-06, 0.0, 0.0]
effort: [-11.586720000000001, -26.768, -18.288, -1.033097142857143, -1.06272, -0.032, 0.0, 0.0]
---
header: 
  seq: 240704
  stamp: 
    secs: 1737602694
    nsecs: 936792811
  frame_id: ''
name: 
  - joint_1
  - joint_2
  - joint_3
  - joint_4
  - joint_5
  - joint_6
  - tcp_lin
  - tcp_rot
position: [-3.460464473391937e-08, 2.995573734575112e-08, -1.029851471467558e-07, -5.7511880826784036e-08, -2.9586634123923374e-07, -1.197949389956238e-07, -1.1102230246251565e-16, -1.1102230246251565e-16]
velocity: [-5.036594094395415e-06, 8.158433284837671e-06, -1.8103251490664017e-05, -2.8395441862510043e-05, -7.609340145168922e-05, -2.5862791094796378e-05, 0.0, 0.0]
effort: [-12.672975000000001, -27.246, -18.084799999999998, -0.5332114285714286, -1.06272, -0.048, 0.0, 0.0]
---
header: 
  seq: 240705
  stamp: 
    secs: 1737602694
    nsecs: 956792310
  frame_id: ''
name: 
  - joint_1
  - joint_2
  - joint_3
  - joint_4
  - joint_5
  - joint_6
  - tcp_lin
  - tcp_rot
position: [6.425595418954355e-08, 2.994606071939865e-08, 1.5912222019911936e-07, 1.4382357394332992e-07, 3.6987137851032537e-07, 1.1983130552453162e-07, -1.1102230246251565e-16, -1.1102230246251565e-16]
velocity: [2.5945145797256067e-05, 1.1357031465838886e-05, 4.234856756034299e-05, 1.9321603263932247e-05, 0.00010745625700312528, 2.3260206904246914e-05, 0.0, 0.0]
effort: [-12.672975000000001, -27.246, -17.8816, -0.6665142857142857, -1.01088, -0.016, 0.0, 0.0]
---
header: 
  seq: 240706
  stamp: 
    secs: 1737602694
    nsecs: 976829142
  frame_id: ''
name: 
  - joint_1
  - joint_2
  - joint_3
  - joint_4
  - joint_5
  - joint_6
  - tcp_lin
  - tcp_rot
position: [2.5642222099472383e-08, -2.988149484950683e-08, -6.735730021754489e-08, -2.87742097773212e-08, -3.3942144721097035e-08, 1.2071523910135776e-07, -1.1102230246251565e-16, -1.1102230246251565e-16]
velocity: [1.0899940315761797e-05, -4.118369673226867e-06, -1.7172453146143816e-05, 5.020899566692685e-07, -1.0021538889914068e-05, 1.4506017479754677e-05, 0.0, 0.0]
effort: [-12.672975000000001, -27.006999999999998, -18.084799999999998, -0.5998628571428571, -1.0368000000000002, -0.048, 0.0, 0.0]
---
header: 
  seq: 240707
  stamp: 
    secs: 1737602694
    nsecs: 996796124
  frame_id: ''
name: 
  - joint_1
  - joint_2
  - joint_3
  - joint_4
  - joint_5
  - joint_6
  - tcp_lin
  - tcp_rot
position: [-1.13709565650978e-07, -2.996268204548304e-08, 4.681307725630755e-08, 5.753831593590421e-08, -7.395728908003203e-08, 1.2853840548176475e-13, -1.1102230246251565e-16, -1.1102230246251565e-16]
velocity: [-2.3543162574628965e-05, -6.592540146618533e-06, 3.350903306623612e-06, 1.8996781671946415e-05, 7.83524090717936e-06, -1.4171895075186759e-06, 0.0, 0.0]
effort: [-12.310890000000002, -27.006999999999998, -18.084799999999998, -0.93312, -1.01088, -0.064, 0.0, 0.0]
---
header: 
  seq: 240708
  stamp: 
    secs: 1737602695
    nsecs:  16792944
  frame_id: ''
name: 
  - joint_1
  - joint_2
  - joint_3
  - joint_4
  - joint_5
  - joint_6
  - tcp_lin
  - tcp_rot
position: [8.404657489989594e-08, -2.995351264281701e-08, -1.0299098854544198e-07, 8.630742202732085e-08, -3.693081261411041e-08, 5.992299796401707e-08, -1.1102230246251565e-16, -1.1102230246251565e-16]
velocity: [1.1172171910151983e-05, -9.5654984738809e-06, -1.1093509519489243e-05, 9.053000349581364e-06, -6.999868554608214e-05, 1.3570814782028597e-05, 0.0, 0.0]
effort: [-12.310890000000002, -27.246, -18.288, -1.7329371428571427, -0.9849600000000001, -0.064, 0.0, 0.0]
---
header: 
  seq: 240709
  stamp: 
    secs: 1737602695
    nsecs:  36796689
  frame_id: ''
name: 
  - joint_1
  - joint_2
  - joint_3
  - joint_4
  - joint_5
  - joint_6
  - tcp_lin
  - tcp_rot
position: [2.46843570627859e-08, -2.9973764341866294e-08, 4.666668430122683e-08, -2.0113777285885983e-07, -3.326637117434339e-07, 1.1968616153530045e-07, -1.1102230246251565e-16, -1.1102230246251565e-16]
velocity: [6.793699517761645e-06, -1.2150131462783693e-05, 1.4746596764845236e-05, -6.376354364132656e-05, -8.287570494645396e-05, 3.607681462352452e-05, 0.0, 0.0]
effort: [-12.310890000000002, -26.051, -18.1864, -0.49988571428571427, -1.0368000000000002, -0.016, 0.0, 0.0]
---
header: 
  seq: 240710
  stamp: 
    secs: 1737602695
    nsecs:  56792488
  frame_id: ''
name: 
  - joint_1
  - joint_2
  - joint_3
  - joint_4
  - joint_5
  - joint_6
  - tcp_lin
  - tcp_rot
position: [-3.460634179184222e-08, -2.996351123417355e-08, -6.554835623948935e-08, -2.8760545321968373e-08, 4.0691096296239204e-07, -2.3972997103956236e-07, -1.1102230246251565e-16, -1.1102230246251565e-16]
velocity: [-1.0212759276030832e-05, -1.0747008921843208e-05, -1.2106801967172397e-05, 4.253447351499411e-06, 0.00011472391159075029, -6.305180906688891e-05, 0.0, 0.0]
effort: [-13.035060000000001, -26.768, -18.389599999999998, -0.5665371428571429, -1.0368000000000002, -0.08, 0.0, 0.0]
---
header: 
  seq: 240711
  stamp: 
    secs: 1737602695
    nsecs:  76801184
  frame_id: ''
name: 
  - joint_1
  - joint_2
  - joint_3
  - joint_4
  - joint_5
  - joint_6
  - tcp_lin
  - tcp_rot
position: [4.5694959648099924e-08, 3.160610225391006e-10, -1.4180096441958133e-07, -5.738108509884368e-08, -7.442333928831944e-08, 6.052460876884751e-08, -1.1102230246251565e-16, -1.1102230246251565e-16]
velocity: [2.286877674724475e-05, 4.686814306877869e-06, -4.0838399852856464e-05, -1.2471417790511498e-05, -6.623361223099352e-07, 1.1633810850654571e-05, 0.0, 0.0]
effort: [-11.586720000000001, -26.768, -17.9832, -1.3663542857142856, -1.06272, -0.032, 0.0, 0.0]
---
header: 
  seq: 240712
  stamp: 
    secs: 1737602695
    nsecs:  96792905
  frame_id: ''
name: 
  - joint_1
  - joint_2
  - joint_3
  - joint_4
  - joint_5
  - joint_6
  - tcp_lin
  - tcp_rot
position: [2.4722578595129544e-08, -2.9961811715404434e-08, 4.681956423410806e-08, 5.7520825927067525e-08, -1.4803354599514167e-07, -1.887143907979441e-11, -1.1102230246251565e-16, -1.1102230246251565e-16]
velocity: [7.752383631762452e-06, -3.658852165861145e-06, 1.8122059527576923e-05, 8.873929566755904e-06, -1.2833228083861101e-05, 4.638927058862347e-06, 0.0, 0.0]
effort: [-12.310890000000002, -26.29, -18.4912, -0.93312, -1.0368000000000002, -0.064, 0.0, 0.0]
---
header: 
  seq: 240713
  stamp: 
    secs: 1737602695
    nsecs: 116792843
  frame_id: ''
name: 
  - joint_1
  - joint_2
  - joint_3
  - joint_4
  - joint_5
  - joint_6
  - tcp_lin
  - tcp_rot
position: [-1.4822562051968639e-08, -2.996203728576799e-08, -6.552402233878572e-08, -2.87664561143973e-08, 1.6150089911833774e-10, -2.8407334081232013e-12, -1.1102230246251565e-16, -1.1102230246251565e-16]
velocity: [2.9590920182427806e-08, -3.1064721016678475e-06, -6.460240574905462e-06, 4.755003405262713e-06, -2.955416445349117e-05, -5.9889999566034305e-06, 0.0, 0.0]
effort: [-11.586720000000001, -27.006999999999998, -18.084799999999998, -0.8664685714285714, -0.9590400000000001, -0.064, 0.0, 0.0]
---
header: 
  seq: 240714
  stamp: 
    secs: 1737602695
    nsecs: 137084099
  frame_id: ''
name: 
  - joint_1
  - joint_2
  - joint_3
  - joint_4
  - joint_5
  - joint_6
  - tcp_lin
  - tcp_rot
position: [-9.36122310815046e-08, 8.956478300496768e-08, -1.3998386097956206e-07, 1.4568227512348482e-07, -1.8671049212982913e-07, 2.6757422097016747e-09, -1.1102230246251565e-16, -1.1102230246251565e-16]
velocity: [-2.0226186841214164e-05, 1.9898016495437654e-05, -2.8569271286910468e-05, 2.393058461050666e-05, -3.339681602914688e-05, 6.8360349418220665e-06, 0.0, 0.0]
effort: [-12.310890000000002, -27.485, -17.9832, -0.5665371428571429, -0.9849600000000001, -0.08, 0.0, 0.0]
---
header: 
  seq: 240715
  stamp: 
    secs: 1737602695
    nsecs: 156792407
  frame_id: ''
name: 
  - joint_1
  - joint_2
  - joint_3
  - joint_4
  - joint_5
  - joint_6
  - tcp_lin
  - tcp_rot
position: [2.4720630345234236e-08, -2.996044958002394e-08, 8.426756580005365e-08, 1.150749708564198e-07, 5.17840044239625e-07, -4.832086466610619e-12, -1.1102230246251565e-16, -1.1102230246251565e-16]
velocity: [1.471468729511418e-05, -4.077307015270218e-06, 2.532306448906718e-05, 2.489189066760029e-05, 0.0001466214618470468, -7.164288342730485e-06, 0.0, 0.0]
effort: [-13.035060000000001, -26.529, -18.288, -1.0997485714285713, -1.01088, -0.064, 0.0, 0.0]
---
header: 
  seq: 240716
  stamp: 
    secs: 1737602695
    nsecs: 176792557
  frame_id: ''
name: 
  - joint_1
  - joint_2
  - joint_3
  - joint_4
  - joint_5
  - joint_6
  - tcp_lin
  - tcp_rot
position: [-3.459370003095909e-08, -2.995089493748245e-08, 9.345543935779778e-09, -2.872646215175434e-08, -1.1105982076145792e-07, -1.795235558478213e-07, -1.1102230246251565e-16, -1.1102230246251565e-16]
velocity: [-1.1362144246149744e-05, -1.0779527591312011e-05, 3.4467025102898805e-06, -2.436141862880667e-06, -4.017102647507428e-05, -6.332919227819777e-05, 0.0, 0.0]
effort: [-11.948805000000002, -26.529, -18.1864, -0.8331428571428571, -1.08864, -0.048, 0.0, 0.0]
---
header: 
  seq: 240717
  stamp: 
    secs: 1737602695
    nsecs: 196793510
  frame_id: ''
name: 
  - joint_1
  - joint_2
  - joint_3
  - joint_4
  - joint_5
  - joint_6
  - tcp_lin
  - tcp_rot
position: [4.446252436777824e-08, -1.3487543936270387e-11, 9.382612039393366e-09, -5.751213360628208e-08, -1.850300529968635e-07, 1.1982633754077154e-07, -1.1102230246251565e-16, -1.1102230246251565e-16]
velocity: [1.3594684489936591e-05, 3.4754193932593735e-06, 1.7004378421342586e-06, -7.860108302025999e-06, -2.5480491503221667e-05, 2.8667776347135343e-05, 0.0, 0.0]
effort: [-11.948805000000002, -26.529, -18.694399999999998, -0.7998171428571428, -0.9849600000000001, -0.08, 0.0, 0.0]
---
header: 
  seq: 240718
  stamp: 
    secs: 1737602695
    nsecs: 216797326
  frame_id: ''
name: 
  - joint_1
  - joint_2
  - joint_3
  - joint_4
  - joint_5
  - joint_6
  - tcp_lin
  - tcp_rot
position: [-1.483515445064174e-08, -1.1512230261271513e-11, -2.810739455499101e-08, -8.631323741209597e-08, -1.8477356146311016e-07, 2.161123472761657e-11, -1.1102230246251565e-16, -1.1102230246251565e-16]
velocity: [-7.653130568663496e-06, 2.2976542938603417e-06, -9.112468035923715e-06, -1.7006119842339953e-05, -7.642928761250214e-05, -7.977776680490635e-06, 0.0, 0.0]
effort: [-11.948805000000002, -27.485, -18.389599999999998, -0.2666057142857143, -0.9849600000000001, -0.064, 0.0, 0.0]
---
header: 
  seq: 240719
  stamp: 
    secs: 1737602695
    nsecs: 236798564
  frame_id: ''
name: 
  - joint_1
  - joint_2
  - joint_3
  - joint_4
  - joint_5
  - joint_6
  - tcp_lin
  - tcp_rot
position: [5.014417599364583e-09, 2.8811207983120624e-08, 7.074695444821107e-09, 5.564663231081765e-08, -2.9459252559888103e-07, -1.203127831420435e-07, -1.1102230246251565e-16, -1.1102230246251565e-16]
velocity: [2.39458801269711e-06, 7.839864842461427e-06, 9.141278291404853e-06, 3.442784372213583e-05, -5.468151084067128e-05, -2.3261263517850895e-05, 0.0, 0.0]
effort: [-11.948805000000002, -27.246, -18.288, -1.1663999999999999, -0.9590400000000001, -0.096, 0.0, 0.0]
---
header: 
  seq: 240720
  stamp: 
    secs: 1737602695
    nsecs: 256792803
  frame_id: ''
name: 
  - joint_1
  - joint_2
  - joint_3
  - joint_4
  - joint_5
  - joint_6
  - tcp_lin
  - tcp_rot
position: [4.9417487487585035e-09, 8.985869906210766e-08, 9.40654262029065e-09, -2.8764043225448166e-07, 5.178553937935277e-07, 5.990758765634534e-08, -1.1102230246251565e-16, -1.1102230246251565e-16]
velocity: [-6.6379233253270515e-06, 2.1727051053000315e-05, -1.97464008063644e-05, -6.285952608852782e-05, 0.00012885645618676583, 1.9781144801141783e-05, 0.0, 0.0]
effort: [-11.586720000000001, -27.246, -18.1864, -0.93312, -0.9590400000000001, -0.048, 0.0, 0.0]
---
header: 
  seq: 240721
  stamp: 
    secs: 1737602695
    nsecs: 276792215
  frame_id: ''
name: 
  - joint_1
  - joint_2
  - joint_3
  - joint_4
  - joint_5
  - joint_6
  - tcp_lin
  - tcp_rot
position: [4.9111031811873485e-09, 2.9935541468021815e-08, 8.422489265482024e-08, 5.752202458958461e-08, -1.1105381295346623e-07, 3.1455101355980534e-11, -1.1102230246251565e-16, -1.1102230246251565e-16]
velocity: [1.2438573866866535e-05, 9.197740949277728e-06, 3.289001255928028e-05, 2.6280844530653403e-05, -3.1972742667323647e-05, 3.791937282930283e-06, 0.0, 0.0]
effort: [-11.948805000000002, -27.246, -18.1864, -0.5332114285714286, -1.06272, -0.064, 0.0, 0.0]
---
header: 
  seq: 240722
  stamp: 
    secs: 1737602695
    nsecs: 297139460
  frame_id: ''
name: 
  - joint_1
  - joint_2
  - joint_3
  - joint_4
  - joint_5
  - joint_6
  - tcp_lin
  - tcp_rot
position: [-3.592149471946752e-08, 1.284327681494779e-09, 4.5198840779229874e-08, -2.884282235587422e-08, 2.903030340450339e-07, 5.911975883732719e-08, -1.1102230246251565e-16, -1.1102230246251565e-16]
velocity: [-2.2128594038118225e-06, -8.877351417815932e-06, 1.1467809550176167e-05, -4.962011983852918e-06, 8.844134317093663e-05, 1.1745735430393223e-05, 0.0, 0.0]
effort: [-11.586720000000001, -26.768, -17.9832, -1.9662171428571429, -1.01088, -0.048, 0.0, 0.0]
---
header: 
  seq: 240723
  stamp: 
    secs: 1737602695
    nsecs: 316792035
  frame_id: ''
name: 
  - joint_1
  - joint_2
  - joint_3
  - joint_4
  - joint_5
  - joint_6
  - tcp_lin
  - tcp_rot
position: [8.405065508363913e-08, 2.9976131140683916e-08, 9.381676279695891e-09, 8.628885164566114e-08, 5.176400284290424e-11, 5.992427418388654e-08, -1.1102230246251565e-16, -1.1102230246251565e-16]
velocity: [1.1485447625434243e-05, 2.177119479971252e-06, 8.974341355672223e-07, 4.6011130290696814e-05, -1.5375781419278094e-05, 1.2535693643417069e-05, 0.0, 0.0]
effort: [-12.672975000000001, -27.006999999999998, -18.084799999999998, -0.9664457142857142, -1.0368000000000002, -0.08, 0.0, 0.0]
---
header: 
  seq: 240724
  stamp: 
    secs: 1737602695
    nsecs: 336793726
  frame_id: ''
name: 
  - joint_1
  - joint_2
  - joint_3
  - joint_4
  - joint_5
  - joint_6
  - tcp_lin
  - tcp_rot
position: [6.42711476927534e-08, 2.996062459089387e-08, 9.361684833807421e-09, -1.1507449610249034e-07, -1.4795142310873526e-07, 1.5214537324269606e-12, -1.1102230246251565e-16, -1.1102230246251565e-16]
velocity: [2.5760378902702522e-05, 6.508893367838064e-06, 6.15522708285725e-06, -1.8358248519495723e-05, -4.698649816438096e-05, -1.6689581283459296e-05, 0.0, 0.0]
effort: [-11.948805000000002, -27.006999999999998, -18.389599999999998, -0.6665142857142857, -1.01088, -0.08, 0.0, 0.0]
---
header: 
  seq: 240725
  stamp: 
    secs: 1737602695
    nsecs: 356794176
  frame_id: ''
name: 
  - joint_1
  - joint_2
  - joint_3
  - joint_4
  - joint_5
  - joint_6
  - tcp_lin
  - tcp_rot
position: [-7.415967058890073e-08, 2.9960740954660146e-08, 1.591658009511061e-07, -1.4384510974946444e-07, 4.0687277395487717e-07, -5.992143577191643e-08, -1.1102230246251565e-16, -1.1102230246251565e-16]
velocity: [-1.7095637430453915e-05, 7.834553897156873e-06, 3.671006144331465e-05, -3.873201909833871e-05, 0.0001046794634886125, -2.1396505733091957e-05, 0.0, 0.0]
effort: [-12.672975000000001, -27.006999999999998, -18.288, -0.9664457142857142, -1.01088, -0.048, 0.0, 0.0]
---
header: 
  seq: 240726
  stamp: 
    secs: 1737602695
    nsecs: 376791954
  frame_id: ''
name: 
  - joint_1
  - joint_2
  - joint_3
  - joint_4
  - joint_5
  - joint_6
  - tcp_lin
  - tcp_rot
position: [2.473420059032547e-08, -1.1037201168155558e-11, 4.6802489917011644e-08, -2.876344384080889e-08, -1.0460070366914494e-10, -5.999186100295254e-08, -1.1102230246251565e-16, -1.1102230246251565e-16]
velocity: [-3.5203641573423086e-06, 2.084005538868602e-06, 9.948412857590678e-06, 1.3318681525929835e-05, -5.278260590868599e-06, 1.1094881063040179e-06, 0.0, 0.0]
effort: [-11.948805000000002, -26.29, -18.288, -1.1663999999999999, -1.08864, -0.016, 0.0, 0.0]
---
header: 
  seq: 240727
  stamp: 
    secs: 1737602695
    nsecs: 396887108
  frame_id: ''
name: 
  - joint_1
  - joint_2
  - joint_3
  - joint_4
  - joint_5
  - joint_6
  - tcp_lin
  - tcp_rot
position: [4.8085028573100645e-09, -7.704085050252736e-11, 8.440058084433564e-08, 1.724195828834209e-07, 2.2079292814531463e-07, 6.027635277620806e-08, -1.1102230246251565e-16, -1.1102230246251565e-16]
