header: 
  seq: 297010
  stamp: 
    secs: 1737603821
    nsecs:  57090827
  frame_id: ''
name: 
  - joint_1
  - joint_2
  - joint_3
  - joint_4
  - joint_5
  - joint_6
  - tcp_lin
  - tcp_rot
position: [1.0382147270467251e-07, -2.992967937419254e-08, -2.8536867538727414e-08, -2.0240752068783575e-07, -1.8779860973987757e-07, -6.026190371540403e-08, 0.1, 0.1]
velocity: [1.9560009859174474e-05, -4.1383567001892256e-06, -6.5193524572049214e-06, -4.490395747508889e-05, -0.0001062582960776561, -1.0300342761680407e-05, 0.0, 0.0]
effort: [-10.500465000000002, -22.465999999999998, -19.507199999999997, 0.33325714285714286, -1.08864, 0.24, 0.0, 0.0]
---
header: 
  seq: 297011
  stamp: 
    secs: 1737603821
    nsecs:  76957556
  frame_id: ''
name: 
  - joint_1
  - joint_2
  - joint_3
  - joint_4
  - joint_5
  - joint_6
  - tcp_lin
  - tcp_rot
position: [4.4365040517748624e-08, -2.416414148792211e-10, -1.0215275356584111e-07, 7.800325589025544e-08, -2.522753258863819e-07, 1.1512204622481101e-08, 0.1, 0.1]
velocity: [1.7532703993535973e-05, -3.959739944048873e-06, -2.1685541324580555e-05, 4.4443459473734025e-05, -6.021207590289738e-05, -1.92028171878645e-05, 0.0, 0.0]
effort: [-11.586720000000001, -22.465999999999998, -20.0152, -0.69984, -1.01088, 0.256, 0.0, 0.0]
---
header: 
  seq: 297012
  stamp: 
    secs: 1737603821
    nsecs:  96909572
  frame_id: ''
name: 
  - joint_1
  - joint_2
  - joint_3
  - joint_4
  - joint_5
  - joint_6
  - tcp_lin
  - tcp_rot
position: [-3.501368494143443e-08, 3.036027471000178e-08, 1.966184910773864e-07, -5.7454162292536114e-08, 4.3963721687485e-07, -1.6917840203587964e-07, 0.1, 0.1]
velocity: [-6.822144399606113e-06, 7.253062249669888e-06, 3.4666134515137456e-05, -1.6211256893304177e-05, 0.0001221771760323581, -3.8234018086661285e-05, 0.0, 0.0]
effort: [-10.500465000000002, -22.465999999999998, -19.811999999999998, -0.8664685714285714, -1.11456, 0.24, 0.0, 0.0]
---
header: 
  seq: 297013
  stamp: 
    secs: 1737603821
    nsecs: 116796600
  frame_id: ''
name: 
  - joint_1
  - joint_2
  - joint_3
  - joint_4
  - joint_5
  - joint_6
  - tcp_lin
  - tcp_rot
position: [4.4475610172198174e-08, -3.095492759849742e-13, 9.379910614352771e-09, 7.197333166105462e-11, -7.412137753577851e-08, -2.395581224466155e-07, 0.1, 0.1]
velocity: [1.1946394980247687e-05, -7.238647504350515e-07, 2.830587131077875e-06, -3.317439235903062e-05, -5.175866462222992e-06, -6.416247597552967e-05, 0.0, 0.0]
effort: [-11.224635000000001, -22.227, -19.7104, -1.033097142857143, -1.1664, 0.192, 0.0, 0.0]
---
header: 
  seq: 297014
  stamp: 
    secs: 1737603821
    nsecs: 136796037
  frame_id: ''
name: 
  - joint_1
  - joint_2
  - joint_3
  - joint_4
  - joint_5
  - joint_6
  - tcp_lin
  - tcp_rot
position: [-5.436139448705059e-08, 2.993996280834241e-08, 9.336459733582217e-09, 2.5884785205354276e-07, 1.4767718926952062e-07, -2.994044097834531e-07, 0.1, 0.1]
velocity: [-1.4968817277607985e-05, 7.456467504997101e-06, 8.740310455565992e-06, 3.781455443405374e-05, 6.733186170046964e-05, -7.923863195311817e-05, 0.0, 0.0]
effort: [-10.500465000000002, -22.227, -19.9136, -0.5332114285714286, -1.08864, 0.224, 0.0, 0.0]
---
header: 
  seq: 297015
  stamp: 
    secs: 1737603821
    nsecs: 156800943
  frame_id: ''
name: 
  - joint_1
  - joint_2
  - joint_3
  - joint_4
  - joint_5
  - joint_6
  - tcp_lin
  - tcp_rot
position: [-1.3330044029320177e-07, 4.106281435926417e-10, 4.7617568342699146e-08, -1.701986218832638e-07, -3.626030510925842e-07, 1.0123740632189818e-10, 0.1, 0.1]
velocity: [-3.01915205704173e-05, -5.667123610927524e-06, 1.2073013583333447e-05, -2.9595567308102205e-05, -0.00013545816180931443, 5.9063137541283325e-06, 0.0, 0.0]
effort: [-10.500465000000002, -22.465999999999998, -19.7104, -1.6996114285714286, -1.1664, 0.20800000000000002, 0.0, 0.0]
---
header: 
  seq: 297016
  stamp: 
    secs: 1737603821
    nsecs: 176938288
  frame_id: ''
name: 
  - joint_1
  - joint_2
  - joint_3
  - joint_4
  - joint_5
  - joint_6
  - tcp_lin
  - tcp_rot
position: [8.420967168682861e-08, -3.018138097276945e-08, 4.67731011321943e-08, -2.304560976482053e-07, -3.316486536865213e-07, 1.8101794117864297e-07, 0.1, 0.1]
velocity: [2.3235776769819114e-05, -6.725913190468169e-06, 4.143547004268037e-06, -5.418627531856291e-05, -5.6331801097007774e-05, 4.75982242167241e-05, 0.0, 0.0]
effort: [-10.86255, -21.988, -19.7104, -0.9997714285714285, -1.01088, 0.224, 0.0, 0.0]
---
header: 
  seq: 297017
  stamp: 
    secs: 1737603821
    nsecs: 196793865
  frame_id: ''
name: 
  - joint_1
  - joint_2
  - joint_3
  - joint_4
  - joint_5
  - joint_6
  - tcp_lin
  - tcp_rot
position: [6.390874173367006e-08, -2.426529067651143e-10, 8.612668866076563e-09, -1.4304927654567974e-07, 6.291161318176221e-07, 1.1907416651487109e-07, 0.1, 0.1]
velocity: [1.1713710382056293e-05, -1.7885847097422978e-06, 1.3875610670773879e-05, -3.8222175329997144e-05, 0.00015040441138659073, 1.867377017365111e-05, 0.0, 0.0]
effort: [-10.86255, -21.988, -20.0152, -0.9664457142857142, -1.11456, 0.20800000000000002, 0.0, 0.0]
---
header: 
  seq: 297018
  stamp: 
    secs: 1737603821
    nsecs: 216938222
  frame_id: ''
name: 
  - joint_1
  - joint_2
  - joint_3
  - joint_4
  - joint_5
  - joint_6
  - tcp_lin
  - tcp_rot
position: [6.114515482687373e-08, -3.091925022561717e-08, -1.4177718107919243e-07, 2.654620514765951e-07, -3.0239907495974046e-08, 1.9034243393962898e-07, 0.1, 0.1]
velocity: [1.2383870549439281e-05, -7.565108057762478e-06, -4.236414923836598e-05, 4.895470238366035e-05, -7.640667347404925e-06, 5.320497620691366e-05, 0.0, 0.0]
effort: [-11.224635000000001, -22.465999999999998, -19.7104, -0.8997942857142857, -1.11456, 0.24, 0.0, 0.0]
---
header: 
  seq: 297019
  stamp: 
    secs: 1737603821
    nsecs: 236792938
  frame_id: ''
name: 
  - joint_1
  - joint_2
  - joint_3
  - joint_4
  - joint_5
  - joint_6
  - tcp_lin
  - tcp_rot
position: [4.4493956895440576e-08, -2.9951246723851315e-08, 1.5911309099357143e-07, 2.0130193222923203e-07, -7.406650315605756e-08, -3.160284969760247e-11, 0.1, 0.1]
velocity: [1.5343011335008302e-05, -8.520625413671428e-06, 2.922759847831198e-05, 4.8183692834100024e-05, 1.5302599759619054e-05, -1.2789557926699902e-05, 0.0, 0.0]
effort: [-11.586720000000001, -22.465999999999998, -19.7104, -0.6331885714285714, -1.11456, 0.224, 0.0, 0.0]
---
header: 
  seq: 297020
  stamp: 
    secs: 1737603821
    nsecs: 256792598
  frame_id: ''
name: 
  - joint_1
  - joint_2
  - joint_3
  - joint_4
  - joint_5
  - joint_6
  - tcp_lin
  - tcp_rot
position: [-3.45987232893399e-08, 2.995268756228475e-08, 4.6829990201847376e-08, 8.62749594321484e-08, -7.380336142176677e-08, -1.7966999740974063e-07, 0.1, 0.1]
velocity: [-1.4631580344532014e-05, 8.586461102931847e-06, 7.723691734293708e-06, 3.0305250104364243e-05, -8.39231989425513e-05, -4.5814897954217715e-05, 0.0, 0.0]
effort: [-11.586720000000001, -22.705, -19.9136, -0.6331885714285714, -1.1404800000000002, 0.224, 0.0, 0.0]
---
header: 
  seq: 297021
  stamp: 
    secs: 1737603821
    nsecs: 276794340
  frame_id: ''
name: 
  - joint_1
  - joint_2
  - joint_3
  - joint_4
  - joint_5
  - joint_6
  - tcp_lin
  - tcp_rot
position: [-5.4393280088957577e-08, 8.683653219985347e-13, -1.029923484198278e-07, 2.301570051313386e-07, -1.849301315031848e-07, -1.1979399834783126e-07, 0.1, 0.1]
velocity: [-8.39596825829741e-07, 3.716081666387399e-06, -1.250656870375874e-05, 5.994880277526605e-05, -2.4303588724836562e-05, -3.2872938824978946e-05, 0.0, 0.0]
effort: [-10.138380000000002, -21.988, -20.0152, -0.2666057142857143, -1.08864, 0.224, 0.0, 0.0]
---
header: 
  seq: 297022
  stamp: 
    secs: 1737603821
    nsecs: 296797188
  frame_id: ''
name: 
  - joint_1
  - joint_2
  - joint_3
  - joint_4
  - joint_5
  - joint_6
  - tcp_lin
  - tcp_rot
position: [-1.4783893826241535e-08, -2.9985397602071076e-08, 9.41969567951591e-09, -1.7274090432258508e-07, 4.807021064385825e-07, 2.9990479937608006e-07, 0.1, 0.1]
velocity: [3.0101963774949606e-06, -1.107169966653061e-05, -5.88659604112052e-06, -1.7301845352689527e-05, 0.00011120052769613586, 7.212157810035408e-05, 0.0, 0.0]
effort: [-11.948805000000002, -21.988, -19.9136, -0.7998171428571428, -1.08864, 0.24, 0.0, 0.0]
---
header: 
  seq: 297023
  stamp: 
    secs: 1737603821
    nsecs: 316936745
  frame_id: ''
name: 
  - joint_1
  - joint_2
  - joint_3
  - joint_4
  - joint_5
  - joint_6
  - tcp_lin
  - tcp_rot
position: [-1.139046647969746e-07, 3.054639187569375e-08, 4.558448118330737e-08, -1.4417789835655646e-07, -1.8281693922338186e-07, 1.883445291418897e-09, 0.1, 0.1]
velocity: [-2.1886711439495162e-05, 6.559257717856844e-06, -5.998227288933597e-07, -2.694333518856661e-05, -4.508741041897941e-05, 8.19425206596513e-06, 0.0, 0.0]
effort: [-10.86255, -22.705, -19.7104, -0.7331657142857143, -1.1404800000000002, 0.192, 0.0, 0.0]
---
header: 
  seq: 297024
  stamp: 
    secs: 1737603821
    nsecs: 336793774
  frame_id: ''
name: 
  - joint_1
  - joint_2
  - joint_3
  - joint_4
  - joint_5
  - joint_6
  - tcp_lin
  - tcp_rot
position: [-1.4979128706483386e-08, -2.34431187033321e-10, 9.635931260293551e-09, 2.589236204380176e-07, 3.80710485654574e-08, -2.4018441707360214e-07, 0.1, 0.1]
velocity: [-5.304653525382243e-06, -3.7521355503799083e-06, 1.2073195156992127e-05, 5.5641514591311306e-05, 4.631825725455148e-05, -5.612629592429162e-05, 0.0, 0.0]
effort: [-11.224635000000001, -22.227, -19.7104, -0.69984, -1.08864, 0.20800000000000002, 0.0, 0.0]
---
header: 
  seq: 297025
  stamp: 
    secs: 1737603821
    nsecs: 356889982
  frame_id: ''
name: 
  - joint_1
  - joint_2
  - joint_3
  - joint_4
  - joint_5
  - joint_6
  - tcp_lin
  - tcp_rot
position: [-3.427057932418331e-08, -3.553759875652317e-10, -2.812713968267917e-08, -3.722113482282956e-09, -4.402209269076257e-07, -5.9450822716539975e-08, 0.1, 0.1]
velocity: [-1.1323899644375926e-05, -3.5020547000285386e-07, -2.160730505513284e-06, 2.6204098794555526e-05, -0.00014118007919866713, -1.9676049434155858e-05, 0.0, 0.0]
effort: [-11.948805000000002, -22.227, -19.7104, -0.33325714285714286, -1.08864, 0.272, 0.0, 0.0]
---
header: 
  seq: 297026
  stamp: 
    secs: 1737603821
    nsecs: 376870170
  frame_id: ''
name: 
  - joint_1
  - joint_2
  - joint_3
  - joint_4
  - joint_5
  - joint_6
  - tcp_lin
  - tcp_rot
position: [-5.454362260652426e-08, 2.8688034534974016e-12, 9.568655165724839e-09, 8.627920959694667e-08, -2.5899977208029507e-07, 1.199936220989261e-07, 0.1, 0.1]
velocity: [-1.0006136841004266e-05, 2.0811134438110006e-06, 2.477812951478774e-06, -4.085164493667304e-06, -4.949689841068256e-05, 1.9265603707025867e-05, 0.0, 0.0]
effort: [-10.138380000000002, -22.705, -20.0152, -0.8997942857142857, -1.08864, 0.224, 0.0, 0.0]
---
header: 
  seq: 297027
  stamp: 
    secs: 1737603821
    nsecs: 396793254
  frame_id: ''
name: 
  - joint_1
  - joint_2
  - joint_3
  - joint_4
  - joint_5
  - joint_6
  - tcp_lin
  - tcp_rot
position: [4.447916459923326e-08, 2.9962476989297425e-08, -1.0293975501944611e-07, -2.876498860539101e-07, 6.657370902382973e-07, -3.122257769766574e-11, 0.1, 0.1]
velocity: [1.0987415929603952e-05, 3.275817500951831e-06, -2.7476916604070103e-05, -5.1413629675161076e-05, 0.00016813720131034047, 6.557594889085873e-06, 0.0, 0.0]
effort: [-11.586720000000001, -22.705, -19.811999999999998, -0.69984, -1.08864, 0.224, 0.0, 0.0]
---
header: 
  seq: 297028
  stamp: 
    secs: 1737603821
    nsecs: 416792510
  frame_id: ''
name: 
  - joint_1
  - joint_2
  - joint_3
  - joint_4
  - joint_5
  - joint_6
  - tcp_lin
  - tcp_rot
position: [-1.4833592173542838e-08, -2.9957397603248996e-08, 8.426030456864883e-08, -2.0135402116006552e-07, -1.4799274701719885e-07, -1.198354459933465e-07, 0.1, 0.1]
velocity: [-9.201198493739095e-06, -1.2108911356455298e-05, 1.6163454024891875e-05, -4.9153145856802326e-05, -3.6969790720104266e-05, -2.152158589561114e-05, 0.0, 0.0]
effort: [-10.86255, -22.227, -19.811999999999998, -0.8331428571428571, -1.1404800000000002, 0.224, 0.0, 0.0]
---
header: 
  seq: 297029
  stamp: 
    secs: 1737603821
    nsecs: 436795433
  frame_id: ''
name: 
  - joint_1
  - joint_2
  - joint_3
  - joint_4
  - joint_5
  - joint_6
  - tcp_lin
  - tcp_rot
position: [6.428887752330305e-08, -2.5316348243471367e-11, 4.682994050054672e-08, -5.74974214939197e-08, -3.688937427202803e-08, -1.7980334908157487e-07, 0.1, 0.1]
velocity: [2.226044869507319e-05, -5.520946149051885e-06, 1.9672125320765745e-05, 1.0482529669180958e-05, 4.0006009773105e-05, -4.652931363347005e-05, 0.0, 0.0]
effort: [-12.310890000000002, -22.227, -19.9136, -0.6331885714285714, -1.11456, 0.24, 0.0, 0.0]
---
header: 
  seq: 297030
  stamp: 
    secs: 1737603821
    nsecs: 456792128
  frame_id: ''
name: 
  - joint_1
  - joint_2
  - joint_3
  - joint_4
  - joint_5
  - joint_6
  - tcp_lin
  - tcp_rot
position: [-1.334887845247449e-07, -5.391332663335094e-14, -2.807588449793922e-08, 8.630329107576135e-08, -1.4801144422424627e-07, -5.992445612668012e-08, 0.1, 0.1]
velocity: [-2.8868969209551465e-05, 5.054437324829532e-07, -1.4863469172202983e-06, 2.6807925243869655e-05, -8.463480720523035e-05, -2.8711151013259704e-05, 0.0, 0.0]
effort: [-11.224635000000001, -22.705, -19.9136, -0.8997942857142857, -1.06272, 0.192, 0.0, 0.0]
---
header: 
  seq: 297031
  stamp: 
    secs: 1737603821
    nsecs: 476796281
  frame_id: ''
name: 
  - joint_1
  - joint_2
  - joint_3
  - joint_4
  - joint_5
  - joint_6
  - tcp_lin
  - tcp_rot
position: [-5.427996661910303e-08, -6.133764735116811e-10, -2.9068200882725946e-08, -2.993228749838654e-08, -3.276017430104885e-07, -5.1037007029171505e-08, 0.1, 0.1]
velocity: [-1.6952800509032085e-05, 7.336586790886682e-07, -9.728988348978145e-06, -1.0787629528723533e-06, -6.744519435996481e-05, -2.868330610467356e-05, 0.0, 0.0]
effort: [-10.500465000000002, -23.183, -19.7104, -0.6665142857142857, -1.19232, 0.224, 0.0, 0.0]
---
header: 
  seq: 297032
  stamp: 
    secs: 1737603821
    nsecs: 496795844
  frame_id: ''
name: 
  - joint_1
  - joint_2
  - joint_3
  - joint_4
  - joint_5
  - joint_6
  - tcp_lin
  - tcp_rot
position: [4.451200636829113e-08, -2.994897805796779e-08, 4.682004453472657e-08, 2.876337474158366e-07, 6.658161707373987e-07, 5.971276028771989e-08, 0.1, 0.1]
velocity: [1.0271809160683985e-05, -8.343755124919282e-06, 1.2372522614711787e-05, 0.0001015261684847813, 0.00015890451232746972, 3.080132254141006e-05, 0.0, 0.0]
effort: [-11.224635000000001, -21.988, -19.811999999999998, 0.13330285714285714, -1.1404800000000002, 0.20800000000000002, 0.0, 0.0]
---
header: 
  seq: 297033
  stamp: 
    secs: 1737603821
    nsecs: 516792478
  frame_id: ''
name: 
  - joint_1
  - joint_2
  - joint_3
  - joint_4
  - joint_5
  - joint_6
  - tcp_lin
  - tcp_rot
position: [4.939810799866906e-09, 2.997635175179077e-08, 4.6816462379109907e-08, -1.7257738473366893e-07, -1.8505754473795964e-07, -2.6827751408895074e-11, 0.1, 0.1]
velocity: [3.2892307709501772e-06, 2.4072581545221453e-06, 1.2170171055274695e-05, -3.4764209823519e-05, -1.3322044062593437e-05, 1.3933653107501762e-05, 0.0, 0.0]
effort: [-11.224635000000001, -22.227, -19.811999999999998, -0.6665142857142857, -1.06272, 0.24, 0.0, 0.0]
---
header: 
  seq: 297034
  stamp: 
    secs: 1737603821
    nsecs: 537083693
  frame_id: ''
name: 
  - joint_1
  - joint_2
  - joint_3
  - joint_4
  - joint_5
  - joint_6
  - tcp_lin
  - tcp_rot
position: [-1.5271739628213796e-08, 8.8360878641166e-08, 4.651241126890373e-08, -8.52441733509936e-08, 1.7792718883091833e-07, -1.1358720527505756e-07, 0.1, 0.1]
velocity: [-6.685104562249839e-06, 2.7453623710342376e-05, 1.8644992966946206e-05, 5.821281329871153e-06, 9.182697233518501e-05, -4.009914636158855e-05, 0.0, 0.0]
effort: [-11.948805000000002, -21.749, -19.7104, -1.2663771428571429, -1.1404800000000002, 0.192, 0.0, 0.0]
---
header: 
  seq: 297035
  stamp: 
    secs: 1737603821
    nsecs: 556852509
  frame_id: ''
name: 
  - joint_1
  - joint_2
  - joint_3
  - joint_4
  - joint_5
  - joint_6
  - tcp_lin
  - tcp_rot
position: [4.448913692139065e-08, -2.995998935008381e-08, 9.3663438103904e-09, 5.7544244726110974e-08, -1.850046155568721e-07, -1.9409731986122974e-11, 0.1, 0.1]
velocity: [-1.1681244273533115e-06, -4.949996196367173e-06, 5.825234732856221e-06, 2.7584432862204182e-05, -8.685152667689064e-05, -1.2401970466203633e-05, 0.0, 0.0]
effort: [-10.138380000000002, -22.465999999999998, -19.811999999999998, -0.93312, -1.1404800000000002, 0.224, 0.0, 0.0]
---
header: 
  seq: 297036
  stamp: 
    secs: 1737603821
    nsecs: 576792794
  frame_id: ''
name: 
  - joint_1
  - joint_2
  - joint_3
  - joint_4
  - joint_5
  - joint_6
  - tcp_lin
  - tcp_rot
position: [4.9270838198407396e-09, -2.996437778962917e-08, 9.363074267572525e-09, 8.618581992124097e-08, -2.587240935431767e-07, 2.393350495682874e-07, 0.1, 0.1]
velocity: [4.309877580035698e-06, -3.430789238090239e-06, 3.94883713249477e-06, 3.029529650308707e-05, -6.723484046933473e-05, 7.316452393394857e-05, 0.0, 0.0]
effort: [-11.224635000000001, -21.749, -19.811999999999998, -0.3999085714285714, -1.06272, 0.224, 0.0, 0.0]
---
header: 
  seq: 297037
  stamp: 
    secs: 1737603821
    nsecs: 596795920
  frame_id: ''
name: 
  - joint_1
  - joint_2
  - joint_3
  - joint_4
  - joint_5
  - joint_6
  - tcp_lin
  - tcp_rot
position: [-5.4370805281180764e-08, -1.101555198510118e-11, -6.555476920985146e-08, 8.628402067285632e-08, 7.027230517196621e-07, -5.550655762944215e-11, 0.1, 0.1]
velocity: [-1.8701440793763634e-05, -4.315779444890806e-06, -1.247164134412165e-05, 4.618411282581724e-05, 0.00019677350666020153, 7.018990196429591e-06, 0.0, 0.0]
effort: [-12.672975000000001, -21.988, -19.9136, -0.5665371428571429, -1.11456, 0.224, 0.0, 0.0]
---
header: 
  seq: 297038
  stamp: 
    secs: 1737603821
    nsecs: 616792601
  frame_id: ''
name: 
  - joint_1
  - joint_2
  - joint_3
  - joint_4
  - joint_5
  - joint_6
  - tcp_lin
  - tcp_rot
position: [-1.4828348448050516e-08, -2.9960938334642335e-08, 8.425177326212176e-08, -8.629381550843164e-08, -3.700895402740988e-08, -1.7975715051545915e-07, 0.1, 0.1]
velocity: [-1.1786164146102852e-05, -4.927799786043695e-06, 2.531515969114604e-05, -1.0290653832472116e-05, -1.2194786462993808e-05, -3.793073877083207e-05, 0.0, 0.0]
effort: [-10.138380000000002, -22.944, -19.9136, -0.8664685714285714, -1.1404800000000002, 0.24, 0.0, 0.0]
---
header: 
  seq: 297039
  stamp: 
    secs: 1737603821
    nsecs: 636803344
  frame_id: ''
name: 
  - joint_1
  - joint_2
  - joint_3
  - joint_4
  - joint_5
  - joint_6
  - tcp_lin
  - tcp_rot
position: [-3.488914198494876e-08, -3.061501658613398e-08, 8.407346942432668e-09, -1.7528838823224508e-07, 4.5470997570432816e-08, -1.8992641340384193e-07, 0.1, 0.1]
velocity: [-9.731619402996208e-06, -6.813392792872278e-06, -4.387130618538277e-06, -5.0193411375954614e-05, 4.23975256493959e-05, -7.073850836711931e-05, 0.0, 0.0]
effort: [-13.035060000000001, -22.465999999999998, -19.7104, -0.3999085714285714, -1.11456, 0.24, 0.0, 0.0]
---
header: 
  seq: 297040
  stamp: 
    secs: 1737603821
    nsecs: 656793366
  frame_id: ''
name: 
  - joint_1
  - joint_2
  - joint_3
  - joint_4
  - joint_5
  - joint_6
  - tcp_lin
  - tcp_rot
position: [2.4703562078005302e-08, -2.9959816931820375e-08, -6.557471922876792e-08, 2.872065080299447e-08, -2.590256978339447e-07, 1.9568076888572837e-12, 0.1, 0.1]
velocity: [2.927659445388003e-06, -1.9373842836996197e-06, -1.8962932584016188e-05, 9.628749011468703e-06, -9.157614790956314e-05, -5.074570999629832e-06, 0.0, 0.0]
effort: [-10.500465000000002, -22.227, -19.811999999999998, -0.8331428571428571, -1.06272, 0.20800000000000002, 0.0, 0.0]
---
header: 
  seq: 297041
  stamp: 
    secs: 1737603821
    nsecs: 676792469
  frame_id: ''
name: 
  - joint_1
  - joint_2
  - joint_3
  - joint_4
  - joint_5
  - joint_6
  - tcp_lin
  - tcp_rot
position: [-3.461142350653379e-08, 4.6265617176337105e-12, 9.362528094453234e-09, 1.7261322075886758e-07, -2.958830392147659e-07, 5.993138725912932e-08, 0.1, 0.1]
velocity: [-3.4011088259159997e-06, 5.563156644716425e-07, -9.712234399104754e-07, 3.4887202138875144e-05, -6.534591688783616e-05, 7.908490928961989e-06, 0.0, 0.0]
effort: [-11.586720000000001, -22.465999999999998, -19.811999999999998, -0.5998628571428571, -1.01088, 0.192, 0.0, 0.0]
---
header: 
  seq: 297042
  stamp: 
    secs: 1737603821
    nsecs: 696888173
  frame_id: ''
name: 
  - joint_1
  - joint_2
  - joint_3
  - joint_4
  - joint_5
  - joint_6
  - tcp_lin
  - tcp_rot
position: [2.5074550193902068e-08, -2.986530459412276e-08, 8.824278086078384e-08, 3.7532396941415507e-07, 5.922966204504347e-07, 1.2473750496415647e-07, 0.1, 0.1]
velocity: [6.550115462928702e-06, -3.5247038998095142e-06, 3.366377872641919e-05, 6.336582316804352e-05, 0.00013175877032674214, 5.4282059797869774e-05, 0.0, 0.0]
effort: [-11.586720000000001, -22.465999999999998, -19.6088, -0.9664457142857142, -1.06272, 0.24, 0.0, 0.0]
---
header: 
  seq: 297043
  stamp: 
    secs: 1737603821
    nsecs: 716808045
  frame_id: ''
name: 
  - joint_1
  - joint_2
  - joint_3
  - joint_4
  - joint_5
  - joint_6
  - tcp_lin
  - tcp_rot
position: [-9.371010693433717e-08, -2.99137079478806e-08, -1.402381701296587e-07, 2.8676487627918247e-08, -2.2222381165118707e-07, 1.1958685314357277e-07, 0.1, 0.1]
velocity: [-3.0432205589981823e-05, -3.4029579841629026e-06, -3.550599754885996e-05, 3.4147746243619006e-05, -5.561076150491366e-05, 3.5164122971421814e-05, 0.0, 0.0]
effort: [-11.586720000000001, -22.227, -19.811999999999998, -0.6331885714285714, -1.19232, 0.272, 0.0, 0.0]
---
header: 
  seq: 297044
  stamp: 
    secs: 1737603821
    nsecs: 736793211
  frame_id: ''
name: 
  - joint_1
  - joint_2
  - joint_3
  - joint_4
  - joint_5
  - joint_6
  - tcp_lin
  - tcp_rot
position: [-1.48335390756105e-08, 2.99675542467539e-08, 9.373572820670686e-09, 5.755104791757136e-08, -3.6954348925863835e-08, -1.1987020433318965e-07, 0.1, 0.1]
velocity: [-8.613747712926245e-06, 1.0462940330607348e-05, -2.19341563907142e-06, 4.749891232672938e-05, 1.8357585151242592e-05, -4.194127589091436e-05, 0.0, 0.0]
effort: [-10.500465000000002, -22.465999999999998, -19.6088, -0.7664914285714286, -1.06272, 0.20800000000000002, 0.0, 0.0]
---
header: 
  seq: 297045
  stamp: 
    secs: 1737603821
    nsecs: 756794635
  frame_id: ''
name: 
  - joint_1
  - joint_2
  - joint_3
  - joint_4
  - joint_5
  - joint_6
  - tcp_lin
  - tcp_rot
position: [4.4528511219722796e-08, -2.995909940253332e-08, 8.428122521698053e-08, 1.438812728601209e-07, 7.392036197363727e-08, 1.1987051721462454e-07, 0.1, 0.1]
velocity: [1.6708891944621653e-05, -4.574403339448731e-06, 2.132653147465309e-05, 5.4824199280093934e-05, -8.911499870644589e-06, 3.1531068032687875e-05, 0.0, 0.0]
effort: [-10.86255, -21.749, -19.811999999999998, -1.8995657142857143, -1.1404800000000002, 0.24, 0.0, 0.0]
---
header: 
  seq: 297046
  stamp: 
    secs: 1737603821
    nsecs: 776792237
  frame_id: ''
name: 
  - joint_1
  - joint_2
  - joint_3
  - joint_4
  - joint_5
  - joint_6
  - tcp_lin
  - tcp_rot
position: [8.406932084505039e-08, 2.9962639647566623e-08, 9.363655375066619e-09, 1.149878518263746e-07, -3.3287171147922477e-07, 2.39590706185076e-07, 0.1, 0.1]
velocity: [1.3129295297233381e-05, 5.101533272569347e-06, 2.3901113158776615e-06, 7.554348948958829e-05, -5.3612096055808335e-05, 7.035221096886191e-05, 0.0, 0.0]
effort: [-11.586720000000001, -22.227, -19.6088, -1.7329371428571427, -1.06272, 0.192, 0.0, 0.0]
---
header: 
  seq: 297047
  stamp: 
    secs: 1737603821
    nsecs: 796940960
  frame_id: ''
name: 
  - joint_1
  - joint_2
  - joint_3
  - joint_4
  - joint_5
  - joint_6
  - tcp_lin
  - tcp_rot
position: [4.4561587746635816e-08, -3.00235382111747e-08, 8.431061603951833e-08, -2.8762335251563937e-07, 5.175531383309657e-07, -1.199385684526027e-07, 0.1, 0.1]
velocity: [1.5736547160344993e-05, -5.566790517768445e-06, 2.0306119422288168e-05, -8.604490934088748e-05, 0.0001151593810956726, -1.9512035650741676e-05, 0.0, 0.0]
effort: [-12.310890000000002, -21.988, -19.9136, -0.69984, -1.06272, 0.24, 0.0, 0.0]
---
header: 
  seq: 297048
  stamp: 
    secs: 1737603821
    nsecs: 816792509
  frame_id: ''
name: 
  - joint_1
  - joint_2
  - joint_3
  - joint_4
  - joint_5
  - joint_6
  - tcp_lin
  - tcp_rot
position: [4.871342606519465e-09, 1.978229520513634e-11, -2.8119208644072447e-08, -2.8597285396324892e-08, -2.5911189908293453e-07, -3.210233914846761e-11, 0.1, 0.1]
velocity: [1.2004257240844744e-05, -9.157042111913156e-07, -8.325742370648176e-06, -3.601359993831526e-05, -6.210424526120838e-05, 1.2799627211098448e-05, 0.0, 0.0]
effort: [-11.586720000000001, -22.465999999999998, -19.9136, -0.4332342857142857, -1.1404800000000002, 0.224, 0.0, 0.0]
---
header: 
  seq: 297049
  stamp: 
    secs: 1737603821
    nsecs: 836792453
  frame_id: ''
name: 
  - joint_1
  - joint_2
  - joint_3
  - joint_4
  - joint_5
  - joint_6
  - tcp_lin
  - tcp_rot
position: [2.4722353746769017e-08, -3.597863417911375e-12, -6.554709578849347e-08, 5.7557207373188476e-08, 2.959571950505063e-07, -6.979540289320408e-12, 0.1, 0.1]
velocity: [1.9794999532229903e-06, -3.475344462543709e-06, -1.3425772325712306e-05, -1.7340776000356509e-06, 0.00011043542367282264, -8.57360170939038e-06, 0.0, 0.0]
effort: [-10.500465000000002, -22.227, -19.9136, -0.69984, -1.06272, 0.24, 0.0, 0.0]
---
header: 
  seq: 297050
  stamp: 
    secs: 1737603821
    nsecs: 856850629
  frame_id: ''
name: 
  - joint_1
  - joint_2
  - joint_3
  - joint_4
  - joint_5
  - joint_6
  - tcp_lin
  - tcp_rot
position: [4.505204903507679e-08, 8.869536990604523e-08, 6.507114233749101e-09, 3.1444545669449634e-07, -2.877017880779895e-07, -5.937897039618812e-08, 0.1, 0.1]
velocity: [6.962444132223591e-06, 2.977331072136738e-05, 1.2850086554388576e-05, 7.229108085913466e-05, -0.00010883858863046709, -2.6912606060014426e-05, 0.0, 0.0]
effort: [-10.500465000000002, -22.705, -19.9136, -0.33325714285714286, -1.1664, 0.224, 0.0, 0.0]
---
header: 
  seq: 297051
  stamp: 
    secs: 1737603821
    nsecs: 876794759
  frame_id: ''
name: 
  - joint_1
  - joint_2
  - joint_3
  - joint_4
  - joint_5
  - joint_6
  - tcp_lin
  - tcp_rot
position: [-5.438611637019646e-08, -2.996207773860519e-08, 9.36047109894274e-09, 2.8769181719032795e-08, -2.9591211989029904e-07, 2.996121144688992e-07, 0.1, 0.1]
velocity: [-1.819354300933152e-05, -5.809496004921395e-06, 4.0191973044445855e-06, 1.2239328810052122e-05, -6.896450207092418e-05, 6.795354750450188e-05, 0.0, 0.0]
effort: [-10.138380000000002, -22.465999999999998, -19.811999999999998, -0.93312, -1.11456, 0.224, 0.0, 0.0]
---
header: 
  seq: 297052
  stamp: 
    secs: 1737603821
    nsecs: 896794074
  frame_id: ''
name: 
  - joint_1
  - joint_2
  - joint_3
  - joint_4
  - joint_5
  - joint_6
  - tcp_lin
  - tcp_rot
position: [-1.1370361132033207e-07, -5.990686983828642e-08, 9.389036588988486e-09, -2.5855622894369665e-07, 4.809342351105643e-07, 1.1966710356538267e-07, 0.1, 0.1]
velocity: [-2.963832593717783e-05, -1.2502844090924622e-05, -5.2079259838527645e-06, -7.453825047383132e-05, 0.00010472498143380025, 2.5360446007488823e-05, 0.0, 0.0]
effort: [-10.86255, -22.705, -20.116799999999998, -0.8664685714285714, -1.1664, 0.24, 0.0, 0.0]
---
header: 
  seq: 297053
  stamp: 
    secs: 1737603821
    nsecs: 916793432
  frame_id: ''
name: 
  - joint_1
  - joint_2
  - joint_3
  - joint_4
  - joint_5
  - joint_6
  - tcp_lin
  - tcp_rot
position: [-1.1370325758846696e-07, 5.55978365002956e-12, 8.425393465651256e-08, 1.150754325065149e-07, -3.700628687269753e-08, 2.396491563457089e-07, 0.1, 0.1]
velocity: [-3.632657391564593e-05, -1.782842810763757e-06, 2.3485567282655078e-05, 2.8935121668058864e-06, -1.6931026411564082e-05, 6.051975512288497e-05, 0.0, 0.0]
effort: [-11.224635000000001, -21.032, -19.7104, -0.69984, -1.1404800000000002, 0.192, 0.0, 0.0]
---
header: 
  seq: 297054
  stamp: 
    secs: 1737603821
    nsecs: 936793470
  frame_id: ''
name: 
  - joint_1
  - joint_2
  - joint_3
  - joint_4
  - joint_5
  - joint_6
  - tcp_lin
  - tcp_rot
position: [4.940437914435326e-09, -2.99622013439063e-08, 4.678341417639474e-08, 2.5898756069856825e-07, 7.383579996448644e-08, -1.1981626133385498e-07, 0.1, 0.1]
velocity: [7.566457239222759e-06, -5.630743030707543e-06, 9.26581891748079e-06, 3.64296999706039e-05, 7.002548877251246e-05, -3.0407479966240813e-05, 0.0, 0.0]
effort: [-11.224635000000001, -22.227, -19.6088, -0.9664457142857142, -1.08864, 0.224, 0.0, 0.0]
---
header: 
  seq: 297055
  stamp: 
    secs: 1737603821
    nsecs: 956796160
  frame_id: ''
name: 
  - joint_1
  - joint_2
  - joint_3
  - joint_4
  - joint_5
  - joint_6
  - tcp_lin
  - tcp_rot
position: [-9.409854018447362e-08, 4.0325989910727906e-11, -6.6171271343837e-08, -2.009816996951183e-07, -3.3671819005859304e-07, 1.2350397424248883e-07, 0.1, 0.1]
velocity: [-2.6376985365115836e-05, -5.744529255281788e-06, -2.0237754037833803e-05, -3.130732824468365e-05, -0.0001267841105475768, 4.409347048718533e-05, 0.0, 0.0]
effort: [-10.500465000000002, -22.705, -19.7104, -0.4332342857142857, -1.1404800000000002, 0.20800000000000002, 0.0, 0.0]
---
header: 
  seq: 297056
  stamp: 
    secs: 1737603821
    nsecs: 976793113
  frame_id: ''
name: 
  - joint_1
  - joint_2
  - joint_3
  - joint_4
  - joint_5
  - joint_6
  - tcp_lin
  - tcp_rot
position: [2.471819064160696e-08, 2.084927635327923e-12, -1.404367977760857e-07, 2.3015250011097113e-07, -3.69871223177937e-07, -1.8233773260775226e-13, 0.1, 0.1]
velocity: [1.339137411537515e-05, 1.3133026232497245e-06, -2.4826543892381805e-05, 1.2885734493175171e-05, -7.505972482679345e-05, -2.7325057078883014e-06, 0.0, 0.0]
effort: [-10.138380000000002, -21.749, -19.9136, -0.93312, -1.06272, 0.24, 0.0, 0.0]
---
header: 
  seq: 297057
  stamp: 
    secs: 1737603821
    nsecs: 996797292
  frame_id: ''
name: 
  - joint_1
  - joint_2
  - joint_3
  - joint_4
  - joint_5
  - joint_6
  - tcp_lin
  - tcp_rot
position: [-1.482363014395658e-08, 1.1990531545826533e-07, 8.431009576249189e-08, 2.3023675736285684e-07, 4.808629125623071e-07, 2.9812039384544446e-11, 0.1, 0.1]
velocity: [3.7110496334280723e-06, 2.8241002920586593e-05, 2.3640640881849123e-05, 6.23570851152619e-05, 0.00012018309297168624, 2.4509314004925718e-06, 0.0, 0.0]
effort: [-11.586720000000001, -22.227, -19.811999999999998, -0.69984, -1.0368000000000002, 0.224, 0.0, 0.0]
---
header: 
  seq: 297058
  stamp: 
    secs: 1737603822
    nsecs:  16847145
  frame_id: ''
name: 
  - joint_1
  - joint_2
  - joint_3
  - joint_4
  - joint_5
  - joint_6
  - tcp_lin
  - tcp_rot
position: [6.430524137720727e-08, -2.992768371008872e-08, 8.03718294793877e-09, 1.4431224084302068e-07, -2.5477537240938373e-07, -6.205068062912814e-08, 0.1, 0.1]
velocity: [1.7620303184137854e-05, -1.6354210883189328e-06, -8.467129464030983e-06, 3.323703931718274e-05, -5.7960834781961513e-05, -1.3420777254662084e-05, 0.0, 0.0]
effort: [-11.224635000000001, -22.705, -19.9136, -1.0997485714285713, -1.1404800000000002, 0.24, 0.0, 0.0]
---
header: 
  seq: 297059
  stamp: 
    secs: 1737603822
    nsecs:  36792329
  frame_id: ''
name: 
  - joint_1
  - joint_2
  - joint_3
  - joint_4
  - joint_5
  - joint_6
  - tcp_lin
  - tcp_rot
position: [4.951827331339673e-09, -2.9962834912803515e-08, -6.55461053814139e-08, 2.8845756604250654e-08, 1.4786893829884521e-07, 2.3959864278488243e-07, 0.1, 0.1]
velocity: [2.0921442403873687e-06, -6.341643556312747e-06, -2.059350201905462e-05, -1.5289988121212e-05, 6.039338088645718e-05, 6.0165615670674406e-05, 0.0, 0.0]
effort: [-9.776295000000001, -22.705, -19.6088, -0.8331428571428571, -1.06272, 0.176, 0.0, 0.0]
---
header: 
  seq: 297060
  stamp: 
    secs: 1737603822
    nsecs:  56792042
  frame_id: ''
name: 
  - joint_1
  - joint_2
  - joint_3
  - joint_4
  - joint_5
  - joint_6
  - tcp_lin
  - tcp_rot
position: [4.449556156109979e-08, 8.988237279505638e-08, -1.4044095391987013e-07, -2.013827665959234e-07, -2.5892177001290736e-07, -1.198425411555757e-07, 0.1, 0.1]
velocity: [1.0480921939560306e-05, 2.5668273616275513e-05, -3.5665556615897543e-05, -6.576463625058582e-05, -9.538120872182724e-05, -3.3120339543891506e-05, 0.0, 0.0]
effort: [-11.586720000000001, -22.227, -20.0152, -0.36658285714285715, -1.1404800000000002, 0.24, 0.0, 0.0]
---
header: 
  seq: 297061
  stamp: 
    secs: 1737603822
    nsecs:  76792548
  frame_id: ''
name: 
  - joint_1
  - joint_2
  - joint_3
  - joint_4
  - joint_5
  - joint_6
  - tcp_lin
  - tcp_rot
position: [-7.415925636705204e-08, 1.8217146303991056e-11, 9.348866968970186e-09, -2.8790910643427112e-08, -2.589014552081916e-07, 2.3412327734793875e-11, 0.1, 0.1]
velocity: [-1.724673685578343e-05, -6.044453326631169e-06, 1.1359151922832385e-05, -1.5867100858040258e-05, -3.275394428485348e-05, -1.2109849506997687e-05, 0.0, 0.0]
effort: [-11.224635000000001, -22.227, -19.9136, -0.5665371428571429, -1.01088, 0.20800000000000002, 0.0, 0.0]
---
header: 
  seq: 297062
  stamp: 
    secs: 1737603822
    nsecs:  96796400
  frame_id: ''
name: 
  - joint_1
  - joint_2
  - joint_3
  - joint_4
  - joint_5
  - joint_6
  - tcp_lin
  - tcp_rot
position: [4.940934960937425e-09, 4.998003156572572e-12, 4.679708743959529e-08, 2.8778268730985345e-07, 7.767344700802462e-07, 2.9969677724543756e-07, 0.1, 0.1]
velocity: [-4.526023057385496e-06, 4.97308885144848e-06, 6.561114060087974e-06, 0.00012655144382614102, 0.0001782927954262697, 8.359379997210256e-05, 0.0, 0.0]
effort: [-11.224635000000001, -22.465999999999998, -19.9136, -0.69984, -1.08864, 0.16, 0.0, 0.0]
---
header: 
  seq: 297063
  stamp: 
    secs: 1737603822
    nsecs: 116796842
  frame_id: ''
name: 
  - joint_1
  - joint_2
  - joint_3
  - joint_4
  - joint_5
  - joint_6
  - tcp_lin
  - tcp_rot
position: [6.387542580553584e-08, 2.964996987884089e-08, 1.5868224971328893e-07, 3.168389882903697e-07, -1.5428024551896816e-09, 5.92904297664422e-08, 0.1, 0.1]
velocity: [1.594891756826047e-05, 1.0046882629428636e-05, 3.508550142001269e-05, 6.769512483203037e-05, 1.0991371213181115e-05, 1.9345824204334795e-05, 0.0, 0.0]
effort: [-11.586720000000001, -21.988, -19.9136, -0.5332114285714286, -1.1404800000000002, 0.24, 0.0, 0.0]
---
header: 
  seq: 297064
  stamp: 
    secs: 1737603822
    nsecs: 136792582
  frame_id: ''
name: 
  - joint_1
  - joint_2
  - joint_3
  - joint_4
  - joint_5
  - joint_6
  - tcp_lin
  - tcp_rot
position: [2.472151393483081e-08, -3.967271345526288e-12, 9.356001004012923e-09, 1.4384911564186272e-07, -7.396669461680372e-08, 2.9400421032127566e-12, 0.1, 0.1]
velocity: [5.708600149519555e-06, -4.87195710018624e-06, -6.770928811135213e-06, 8.273250564786892e-05, 7.530293952902998e-06, -3.077671322700837e-06, 0.0, 0.0]
effort: [-10.500465000000002, -22.227, -19.9136, -0.6331885714285714, -1.0368000000000002, 0.24, 0.0, 0.0]
---
header: 
  seq: 297065
  stamp: 
    secs: 1737603822
    nsecs: 156792162
  frame_id: ''
name: 
  - joint_1
  - joint_2
  - joint_3
  - joint_4
  - joint_5
  - joint_6
  - tcp_lin
  - tcp_rot
position: [-1.5326212055359392e-07, 8.987296904518303e-08, 4.680666229279474e-08, -4.3923219764533383e-11, -4.067778686263031e-07, -2.469852818003845e-11, 0.1, 0.1]
velocity: [-3.289394370272299e-05, 2.0532428853465868e-05, 7.113858746112314e-06, 3.1685872948954664e-05, -0.00016738829375969615, 8.223241225496022e-06, 0.0, 0.0]
effort: [-10.138380000000002, -21.749, -19.811999999999998, -0.033325714285714285, -1.11456, 0.24, 0.0, 0.0]
---
header: 
  seq: 297066
  stamp: 
    secs: 1737603822
    nsecs: 176880473
  frame_id: ''
name: 
  - joint_1
  - joint_2
  - joint_3
  - joint_4
  - joint_5
  - joint_6
  - tcp_lin
  - tcp_rot
position: [-1.52315611570378e-08, 3.016365482176997e-08, -2.8550735388215886e-08, -2.8579609249983397e-08, -2.221848732252431e-07, -1.3680793030405537e-09, 0.1, 0.1]
velocity: [-7.99077473898764e-06, 4.1334367928443315e-06, -1.57731943069534e-05, 7.06810618632102e-06, -3.9050822088383e-05, -1.1036598733549252e-06, 0.0, 0.0]
effort: [-10.138380000000002, -22.705, -19.811999999999998, 0.033325714285714285, -1.11456, 0.224, 0.0, 0.0]
---
header: 
  seq: 297067
  stamp: 
    secs: 1737603822
    nsecs: 196795783
  frame_id: ''
name: 
  - joint_1
  - joint_2
  - joint_3
  - joint_4
  - joint_5
  - joint_6
  - tcp_lin
  - tcp_rot
position: [6.427521623845906e-08, -2.996110230522995e-08, 4.6814829644778785e-08, 3.164487847230163e-07, 6.658004064368298e-07, -2.8574367666452626e-11, 0.1, 0.1]
velocity: [7.244656944452158e-06, -4.282012524493838e-06, 1.1552744778011342e-05, 8.727346893130851e-05, 0.00015442769365042248, 1.173347123207344e-05, 0.0, 0.0]
effort: [-10.500465000000002, -23.660999999999998, -19.7104, -0.7664914285714286, -1.0368000000000002, 0.24, 0.0, 0.0]
---
header: 
  seq: 297068
  stamp: 
    secs: 1737603822
    nsecs: 216797977
  frame_id: ''
name: 
  - joint_1
  - joint_2
  - joint_3
  - joint_4
  - joint_5
  - joint_6
  - tcp_lin
  - tcp_rot
position: [-3.460573142692306e-08, 2.0118426882795054e-12, -1.778916912208722e-07, -2.301534514332644e-07, -1.8496131165366028e-07, 5.990824716564807e-08, 0.1, 0.1]
velocity: [-1.0919587049008802e-05, -3.488919587419969e-06, -4.8675963234386646e-05, -4.904570977949255e-05, -3.56217339781303e-05, 1.0267114672839314e-05, 0.0, 0.0]
effort: [-11.224635000000001, -22.227, -20.0152, -0.7664914285714286, -1.1404800000000002, 0.224, 0.0, 0.0]
---
header: 
  seq: 297069
  stamp: 
    secs: 1737603822
    nsecs: 236794171
  frame_id: ''
name: 
  - joint_1
  - joint_2
  - joint_3
  - joint_4
  - joint_5
  - joint_6
  - tcp_lin
  - tcp_rot
position: [4.4487539115021704e-08, -4.194778860327878e-12, 4.679807785823301e-08, -3.739655715624889e-07, 2.5885819073030326e-07, 1.1982135409306426e-07, 0.1, 0.1]
velocity: [2.560374747474832e-05, 3.0684707152279367e-06, 1.4263658369069801e-05, -8.10694899356804e-05, 9.454929189885492e-05, 4.577678047804381e-05, 0.0, 0.0]
effort: [-11.224635000000001, -21.749, -19.811999999999998, -0.6665142857142857, -1.11456, 0.24, 0.0, 0.0]
---
header: 
  seq: 297070
  stamp: 
    secs: 1737603822
    nsecs: 256792265
  frame_id: ''
name: 
  - joint_1
  - joint_2
  - joint_3
  - joint_4
  - joint_5
  - joint_6
  - tcp_lin
  - tcp_rot
position: [2.4720166256349005e-08, -2.9954311020968395e-08, 9.332699815634748e-09, -3.739605035628259e-07, -1.1088265564344619e-07, -5.987333857837454e-08, 0.1, 0.1]
velocity: [7.798890123229088e-07, -9.018725132772205e-06, 1.1969326107399087e-05, -6.272969003692314e-05, -5.69430187535626e-05, -1.9719013328574435e-05, 0.0, 0.0]
effort: [-11.224635000000001, -21.749, -20.0152, -0.69984, -1.08864, 0.224, 0.0, 0.0]
---
header: 
  seq: 297071
  stamp: 
    secs: 1737603822
    nsecs: 276795176
  frame_id: ''
name: 
  - joint_1
  - joint_2
  - joint_3
  - joint_4
  - joint_5
  - joint_6
  - tcp_lin
  - tcp_rot
position: [4.4733845007795524e-08, 3.1759329063352495e-08, 4.693026288308352e-08, 8.920260377074519e-08, -2.919814969575619e-07, 8.679144109022578e-11, 0.1, 0.1]
velocity: [1.1197345748100117e-05, -6.146307413388662e-07, 5.4423972162618414e-06, 6.6688703422701484e-06, -5.06049368127931e-05, 6.652777402233645e-06, 0.0, 0.0]
effort: [-10.138380000000002, -22.227, -20.0152, -0.6331885714285714, -1.01088, 0.192, 0.0, 0.0]
---
header: 
  seq: 297072
  stamp: 
    secs: 1737603822
    nsecs: 296794081
  frame_id: ''
name: 
  - joint_1
  - joint_2
  - joint_3
  - joint_4
  - joint_5
  - joint_6
  - tcp_lin
  - tcp_rot
position: [-9.3843930784932e-08, -2.9966287486478736e-08, 8.424164733776104e-08, 3.4506095413220195e-07, 5.549239938219004e-07, -1.0153146337744963e-10, 0.1, 0.1]
velocity: [-2.712184673153208e-05, -5.714316590997352e-06, 1.5113744424609764e-05, 6.70815191635985e-05, 0.00013511179562518408, 1.866622551064513e-05, 0.0, 0.0]
effort: [-9.776295000000001, -22.944, -19.9136, -0.8664685714285714, -1.08864, 0.24, 0.0, 0.0]
---
header: 
  seq: 297073
  stamp: 
    secs: 1737603822
    nsecs: 316793851
  frame_id: ''
name: 
  - joint_1
  - joint_2
  - joint_3
  - joint_4
  - joint_5
  - joint_6
  - tcp_lin
  - tcp_rot
position: [-5.438901956070269e-08, -2.995187420645928e-08, -6.554002136008854e-08, 5.758340292156488e-08, -3.702997956322067e-08, -1.1982543323915638e-07, 0.1, 0.1]
velocity: [-1.0712716185454303e-05, -8.601762149832155e-06, -7.637712183280255e-06, 1.2588365419538157e-05, -2.3934361682993225e-05, -2.0494925075674643e-05, 0.0, 0.0]
effort: [-10.86255, -22.705, -19.507199999999997, -1.033097142857143, -1.1404800000000002, 0.192, 0.0, 0.0]
---
header: 
  seq: 297074
  stamp: 
    secs: 1737603822
    nsecs: 336846083
  frame_id: ''
name: 
  - joint_1
  - joint_2
  - joint_3
  - joint_4
  - joint_5
  - joint_6
  - tcp_lin
  - tcp_rot
position: [4.7991524893915736e-09, -3.0044330124306784e-08, 9.715682934865192e-09, 1.144974243305251e-07, 1.0740069586704532e-07, -1.1897643694472695e-07, 0.1, 0.1]
velocity: [5.2702263799557454e-06, -6.683694767786746e-06, -9.420981608364966e-07, -5.394257289700036e-06, 6.6023538323474e-05, -2.7443970241402203e-05, 0.0, 0.0]
effort: [-11.586720000000001, -21.988, -19.7104, -0.69984, -1.08864, 0.192, 0.0, 0.0]
---
header: 
  seq: 297075
  stamp: 
    secs: 1737603822
    nsecs: 356792501
  frame_id: ''
name: 
  - joint_1
  - joint_2
  - joint_3
  - joint_4
  - joint_5
  - joint_6
  - tcp_lin
  - tcp_rot
position: [-7.416000307446717e-08, -2.996052968161715e-08, 8.42640400395136e-08, -2.8768397459120412e-08, -3.3289665778576713e-07, 1.1984275814741724e-07, 0.1, 0.1]
velocity: [-2.5450990400149596e-05, -1.2850211967284573e-05, 1.5053318064214021e-05, -3.2961853093580056e-05, -0.00013944928834958985, 5.109694901659396e-05, 0.0, 0.0]
effort: [-10.138380000000002, -21.988, -19.7104, -0.8664685714285714, -1.11456, 0.224, 0.0, 0.0]
---
header: 
  seq: 297076
  stamp: 
    secs: 1737603822
    nsecs: 376792736
  frame_id: ''
name: 
  - joint_1
  - joint_2
  - joint_3
  - joint_4
  - joint_5
  - joint_6
  - tcp_lin
  - tcp_rot
position: [4.4496861776955744e-08, -2.9960719600139035e-08, 9.362711685035146e-09, -3.164511894542461e-07, -3.328922085343369e-07, 3.5952155881271246e-07, 0.1, 0.1]
velocity: [1.766557226993483e-06, -9.743232214648894e-06, 2.227225264336851e-06, -8.158316006759887e-05, -7.47621670690166e-05, 9.491398246811442e-05, 0.0, 0.0]
effort: [-11.948805000000002, -22.944, -19.811999999999998, -0.7331657142857143, -1.08864, 0.24, 0.0, 0.0]
---
header: 
  seq: 297077
  stamp: 
    secs: 1737603822
    nsecs: 396800718
  frame_id: ''
name: 
  - joint_1
  - joint_2
  - joint_3
  - joint_4
  - joint_5
  - joint_6
  - tcp_lin
  - tcp_rot
position: [1.0379199239458705e-07, -2.996488883003826e-08, -2.8060949413051377e-08, -2.8894412080129932e-08, 4.4401210214795163e-07, -2.394809681916439e-07, 0.1, 0.1]
velocity: [2.4226303129249927e-05, -4.788913911231722e-06, -7.483734570866842e-06, 4.7333460801544805e-06, 9.425191029816926e-05, -7.441226735906359e-05, 0.0, 0.0]
effort: [-10.86255, -22.227, -19.6088, -0.49988571428571427, -1.1404800000000002, 0.192, 0.0, 0.0]
---
header: 
  seq: 297078
  stamp: 
    secs: 1737603822
    nsecs: 416793759
  frame_id: ''
name: 
  - joint_1
  - joint_2
  - joint_3
  - joint_4
  - joint_5
  - joint_6
  - tcp_lin
  - tcp_rot
position: [-3.4589557221614274e-08, -2.997309627823319e-08, 8.423225546689468e-08, -8.304395125868245e-12, 7.386564990657577e-08, -5.2394151395584534e-12, 0.1, 0.1]
velocity: [-9.80735848629996e-06, -3.844725443001769e-06, 2.6484980754808877e-05, -5.120764055164471e-05, 3.3212665554917974e-05, -1.4079197686425493e-05, 0.0, 0.0]
effort: [-11.948805000000002, -21.749, -19.7104, -1.299702857142857, -1.1404800000000002, 0.224, 0.0, 0.0]
---
header: 
  seq: 297079
  stamp: 
    secs: 1737603822
    nsecs: 436799375
  frame_id: ''
name: 
  - joint_1
  - joint_2
  - joint_3
  - joint_4
  - joint_5
  - joint_6
  - tcp_lin
  - tcp_rot
position: [-3.441158090515279e-08, -6.418481170179238e-11, 9.173019867233454e-09, 5.7233983635663604e-08, 1.8398646193846737e-07, -2.9898850830468436e-07, 0.1, 0.1]
velocity: [-5.629269132733565e-06, 5.904223650415973e-06, 5.6945564124135295e-06, 2.9600828678910347e-05, 8.505284074923256e-05, -6.970754070850712e-05, 0.0, 0.0]
effort: [-10.86255, -22.227, -19.811999999999998, -0.8331428571428571, -1.08864, 0.24, 0.0, 0.0]
---
header: 
  seq: 297080
  stamp: 
    secs: 1737603822
    nsecs: 456792654
  frame_id: ''
name: 
  - joint_1
  - joint_2
  - joint_3
  - joint_4
  - joint_5
  - joint_6
  - tcp_lin
  - tcp_rot
position: [-1.4816626658510875e-08, 2.996163291958369e-08, -1.0299533307218921e-07, 5.756330377047725e-08, -3.328221254300382e-07, -5.990702722783541e-08, 0.1, 0.1]
velocity: [-6.32021176180078e-06, 3.696838096392631e-06, -2.0401602291529303e-05, 3.130452495661121e-06, -0.0001174192184653448, -1.1176987593582793e-05, 0.0, 0.0]
effort: [-11.586720000000001, -22.465999999999998, -19.9136, -0.49988571428571427, -1.1404800000000002, 0.224, 0.0, 0.0]
---
header: 
  seq: 297081
  stamp: 
    secs: 1737603822
    nsecs: 476792115
  frame_id: ''
name: 
  - joint_1
  - joint_2
  - joint_3
  - joint_4
  - joint_5
  - joint_6
  - tcp_lin
  - tcp_rot
position: [-1.1370507612282736e-07, 2.995662707535347e-08, -6.549770610909791e-08, -1.4377435372005592e-07, -2.219285262013909e-07, 1.7973900969890938e-07, 0.1, 0.1]
velocity: [-2.3082149734975396e-05, 8.416873464499841e-06, -3.755470858338888e-05, 5.1527558504589036e-06, -2.8390718104388925e-05, 4.6384116734919144e-05, 0.0, 0.0]
effort: [-11.224635000000001, -21.749, -19.9136, -0.6331885714285714, -1.06272, 0.192, 0.0, 0.0]
---
header: 
  seq: 297082
  stamp: 
    secs: 1737603822
    nsecs: 497060172
  frame_id: ''
name: 
  - joint_1
  - joint_2
  - joint_3
  - joint_4
  - joint_5
  - joint_6
  - tcp_lin
  - tcp_rot
position: [2.4774794459569917e-08, -3.009863373905301e-08, 4.901451743684627e-08, -2.8906671108147955e-08, 4.0885810747142316e-07, -7.462445128227941e-10, 0.1, 0.1]
velocity: [4.200414783978301e-06, -8.00649158504519e-06, -5.197757799712295e-06, -6.033844220867009e-06, 8.923668703844013e-05, 8.421013827132134e-06, 0.0, 0.0]
effort: [-11.586720000000001, -22.227, -19.7104, -1.7662628571428571, -1.08864, 0.224, 0.0, 0.0]
---
header: 
  seq: 297083
  stamp: 
    secs: 1737603822
    nsecs: 516792736
  frame_id: ''
name: 
  - joint_1
  - joint_2
  - joint_3
  - joint_4
  - joint_5
  - joint_6
  - tcp_lin
  - tcp_rot
position: [-1.482561598190741e-08, -2.9961016461316845e-08, -6.552270183694875e-08, 2.301255087299476e-07, -2.5894496078753567e-07, -5.991466203331883e-08, 0.1, 0.1]
velocity: [-9.733636439771476e-06, -3.5387703814281742e-06, -2.4598948850747773e-05, 6.973948639866629e-05, -5.913459061401395e-05, -9.40352523969497e-06, 0.0, 0.0]
effort: [-11.224635000000001, -21.509999999999998, -19.9136, -0.7998171428571428, -1.11456, 0.256, 0.0, 0.0]
---
header: 
  seq: 297084
  stamp: 
    secs: 1737603822
    nsecs: 536793731
  frame_id: ''
name: 
  - joint_1
  - joint_2
  - joint_3
  - joint_4
  - joint_5
  - joint_6
  - tcp_lin
  - tcp_rot
position: [-3.460471751194682e-08, 2.9959401286922375e-08, 9.372864401687611e-09, 3.7389965038200046e-07, 4.067290865754147e-07, -5.996252299699969e-08, 0.1, 0.1]
velocity: [-1.0456271498241135e-05, -3.4487816374297156e-06, -7.5997300158610255e-06, 9.970985800000071e-05, 0.0001367106286376793, -1.521440280927257e-06, 0.0, 0.0]
effort: [-11.224635000000001, -22.465999999999998, -19.9136, -1.0664228571428571, -1.08864, 0.192, 0.0, 0.0]
---
header: 
  seq: 297085
  stamp: 
    secs: 1737603822
    nsecs: 556794070
  frame_id: ''
name: 
  - joint_1
  - joint_2
  - joint_3
  - joint_4
  - joint_5
  - joint_6
  - tcp_lin
  - tcp_rot
position: [8.404134017498571e-08, 2.994418363447417e-08, 9.35198138823785e-09, -1.4390223847675406e-07, -3.327515184870728e-07, -3.594396815512206e-07, 0.1, 0.1]
velocity: [2.0397575763648575e-05, 1.1165412898230064e-05, 5.616541385460301e-06, -1.9997432718952093e-06, -0.00012731053788681763, -0.00010037756798807806, 0.0, 0.0]
effort: [-10.500465000000002, -22.227, -19.9136, -0.7998171428571428, -1.1404800000000002, 0.24, 0.0, 0.0]
---
header: 
  seq: 297086
  stamp: 
    secs: 1737603822
    nsecs: 576793631
  frame_id: ''
name: 
  - joint_1
  - joint_2
  - joint_3
  - joint_4
  - joint_5
  - joint_6
  - tcp_lin
  - tcp_rot
position: [-3.4625299732186457e-08, -7.84453296514674e-12, -2.8060897627536852e-08, 5.749675015730902e-08, -3.3293381119900294e-07, 2.9968517857475493e-07, 0.1, 0.1]
velocity: [-8.605055266088885e-06, 1.8354888500195686e-06, 2.3740174730115915e-06, -7.704624401463584e-06, -6.522830511743923e-05, 9.697201746281786e-05, 0.0, 0.0]
effort: [-10.500465000000002, -22.705, -19.7104, -1.033097142857143, -1.08864, 0.224, 0.0, 0.0]
---
header: 
  seq: 297087
  stamp: 
    secs: 1737603822
    nsecs: 596964830
  frame_id: ''
name: 
  - joint_1
  - joint_2
  - joint_3
  - joint_4
  - joint_5
  - joint_6
  - tcp_lin
  - tcp_rot
position: [-9.399020350422687e-08, -4.954065232558828e-10, 4.628020690417281e-08, 1.03629679418345e-10, 5.930649855549289e-07, -4.981879232169291e-10, 0.1, 0.1]
velocity: [-2.7213220940209848e-05, 7.817290831193143e-06, 2.0262082545229465e-05, 4.004640501160829e-05, 0.000137757537576638, 7.111614446805932e-06, 0.0, 0.0]
effort: [-11.224635000000001, -22.227, -19.9136, -0.93312, -1.08864, 0.24, 0.0, 0.0]
---
header: 
  seq: 297088
  stamp: 
    secs: 1737603822
    nsecs: 616792434
  frame_id: ''
name: 
  - joint_1
  - joint_2
  - joint_3
  - joint_4
  - joint_5
  - joint_6
  - tcp_lin
  - tcp_rot
position: [-1.1371743298977407e-07, -2.995988961501182e-08, 9.354095986272676e-09, 2.8761048049384844e-08, -7.395462159821795e-08, -1.7980003389002405e-07, 0.1, 0.1]
velocity: [-3.080361855108638e-05, -5.678828776519291e-06, -2.590077205391715e-06, 7.064168935795293e-06, -1.0725188224152522e-06, -5.053992135182147e-05, 0.0, 0.0]
effort: [-10.138380000000002, -22.705, -20.0152, -0.5665371428571429, -1.11456, 0.224, 0.0, 0.0]
---
header: 
  seq: 297089
  stamp: 
    secs: 1737603822
    nsecs: 636794087
  frame_id: ''
name: 
  - joint_1
  - joint_2
  - joint_3
  - joint_4
  - joint_5
  - joint_6
  - tcp_lin
  - tcp_rot
position: [-1.484893516927334e-08, -5.070996103433554e-12, -6.553537088766963e-08, 5.739652963927819e-08, 3.7252252988896205e-08, -2.997207743006934e-07, 0.1, 0.1]
velocity: [-6.91558197576192e-06, 9.732463020141441e-06, -6.452894012453154e-06, -1.6795072545836882e-05, 4.744697504545871e-05, -7.819886591999e-05, 0.0, 0.0]
effort: [-11.224635000000001, -22.944, -19.7104, -0.46656, -1.08864, 0.20800000000000002, 0.0, 0.0]
---
header: 
  seq: 297090
  stamp: 
    secs: 1737603822
    nsecs: 656889130
  frame_id: ''
name: 
  - joint_1
  - joint_2
  - joint_3
  - joint_4
  - joint_5
  - joint_6
  - tcp_lin
  - tcp_rot
position: [5.364390160350741e-09, 2.939739058398191e-08, 8.511229847277025e-09, -1.7226129353729562e-07, -2.5554809997958383e-07, -6.227354908617422e-08, 0.1, 0.1]
velocity: [-3.06747417318068e-06, 1.2869804527255419e-05, 4.163587101455536e-06, -2.9005733933740694e-05, -0.00011345361912475515, -9.268747779551923e-06, 0.0, 0.0]
effort: [-11.586720000000001, -22.465999999999998, -19.9136, -0.93312, -1.11456, 0.256, 0.0, 0.0]
---
header: 
  seq: 297091
  stamp: 
    secs: 1737603822
    nsecs: 676792338
  frame_id: ''
name: 
  - joint_1
  - joint_2
  - joint_3
  - joint_4
  - joint_5
  - joint_6
  - tcp_lin
  - tcp_rot
position: [-7.418225658432556e-08, -2.994529489558479e-08, 4.684116067225945e-08, 2.5893137365630766e-07, -4.438000217113814e-07, 5.989286625185381e-08, 0.1, 0.1]
velocity: [-1.5379468286485408e-05, -6.040006460932422e-06, 6.069646013864494e-06, 4.899977020233994e-05, -9.070696601953877e-05, 1.566417508980373e-05, 0.0, 0.0]
effort: [-10.500465000000002, -22.465999999999998, -19.811999999999998, -1.39968, -1.1404800000000002, 0.24, 0.0, 0.0]
---
header: 
  seq: 297092
  stamp: 
    secs: 1737603822
    nsecs: 696793529
  frame_id: ''
name: 
  - joint_1
  - joint_2
  - joint_3
  - joint_4
  - joint_5
  - joint_6
  - tcp_lin
  - tcp_rot
position: [-5.427464434866848e-08, -2.9964175532452854e-08, 4.6794044516206994e-08, -1.646533720539682e-10, 4.439604090063255e-07, -5.211370886581205e-11, 0.1, 0.1]
velocity: [-2.3336403544239157e-05, -3.8142300608476454e-06, 1.6980940129908943e-05, 2.7757919563498588e-05, 0.00010534579755380418, 4.989906887520337e-06, 0.0, 0.0]
effort: [-10.86255, -23.183, -20.0152, -0.49988571428571427, -1.06272, 0.24, 0.0, 0.0]
---
header: 
  seq: 297093
  stamp: 
    secs: 1737603822
    nsecs: 716797243
  frame_id: ''
name: 
  - joint_1
  - joint_2
  - joint_3
  - joint_4
  - joint_5
  - joint_6
  - tcp_lin
  - tcp_rot
position: [6.427809348784417e-08, 2.99731375407075e-08, -2.8076822434373924e-08, -1.4381740925571972e-07, -2.589006954857391e-07, 2.644671442878091e-11, 0.1, 0.1]
velocity: [1.5828910764921496e-05, 1.2297313402324926e-05, -4.98937748438094e-06, -1.280663405826844e-05, -6.722461635001918e-05, 1.967321935924247e-05, 0.0, 0.0]
effort: [-10.500465000000002, -22.944, -19.811999999999998, -0.5998628571428571, -1.1404800000000002, 0.20800000000000002, 0.0, 0.0]
---
header: 
  seq: 297094
  stamp: 
    secs: 1737603822
    nsecs: 736792402
  frame_id: ''
name: 
  - joint_1
  - joint_2
  - joint_3
  - joint_4
  - joint_5
  - joint_6
  - tcp_lin
  - tcp_rot
position: [4.4485951241395575e-08, -2.9942987610168844e-08, 9.361940324087478e-09, -5.7588761883828224e-08, 1.4784976290864912e-07, -1.79835210303454e-07, 0.1, 0.1]
velocity: [9.385408103046246e-06, -6.5380558521271605e-06, -2.2342348549784604e-06, 1.673624993514491e-05, 5.514717377349866e-05, -3.848062590867047e-05, 0.0, 0.0]
effort: [-11.586720000000001, -21.749, -19.507199999999997, -0.5998628571428571, -1.08864, 0.224, 0.0, 0.0]
---
header: 
  seq: 297095
  stamp: 
    secs: 1737603822
    nsecs: 756917803
  frame_id: ''
name: 
  - joint_1
  - joint_2
  - joint_3
  - joint_4
  - joint_5
  - joint_6
  - tcp_lin
  - tcp_rot
position: [-1.3902173922650158e-08, -2.9507737497390678e-08, 6.229837378078253e-09, 1.7495592994365008e-07, -2.8161335512931317e-07, 2.522865163592584e-09, 0.1, 0.1]
velocity: [-1.6000065888235446e-05, -1.6592291064809187e-05, 1.6759564193180686e-06, 2.7658975746848373e-05, -0.00012266576848176335, 7.905514262105515e-07, 0.0, 0.0]
effort: [-10.138380000000002, -22.465999999999998, -19.6088, -0.8331428571428571, -1.1404800000000002, 0.256, 0.0, 0.0]
---
header: 
  seq: 297096
  stamp: 
    secs: 1737603822
    nsecs: 776792461
  frame_id: ''
name: 
  - joint_1
  - joint_2
  - joint_3
  - joint_4
  - joint_5
  - joint_6
  - tcp_lin
  - tcp_rot
position: [-1.4844198424706344e-08, 1.5577261326280567e-13, -2.5280203785919625e-07, -1.7260202188296662e-07, -2.5889352156765975e-07, 7.362942327232504e-11, 0.1, 0.1]
velocity: [1.6010931586694997e-06, 7.336512711249361e-07, -4.612952438186282e-05, -9.030285952889348e-06, -6.73648837184936e-05, -1.2172352659008825e-05, 0.0, 0.0]
effort: [-10.500465000000002, -22.465999999999998, -19.811999999999998, -1.033097142857143, -1.06272, 0.272, 0.0, 0.0]
---
header: 
  seq: 297097
  stamp: 
    secs: 1737603822
    nsecs: 796793531
  frame_id: ''
name: 
  - joint_1
  - joint_2
  - joint_3
  - joint_4
  - joint_5
  - joint_6
  - tcp_lin
  - tcp_rot
position: [-5.438053340855757e-08, 2.9979310878106794e-08, -6.555332031145265e-08, 8.633298331170524e-08, 5.178856877869216e-07, -5.990989223309527e-08, 0.1, 0.1]
velocity: [-7.732537254187593e-06, 8.010268817338618e-06, -1.542628847020379e-05, 1.0921731245407826e-05, 0.00010283714498695597, -1.9216934520163958e-05, 0.0, 0.0]
effort: [-9.776295000000001, -22.705, -20.0152, -0.8664685714285714, -1.06272, 0.224, 0.0, 0.0]
---
header: 
  seq: 297098
  stamp: 
    secs: 1737603822
    nsecs: 816978768
  frame_id: ''
name: 
  - joint_1
  - joint_2
  - joint_3
  - joint_4
  - joint_5
  - joint_6
  - tcp_lin
  - tcp_rot
position: [7.029730061814702e-09, -3.1432512205943797e-08, -2.111262377106449e-08, 1.4059982942287619e-07, -1.2479859989106877e-07, 1.8417275593168598e-07, 0.1, 0.1]
velocity: [-6.935727060821798e-06, -1.3527369834556003e-05, -1.259938149754853e-05, 4.279769341017228e-05, -4.459304760083526e-05, 4.0467051779829845e-05, 0.0, 0.0]
effort: [-10.86255, -22.465999999999998, -19.811999999999998, -0.5332114285714286, -1.06272, 0.24, 0.0, 0.0]
---
header: 
  seq: 297099
  stamp: 
    secs: 1737603822
    nsecs: 836792917
  frame_id: ''
name: 
  - joint_1
  - joint_2
  - joint_3
  - joint_4
  - joint_5
  - joint_6
  - tcp_lin
  - tcp_rot
position: [4.450044204873246e-08, 2.994390567531995e-08, 9.366681214352836e-09, 2.8658391536650912e-08, 2.5861334870264536e-07, 1.4575115184966456e-10, 0.1, 0.1]
velocity: [6.7623885293024645e-06, 5.261112048214263e-06, 5.940793971682558e-06, 3.784781930464049e-05, 0.00010250021018872825, -2.356886012917685e-05, 0.0, 0.0]
effort: [-11.586720000000001, -22.944, -19.9136, -0.69984, -1.08864, 0.192, 0.0, 0.0]
---
header: 
  seq: 297100
  stamp: 
    secs: 1737603822
    nsecs: 856795589
  frame_id: ''
name: 
  - joint_1
  - joint_2
  - joint_3
  - joint_4
  - joint_5
  - joint_6
  - tcp_lin
  - tcp_rot
position: [2.4712126993224716e-08, -2.996573297163382e-08, -6.55412928012525e-08, 1.1506368664177881e-07, -3.6981427294373816e-07, -2.396424780379177e-07, 0.1, 0.1]
velocity: [1.6272356216371554e-05, 1.4529052497617689e-06, -1.4143419805432858e-05, 2.4664189699043874e-05, -0.0001362457852749596, -6.78072778559007e-05, 0.0, 0.0]
effort: [-11.948805000000002, -22.227, -19.9136, -1.1997257142857143, -1.1404800000000002, 0.28800000000000003, 0.0, 0.0]
---
header: 
  seq: 297101
  stamp: 
    secs: 1737603822
    nsecs: 876792093
  frame_id: ''
name: 
  - joint_1
  - joint_2
  - joint_3
  - joint_4
  - joint_5
  - joint_6
  - tcp_lin
  - tcp_rot
position: [6.425852080419193e-08, 2.9943510662800074e-08, -6.555444299142544e-08, -2.3013384916249678e-07, -2.958715679949207e-07, 1.1985284314240918e-07, 0.1, 0.1]
velocity: [2.13664749627407e-05, 1.128445634631267e-05, -7.371616840125601e-06, -4.105415249509221e-05, -4.748155510402324e-05, 3.0199265104463352e-05, 0.0, 0.0]
effort: [-10.138380000000002, -22.465999999999998, -19.7104, -0.7664914285714286, -1.0368000000000002, 0.20800000000000002, 0.0, 0.0]
---
header: 
  seq: 297102
  stamp: 
    secs: 1737603822
    nsecs: 896793001
  frame_id: ''
name: 
  - joint_1
  - joint_2
  - joint_3
  - joint_4
  - joint_5
  - joint_6
  - tcp_lin
  - tcp_rot
position: [2.4736777768219394e-08, -2.9944093685649665e-08, 4.674412604519333e-08, -1.435037361920753e-07, 5.918655888733182e-07, -7.471515096313936e-11, 0.1, 0.1]
velocity: [2.71261917609942e-06, -7.938710283269688e-06, 1.9828380940628753e-05, -9.195816991869209e-05, 0.0001430167762909469, 1.9751827622251487e-05, 0.0, 0.0]
effort: [-11.948805000000002, -22.465999999999998, -20.116799999999998, -0.33325714285714286, -1.06272, 0.192, 0.0, 0.0]
---
header: 
  seq: 297103
  stamp: 
    secs: 1737603822
    nsecs: 916792364
  frame_id: ''
name: 
  - joint_1
  - joint_2
  - joint_3
  - joint_4
  - joint_5
  - joint_6
  - tcp_lin
  - tcp_rot
position: [8.403493305820664e-08, -7.808899301442103e-11, 4.674209642484688e-08, 1.4304515455246337e-07, -2.9634918979662056e-07, 5.959109452232188e-08, 0.1, 0.1]
velocity: [1.58775510399723e-05, 5.477951612208287e-06, 1.5413447917008225e-05, 3.8591079720947776e-05, -6.495258127789603e-05, 1.6577932308597444e-05, 0.0, 0.0]
effort: [-12.310890000000002, -22.465999999999998, -19.9136, -0.6665142857142857, -1.1664, 0.224, 0.0, 0.0]
---
header: 
  seq: 297104
  stamp: 
    secs: 1737603822
    nsecs: 936793248
  frame_id: ''
name: 
  - joint_1
  - joint_2
  - joint_3
  - joint_4
  - joint_5
  - joint_6
  - tcp_lin
  - tcp_rot
position: [4.449613808511723e-08, -1.2094358613881547e-12, -6.553683081141606e-08, 2.3014972330840235e-07, 2.589092460181648e-07, -1.7976062172748475e-07, 0.1, 0.1]
velocity: [1.2693484720958228e-05, -5.530891259620017e-07, -1.7461634795995623e-05, 2.877623724727222e-05, 9.473417171119102e-05, -4.206272311868615e-05, 0.0, 0.0]
effort: [-12.310890000000002, -22.227, -20.0152, -0.7664914285714286, -1.0368000000000002, 0.24, 0.0, 0.0]
---
header: 
  seq: 297105
  stamp: 
    secs: 1737603822
    nsecs: 956792295
  frame_id: ''
name: 
  - joint_1
  - joint_2
