header: 
  seq: 76619
  stamp: 
    secs: 1736992371
    nsecs: 963703877
  frame_id: ''
name: 
  - joint_1
  - joint_2
  - joint_3
  - joint_4
  - joint_5
  - joint_6
  - tcp_lin
  - tcp_rot
position: [0.10000004619414535, 0.09999999405149734, 0.09999996424096277, 0.0999998822851757, 0.10000000894559984, 0.10000001639046918, 0.1, 0.1]
velocity: [3.594409618075018e-06, -1.0703722052980173e-05, -1.2584418737681861e-05, -2.35439511735596e-05, -4.992766168649673e-06, -5.3011810231336995e-06, 0.0, 0.0]
effort: [-3.9829350000000003, -29.397, -24.790399999999998, -0.033325714285714285, -1.9699200000000001, -0.14400000000000002, 0.0, 0.0]
---
header: 
  seq: 76620
  stamp: 
    secs: 1736992371
    nsecs: 983703048
  frame_id: ''
name: 
  - joint_1
  - joint_2
  - joint_3
  - joint_4
  - joint_5
  - joint_6
  - tcp_lin
  - tcp_rot
position: [0.09999998658893579, 0.09999996424072813, 0.100000076015805, 0.10000005364607835, 0.09999989720286209, 0.10000001640987473, 0.1, 0.1]
velocity: [-1.1835359256485388e-07, -1.0100497214263158e-05, -5.013592786957908e-07, 1.0603103921387217e-05, -3.214960867996744e-05, -1.5132019538864386e-05, 0.0, 0.0]
effort: [-5.069190000000001, -29.397, -25.1968, 0.23328, -1.89216, -0.08, 0.0, 0.0]
---
header: 
  seq: 76621
  stamp: 
    secs: 1736992372
    nsecs:   2782226
  frame_id: ''
name: 
  - joint_1
  - joint_2
  - joint_3
  - joint_4
  - joint_5
  - joint_6
  - tcp_lin
  - tcp_rot
position: [0.09999996332784923, 0.09999993412859527, 0.10000003995484584, 0.09999990320412498, 0.09999993387227814, 0.09999989882048162, 0.1, 0.1]
velocity: [-1.463275765082427e-05, -1.4453555393755463e-05, 1.4525387074951273e-05, -1.8215638235636258e-05, -9.137647221580347e-06, -2.289877985240466e-05, 0.0, 0.0]
effort: [-3.6208500000000003, -29.397, -24.892, 0.33325714285714286, -2.02176, -0.112, 0.0, 0.0]
---
header: 
  seq: 76622
  stamp: 
    secs: 1736992372
    nsecs:  23709377
  frame_id: ''
name: 
  - joint_1
  - joint_2
  - joint_3
  - joint_4
  - joint_5
  - joint_6
  - tcp_lin
  - tcp_rot
position: [0.10000002384567709, 0.1000000834531584, 0.09999996424869352, 0.0999998823195099, 0.10000000894080602, 0.10000007589984768, 0.1, 0.1]
velocity: [8.605842791413159e-06, 1.4997593166681987e-05, -1.1393323189707148e-05, -2.4624399374020613e-05, 2.4917995512479247e-07, 2.1995948313339946e-05, 0.0, 0.0]
effort: [-5.069190000000001, -30.831, -24.892, 0.1999542857142857, -2.09952, -0.096, 0.0, 0.0]
---
header: 
  seq: 76623
  stamp: 
    secs: 1736992372
    nsecs:  43703196
  frame_id: ''
name: 
  - joint_1
  - joint_2
  - joint_3
  - joint_4
  - joint_5
  - joint_6
  - tcp_lin
  - tcp_rot
position: [0.0999999642356429, 0.10000011321340255, 0.09999996421092212, 0.1000001355041135, 0.09999986000217062, 0.0999999568208158, 0.1, 0.1]
velocity: [-2.609971032081654e-06, 3.0569556108205795e-05, -6.375612188862391e-06, 4.1104573641251394e-05, -2.7680422279113633e-05, -2.944039684730197e-06, 0.0, 0.0]
effort: [-4.345020000000001, -29.875, -25.1968, 0.46656, -1.9440000000000002, -0.096, 0.0, 0.0]
---
header: 
  seq: 76624
  stamp: 
    secs: 1736992372
    nsecs:  63737495
  frame_id: ''
name: 
  - joint_1
  - joint_2
  - joint_3
  - joint_4
  - joint_5
  - joint_6
  - tcp_lin
  - tcp_rot
position: [0.100000046210379, 0.10000002385612647, 0.10000003880871819, 0.10000005363517307, 0.10000008343803601, 0.09999977777274348, 0.1, 0.1]
velocity: [1.2915607107366149e-05, 9.105591181296667e-06, 1.647873735661472e-05, 1.3057123561855899e-05, 1.2275895602515147e-05, -6.761424732786876e-05, 0.0, 0.0]
effort: [-6.879615000000001, -30.113999999999997, -25.1968, 0.49988571428571427, -2.0736000000000003, -0.096, 0.0, 0.0]
---
header: 
  seq: 76625
  stamp: 
    secs: 1736992372
    nsecs:  83702950
  frame_id: ''
name: 
  - joint_1
  - joint_2
  - joint_3
  - joint_4
  - joint_5
  - joint_6
  - tcp_lin
  - tcp_rot
position: [0.1000000238454573, 0.09999996423976261, 0.09999988974506291, 0.10000005362161044, 0.10000008343866014, 0.10000001638272793, 0.1, 0.1]
velocity: [1.538145798976109e-06, -1.287795810608144e-05, -2.112281827343176e-05, 2.15462123490933e-05, 2.2426307065328238e-05, 2.8802391497108372e-06, 0.0, 0.0]
effort: [-5.069190000000001, -30.592, -25.0952, 0.3999085714285714, -1.99584, -0.128, 0.0, 0.0]
---
header: 
  seq: 76626
  stamp: 
    secs: 1736992372
    nsecs: 103704784
  frame_id: ''
name: 
  - joint_1
  - joint_2
  - joint_3
  - joint_4
  - joint_5
  - joint_6
  - tcp_lin
  - tcp_rot
position: [0.10000002383939485, 0.10000002394136345, 0.10000011328617942, 0.0999998822964172, 0.09999978551627181, 0.0999998972421271, 0.1, 0.1]
velocity: [1.119554440493e-05, -1.3192373020639705e-06, 1.8251224819584748e-05, -2.8966311024132485e-05, -4.817526928345909e-05, -2.9753387554738936e-05, 0.0, 0.0]
effort: [-5.793360000000001, -29.157999999999998, -25.5016, 0.4332342857142857, -2.09952, -0.064, 0.0, 0.0]
---
header: 
  seq: 76627
  stamp: 
    secs: 1736992372
    nsecs: 123702516
  frame_id: ''
name: 
  - joint_1
  - joint_2
  - joint_3
  - joint_4
  - joint_5
  - joint_6
  - tcp_lin
  - tcp_rot
position: [0.09999998659378516, 0.1000000238294655, 0.09999981522734717, 0.1000000834794657, 0.10000012071441804, 0.10000013563287767, 0.1, 0.1]
velocity: [-5.741472972409954e-07, -7.859243113061814e-07, -4.5533064315155814e-05, 2.2356614275691742e-05, 4.049915198443272e-05, 2.545189027257758e-05, 0.0, 0.0]
effort: [-4.707105, -29.397, -25.298399999999997, 0.33325714285714286, -1.99584, -0.096, 0.0, 0.0]
---
header: 
  seq: 76628
  stamp: 
    secs: 1736992372
    nsecs: 143702623
  frame_id: ''
name: 
  - joint_1
  - joint_2
  - joint_3
  - joint_4
  - joint_5
  - joint_6
  - tcp_lin
  - tcp_rot
position: [0.10000000893368773, 0.10000011323357694, 0.10000007597573662, 0.1000001057809955, 0.09999982271881354, 0.09999995679494571, 0.1, 0.1]
velocity: [3.960753803210965e-06, 3.055448588053447e-05, 3.161214185432586e-05, 1.1521201504315841e-05, -5.006313468541383e-05, -1.1313691804456496e-05, 0.0, 0.0]
effort: [-3.2587650000000004, -29.875, -25.0952, 0.23328, -1.89216, -0.064, 0.0, 0.0]
---
header: 
  seq: 76629
  stamp: 
    secs: 1736992372
    nsecs: 162804867
  frame_id: ''
name: 
  - joint_1
  - joint_2
  - joint_3
  - joint_4
  - joint_5
  - joint_6
  - tcp_lin
  - tcp_rot
position: [0.10000002378545836, 0.09999996421638313, 0.10000003904410415, 0.09999993437535878, 0.0999999349542695, 0.10000001563790266, 0.1, 0.1]
velocity: [5.2357252206227565e-06, -3.439418624604463e-06, 1.120968044316606e-05, -8.689368985644735e-06, -2.6910149389368482e-05, -5.99688776876848e-07, 0.0, 0.0]
effort: [-4.707105, -31.07, -24.892, 0.33325714285714286, -1.9440000000000002, -0.08, 0.0, 0.0]
---
header: 
  seq: 76630
  stamp: 
    secs: 1736992372
    nsecs: 183703659
  frame_id: ''
name: 
  - joint_1
  - joint_2
  - joint_3
  - joint_4
  - joint_5
  - joint_6
  - tcp_lin
  - tcp_rot
position: [0.10000002384208176, 0.09999999403868029, 0.10000000149326345, 0.1000000834515607, 0.10000012070280777, 0.1000000759951526, 0.1, 0.1]
velocity: [7.59669274379495e-06, -1.909848243563412e-06, 9.13151234553973e-06, 1.391685370731424e-05, 3.806032075408305e-05, 2.5064436885684757e-05, 0.0, 0.0]
effort: [-3.6208500000000003, -29.875, -25.0952, 0.3999085714285714, -1.99584, -0.096, 0.0, 0.0]
---
header: 
  seq: 76631
  stamp: 
    secs: 1736992372
    nsecs: 202858375
  frame_id: ''
name: 
  - joint_1
  - joint_2
  - joint_3
  - joint_4
  - joint_5
  - joint_6
  - tcp_lin
  - tcp_rot
position: [0.10000010588358849, 0.09999996399966954, 0.10000003865555404, 0.10000010589301091, 0.09999993461715369, 0.09999989671247143, 0.1, 0.1]
velocity: [2.204363633453499e-05, -1.4678723540750501e-05, 1.2368405804059634e-06, 1.0411814362851838e-05, -5.692525096649727e-06, -3.177127763879244e-05, 0.0, 0.0]
effort: [-3.9829350000000003, -30.352999999999998, -24.6888, 0.2666057142857143, -1.9440000000000002, -0.08, 0.0, 0.0]
---
header: 
  seq: 76632
  stamp: 
    secs: 1736992372
    nsecs: 222735427
  frame_id: ''
name: 
  - joint_1
  - joint_2
  - joint_3
  - joint_4
  - joint_5
  - joint_6
  - tcp_lin
  - tcp_rot
position: [0.10000000893936266, 0.09999999405492001, 0.10000015048687048, 0.0999999940411532, 0.09999978534060704, 0.09999983753190334, 0.1, 0.1]
velocity: [2.589034482054242e-06, -7.723490105052822e-08, 2.890983663856799e-05, -3.124319097329398e-06, -6.29965790027986e-05, -3.096144447032249e-05, 0.0, 0.0]
effort: [-3.6208500000000003, -29.875, -25.298399999999997, 0.23328, -1.9699200000000001, -0.112, 0.0, 0.0]
---
header: 
  seq: 76633
  stamp: 
    secs: 1736992372
    nsecs: 243703763
  frame_id: ''
name: 
  - joint_1
  - joint_2
  - joint_3
  - joint_4
  - joint_5
  - joint_6
  - tcp_lin
  - tcp_rot
position: [0.10000002384188138, 0.09999996423801501, 0.09999988973340053, 0.09999988228328956, 0.09999989718306013, 0.09999995678979304, 0.1, 0.1]
velocity: [1.257319147187221e-06, -1.662690003995162e-05, -4.21909031289739e-05, -3.940406955395532e-05, -1.7056569373051132e-05, -9.544118645351988e-06, 0.0, 0.0]
effort: [-4.707105, -29.636, -25.298399999999997, 0.23328, -1.9180800000000002, -0.08, 0.0, 0.0]
---
header: 
  seq: 76634
  stamp: 
    secs: 1736992372
    nsecs: 263703999
  frame_id: ''
name: 
  - joint_1
  - joint_2
  - joint_3
  - joint_4
  - joint_5
  - joint_6
  - tcp_lin
  - tcp_rot
position: [0.09999998658966715, 0.09999999403906552, 0.1000000759905797, 0.10000005361473623, 0.10000004614404262, 0.10000001633297582, 0.1, 0.1]
velocity: [1.381580784074965e-06, -9.421675211370354e-07, 2.6712961355576174e-05, 3.1698857378446594e-05, 1.476000850751942e-05, 5.03282894579251e-06, 0.0, 0.0]
effort: [-5.431275, -30.113999999999997, -24.6888, 0.3999085714285714, -1.9440000000000002, -0.112, 0.0, 0.0]
---
header: 
  seq: 76635
  stamp: 
    secs: 1736992372
    nsecs: 283702430
  frame_id: ''
name: 
  - joint_1
  - joint_2
  - joint_3
  - joint_4
  - joint_5
  - joint_6
  - tcp_lin
  - tcp_rot
position: [0.10000002384174843, 0.09999996423935775, 0.10000003874492021, 0.09999990463436297, 0.09999993443396388, 0.10000019520619324, 0.1, 0.1]
velocity: [1.8624843756304281e-06, -6.740716964712436e-06, 4.846687319272605e-06, -8.227298851428904e-06, -2.1384455889231677e-05, 4.283138696408793e-05, 0.0, 0.0]
effort: [-3.9829350000000003, -30.113999999999997, -25.4, 0.2666057142857143, -1.99584, -0.096, 0.0, 0.0]
---
header: 
  seq: 76636
  stamp: 
    secs: 1736992372
    nsecs: 303703024
  frame_id: ''
name: 
  - joint_1
  - joint_2
  - joint_3
  - joint_4
  - joint_5
  - joint_6
  - tcp_lin
  - tcp_rot
position: [0.10000000894525665, 0.0999999940562681, 0.09999988971662295, 0.09999993439952501, 0.10000004616269392, 0.09999989714043753, 0.1, 0.1]
velocity: [6.061247986488088e-06, -1.4453726316636004e-07, -2.1708525448869998e-05, -2.272490843225819e-05, -1.4024935071103243e-06, -3.044126646031182e-05, 0.0, 0.0]
effort: [-3.9829350000000003, -30.831, -25.1968, 0.46656, -2.02176, -0.128, 0.0, 0.0]
---
header: 
  seq: 76637
  stamp: 
    secs: 1736992372
    nsecs: 323703540
  frame_id: ''
name: 
  - joint_1
  - joint_2
  - joint_3
  - joint_4
  - joint_5
  - joint_6
  - tcp_lin
  - tcp_rot
position: [0.09999998657313167, 0.1000000238821704, 0.10000015012463295, 0.09999999458885699, 0.10000019345735091, 0.10000001640106576, 0.1, 0.1]
velocity: [-3.4803418783305343e-06, 8.460086561281828e-06, 3.9509068041725185e-05, -3.7365446962996e-06, 7.05404543649336e-05, 2.59470381127713e-06, 0.0, 0.0]
effort: [-6.517530000000001, -29.397, -24.790399999999998, 0.46656, -1.99584, -0.112, 0.0, 0.0]
---
header: 
  seq: 76638
  stamp: 
    secs: 1736992372
    nsecs: 343702383
  frame_id: ''
name: 
  - joint_1
  - joint_2
  - joint_3
  - joint_4
  - joint_5
  - joint_6
  - tcp_lin
  - tcp_rot
position: [0.09999996423666854, 0.099999964236802, 0.10000011324327779, 0.10000008343612832, 0.10000023245932049, 0.09999995677634604, 0.1, 0.1]
velocity: [-9.279030560065563e-06, -7.003618661225048e-06, 1.7210139640943268e-05, 2.4335959898271393e-05, 5.777756731205683e-05, 3.500146974251905e-06, 0.0, 0.0]
effort: [-4.345020000000001, -30.831, -24.9936, 0.4332342857142857, -1.9440000000000002, -0.128, 0.0, 0.0]
---
header: 
  seq: 76639
  stamp: 
    secs: 1736992372
    nsecs: 363702495
  frame_id: ''
name: 
  - joint_1
  - joint_2
  - joint_3
  - joint_4
  - joint_5
  - joint_6
  - tcp_lin
  - tcp_rot
position: [0.10000002384841394, 0.09999996426826818, 0.09999992697184724, 0.09999999403964221, 0.0999999344404971, 0.09999983756075453, 0.1, 0.1]
velocity: [5.578823650355632e-06, -1.6677889213260035e-05, -1.5835832323995516e-05, 4.266164751350994e-07, -1.3363104015256119e-05, -1.1088701207477997e-05, 0.0, 0.0]
effort: [-4.345020000000001, -29.875, -25.5016, 0.33325714285714286, -2.04768, -0.096, 0.0, 0.0]
---
header: 
  seq: 76640
  stamp: 
    secs: 1736992372
    nsecs: 383744035
  frame_id: ''
name: 
  - joint_1
  - joint_2
  - joint_3
  - joint_4
  - joint_5
  - joint_6
  - tcp_lin
  - tcp_rot
position: [0.10000002384942719, 0.09999999404047316, 0.09999988969171619, 0.09999985243771674, 0.10000008343397675, 0.0999999567474612, 0.1, 0.1]
velocity: [6.020920160835949e-06, -1.0830386279302866e-06, -2.7962960732303172e-05, -3.41665277547822e-05, 1.4634888722772626e-05, -1.3741382346768202e-05, 0.0, 0.0]
effort: [-4.707105, -29.875, -24.6888, 0.36658285714285715, -2.0736000000000003, -0.096, 0.0, 0.0]
---
header: 
  seq: 76641
  stamp: 
    secs: 1736992372
    nsecs: 403702837
  frame_id: ''
name: 
  - joint_1
  - joint_2
  - joint_3
  - joint_4
  - joint_5
  - joint_6
  - tcp_lin
  - tcp_rot
position: [0.10000002383756132, 0.09999996424760109, 0.0999999642886572, 0.10000013552992841, 0.10000004616170266, 0.09999989717610576, 0.1, 0.1]
velocity: [6.156305556054508e-06, -8.66882491470765e-06, -7.204101400263478e-06, 2.7807958211145545e-05, 9.701592495034373e-06, -1.1972657576608999e-05, 0.0, 0.0]
effort: [-4.707105, -30.113999999999997, -25.0952, 0.69984, -1.9699200000000001, -0.16, 0.0, 0.0]
---
header: 
  seq: 76642
  stamp: 
    secs: 1736992372
    nsecs: 423702757
  frame_id: ''
name: 
  - joint_1
  - joint_2
  - joint_3
  - joint_4
  - joint_5
  - joint_6
  - tcp_lin
  - tcp_rot
position: [0.09999996423544505, 0.10000002382691164, 0.10000011322692333, 0.10000002381806213, 0.10000004617689723, 0.09999989723887454, 0.1, 0.1]
velocity: [-6.56515712870748e-06, 4.110108949723065e-06, 3.043127271305126e-05, 3.0853121705537166e-05, 1.248479838277197e-05, -2.721431423472851e-05, 0.0, 0.0]
effort: [-4.707105, -30.592, -24.892, 0.33325714285714286, -1.9180800000000002, -0.096, 0.0, 0.0]
---
header: 
  seq: 76643
  stamp: 
    secs: 1736992372
    nsecs: 443703225
  frame_id: ''
name: 
  - joint_1
  - joint_2
  - joint_3
  - joint_4
  - joint_5
  - joint_6
  - tcp_lin
  - tcp_rot
position: [0.09999996422812814, 0.0999999642477147, 0.09999988974322867, 0.10000016537609209, 0.099999859920909, 0.09999989716786613, 0.1, 0.1]
velocity: [-7.580152635193632e-06, -7.791904201904682e-06, -1.6201731191197002e-05, 3.910661038927855e-05, -4.0190182955640255e-05, -1.0096676270458767e-05, 0.0, 0.0]
effort: [-6.155445000000001, -29.636, -24.790399999999998, 0.4332342857142857, -1.9699200000000001, -0.112, 0.0, 0.0]
---
header: 
  seq: 76644
  stamp: 
    secs: 1736992372
    nsecs: 463702540
  frame_id: ''
name: 
  - joint_1
  - joint_2
  - joint_3
  - joint_4
  - joint_5
  - joint_6
  - tcp_lin
  - tcp_rot
position: [0.10000000894462557, 0.09999996424834463, 0.10000000155317693, 0.09999996427093645, 0.10000008337478736, 0.10000013551356417, 0.1, 0.1]
velocity: [6.432704285758033e-06, -1.1536731811397725e-05, -8.286850082851078e-06, -4.286782451568126e-06, 3.1311576428922876e-05, 3.593102711984732e-05, 0.0, 0.0]
effort: [-5.069190000000001, -30.352999999999998, -25.0952, 0.2666057142857143, -1.9699200000000001, -0.064, 0.0, 0.0]
---
header: 
  seq: 76645
  stamp: 
    secs: 1736992372
    nsecs: 483703317
  frame_id: ''
name: 
  - joint_1
  - joint_2
  - joint_3
  - joint_4
  - joint_5
  - joint_6
  - tcp_lin
  - tcp_rot
position: [0.09999998826598144, 0.0999999948697216, 0.10000007685083938, 0.09999993409416154, 0.09999997781473798, 0.10000014044129131, 0.1, 0.1]
velocity: [-1.0611040890406506e-05, -5.56394728026474e-06, 2.0117291862735014e-05, -1.1759168764156598e-05, -9.378389599700053e-06, 1.4752539771329111e-05, 0.0, 0.0]
effort: [-5.069190000000001, -29.397, -25.298399999999997, 0.2666057142857143, -1.9440000000000002, -0.112, 0.0, 0.0]
---
header: 
  seq: 76646
  stamp: 
    secs: 1736992372
    nsecs: 503704857
  frame_id: ''
name: 
  - joint_1
  - joint_2
  - joint_3
  - joint_4
  - joint_5
  - joint_6
  - tcp_lin
  - tcp_rot
position: [0.09999996419922945, 0.10000005368329917, 0.09999985253016318, 0.10000002382611504, 0.09999989704741989, 0.10000013531149625, 0.1, 0.1]
velocity: [1.4328300311313166e-06, 6.99025984998188e-06, -2.5742729835112035e-05, 1.502496500610044e-05, -1.4703195365239751e-05, 2.5912738800832e-05, 0.0, 0.0]
effort: [-5.069190000000001, -29.636, -25.0952, 0.36658285714285715, -2.02176, -0.08, 0.0, 0.0]
---
header: 
  seq: 76647
  stamp: 
    secs: 1736992372
    nsecs: 523702579
  frame_id: ''
name: 
  - joint_1
  - joint_2
  - joint_3
  - joint_4
  - joint_5
  - joint_6
  - tcp_lin
  - tcp_rot
position: [0.1000000238417653, 0.09999996423739083, 0.10000015050768946, 0.10000013560333575, 0.09999997168552392, 0.0999999567886171, 0.1, 0.1]
velocity: [2.7778826230725584e-06, -5.329769407888402e-06, 4.4681738220689874e-05, 2.8690578932505344e-05, -6.413767883861075e-06, 6.038488796091505e-08, 0.0, 0.0]
effort: [-5.069190000000001, -29.397, -24.9936, 0.49988571428571427, -2.02176, -0.112, 0.0, 0.0]
---
header: 
  seq: 76648
  stamp: 
    secs: 1736992372
    nsecs: 543732518
  frame_id: ''
name: 
  - joint_1
  - joint_2
  - joint_3
  - joint_4
  - joint_5
  - joint_6
  - tcp_lin
  - tcp_rot
position: [0.09999996423971337, 0.10000008345283903, 0.10000000151484771, 0.09999988214644998, 0.10000000886581639, 0.1000001357331178, 0.1, 0.1]
velocity: [-3.6283093161926123e-06, 2.053753833763444e-05, 1.3773831987973299e-06, -2.8728354556957727e-05, -3.2388634753225393e-06, 4.615607770233724e-05, 0.0, 0.0]
effort: [-5.069190000000001, -30.352999999999998, -25.298399999999997, 0.46656, -1.89216, -0.128, 0.0, 0.0]
---
header: 
  seq: 76649
  stamp: 
    secs: 1736992372
    nsecs: 563703552
  frame_id: ''
name: 
  - joint_1
  - joint_2
  - joint_3
  - joint_4
  - joint_5
  - joint_6
  - tcp_lin
  - tcp_rot
position: [0.09999996423772109, 0.0999999642399022, 0.10000003873380897, 0.10000005360486273, 0.09999997165464011, 0.0999997778965045, 0.1, 0.1]
velocity: [-2.4266509481587936e-06, -1.2846366787450527e-05, 6.726902462803753e-06, 1.6402896136127513e-05, -2.7877189277197523e-05, -5.331788985859498e-05, 0.0, 0.0]
effort: [-3.9829350000000003, -30.352999999999998, -25.1968, 0.49988571428571427, -1.89216, -0.096, 0.0, 0.0]
---
header: 
  seq: 76650
  stamp: 
    secs: 1736992372
    nsecs: 583703514
  frame_id: ''
name: 
  - joint_1
  - joint_2
  - joint_3
  - joint_4
  - joint_5
  - joint_6
  - tcp_lin
  - tcp_rot
position: [0.10000004619127334, 0.09999996423629952, 0.10000000149042157, 0.09999993442896842, 0.10000008344582983, 0.0999999567803273, 0.1, 0.1]
velocity: [-1.4482021661025507e-06, -6.961909843501706e-06, -7.627092392179348e-06, -2.3315868253551717e-05, 1.6803366011602464e-05, -2.1214501146495027e-05, 0.0, 0.0]
effort: [-3.9829350000000003, -29.397, -24.9936, 0.33325714285714286, -1.9440000000000002, -0.128, 0.0, 0.0]
---
header: 
  seq: 76651
  stamp: 
    secs: 1736992372
    nsecs: 603704638
  frame_id: ''
name: 
  - joint_1
  - joint_2
  - joint_3
  - joint_4
  - joint_5
  - joint_6
  - tcp_lin
  - tcp_rot
position: [0.10000000894251122, 0.09999999403895839, 0.09999992699481447, 0.09999988228201304, 0.09999997171829728, 0.10000001639067194, 0.1, 0.1]
velocity: [-5.181391365493449e-06, -3.0643749006473333e-06, -1.824861129657373e-05, -1.5959064178227634e-05, -2.2824706704538195e-05, -3.1857522220966072e-06, 0.0, 0.0]
effort: [-2.8966800000000004, -29.875, -25.298399999999997, 0.29993142857142857, -1.89216, -0.096, 0.0, 0.0]
---
header: 
  seq: 76652
  stamp: 
    secs: 1736992372
    nsecs: 623702797
  frame_id: ''
name: 
  - joint_1
  - joint_2
  - joint_3
  - joint_4
  - joint_5
  - joint_6
  - tcp_lin
  - tcp_rot
position: [0.09999998659138774, 0.0999999940361152, 0.09999992698992816, 0.10000019518512228, 0.10000004619512504, 0.10000031438466954, 0.1, 0.1]
velocity: [-4.2850898918068486e-06, 4.394563751623519e-06, -3.2757390492725244e-05, 5.198304357819424e-05, 1.1305555951177612e-05, 7.646604810403982e-05, 0.0, 0.0]
effort: [-3.6208500000000003, -29.875, -24.9936, 0.16662857142857143, -1.9180800000000002, -0.16, 0.0, 0.0]
---
header: 
  seq: 76653
  stamp: 
    secs: 1736992372
    nsecs: 642757748
  frame_id: ''
name: 
  - joint_1
  - joint_2
  - joint_3
  - joint_4
  - joint_5
  - joint_6
  - tcp_lin
  - tcp_rot
position: [0.09999992687254605, 0.09999999234094484, 0.10000000368836912, 0.09999999231405146, 0.09999996820939097, 0.10000013616627304, 0.1, 0.1]
velocity: [-1.6559592243691316e-05, -7.68099804579793e-06, 6.0321105020815206e-06, -6.4017917180234485e-06, -1.8969429742041798e-05, 3.177881209866022e-05, 0.0, 0.0]
effort: [-3.6208500000000003, -30.352999999999998, -25.0952, 0.1999542857142857, -1.9699200000000001, -0.064, 0.0, 0.0]
---
header: 
  seq: 76654
  stamp: 
    secs: 1736992372
    nsecs: 663702977
  frame_id: ''
name: 
  - joint_1
  - joint_2
  - joint_3
  - joint_4
  - joint_5
  - joint_6
  - tcp_lin
  - tcp_rot
position: [0.1000000238456305, 0.09999999403962725, 0.09999985246427397, 0.10000016543217864, 0.10000012073267085, 0.10000007600136004, 0.1, 0.1]
velocity: [9.23384963333834e-06, -6.813468387723844e-07, -4.329877569545458e-05, 4.327195603935127e-05, 1.380652009692234e-05, 1.9226027096397197e-05, 0.0, 0.0]
effort: [-4.707105, -31.308999999999997, -24.892, 0.36658285714285715, -2.02176, -0.112, 0.0, 0.0]
---
header: 
  seq: 76655
  stamp: 
    secs: 1736992372
    nsecs: 683702873
  frame_id: ''
name: 
  - joint_1
  - joint_2
  - joint_3
  - joint_4
  - joint_5
  - joint_6
  - tcp_lin
  - tcp_rot
position: [0.10000000892026956, 0.09999996422346667, 0.09999992702225216, 0.09999993461597276, 0.09999989726344838, 0.09999977798647885, 0.1, 0.1]
velocity: [5.766741899652179e-06, -1.1019067726236438e-05, -6.60421547800347e-06, -2.4354289877884508e-05, -8.498841330298908e-06, -4.816739477397943e-05, 0.0, 0.0]
effort: [-3.9829350000000003, -29.397, -24.6888, 0.36658285714285715, -1.89216, -0.14400000000000002, 0.0, 0.0]
---
header: 
  seq: 76656
  stamp: 
    secs: 1736992372
    nsecs: 702734582
  frame_id: ''
name: 
  - joint_1
  - joint_2
  - joint_3
  - joint_4
  - joint_5
  - joint_6
  - tcp_lin
  - tcp_rot
position: [0.10000000892240463, 0.0999999641949665, 0.10000007594731475, 0.099999882172245, 0.1000000835408203, 0.10000013577348395, 0.1, 0.1]
velocity: [-3.6325676630182153e-06, -1.1781018198388158e-05, 1.4804420199522363e-05, -5.3748851902997e-05, 1.2995141780808102e-05, 3.992237401364319e-05, 0.0, 0.0]
effort: [-3.6208500000000003, -30.352999999999998, -25.1968, 0.23328, -1.89216, -0.096, 0.0, 0.0]
---
header: 
  seq: 76657
  stamp: 
    secs: 1736992372
    nsecs: 723703015
  frame_id: ''
name: 
  - joint_1
  - joint_2
  - joint_3
  - joint_4
  - joint_5
  - joint_6
  - tcp_lin
  - tcp_rot
position: [0.0999999642314219, 0.10000011323641449, 0.0999998897757025, 0.09999990456690373, 0.0999999344203244, 0.10000001633230514, 0.1, 0.1]
velocity: [-1.12167153925018e-05, 2.3871146582088653e-05, -1.065937468671283e-05, -2.272755337372073e-05, -9.25299887324992e-06, -5.794626901972742e-06, 0.0, 0.0]
effort: [-4.345020000000001, -29.397, -24.790399999999998, 0.4332342857142857, -2.04768, -0.128, 0.0, 0.0]
---
header: 
  seq: 76658
  stamp: 
    secs: 1736992372
    nsecs: 743703631
  frame_id: ''
name: 
  - joint_1
  - joint_2
  - joint_3
  - joint_4
  - joint_5
  - joint_6
  - tcp_lin
  - tcp_rot
position: [0.09999994934355275, 0.10000005366361032, 0.10000015051286225, 0.09999988227243675, 0.10000000896492384, 0.10000013559150947, 0.1, 0.1]
velocity: [-5.630124917658661e-06, 1.691189679854518e-05, 3.2949412722632626e-05, -2.0840048945097687e-05, 2.135866422916719e-05, 3.3761182594677135e-05, 0.0, 0.0]
effort: [-4.707105, -29.875, -24.9936, 0.4332342857142857, -1.9440000000000002, -0.064, 0.0, 0.0]
---
header: 
  seq: 76659
  stamp: 
    secs: 1736992372
    nsecs: 763702453
  frame_id: ''
name: 
  - joint_1
  - joint_2
  - joint_3
  - joint_4
  - joint_5
  - joint_6
  - tcp_lin
  - tcp_rot
position: [0.10000000893803125, 0.09999996423817602, 0.09999988974192636, 0.10000008347397767, 0.09999982267513219, 0.09999977791337203, 0.1, 0.1]
velocity: [-9.220021315173229e-07, -5.05011133102314e-06, -1.7889443311815003e-05, 3.472073909920349e-05, -3.171558809209411e-05, -4.654326513329831e-05, 0.0, 0.0]
effort: [-4.345020000000001, -29.875, -25.1968, 0.33325714285714286, -1.9699200000000001, -0.08, 0.0, 0.0]
---
header: 
  seq: 76660
  stamp: 
    secs: 1736992372
    nsecs: 783703015
  frame_id: ''
name: 
  - joint_1
  - joint_2
  - joint_3
  - joint_4
  - joint_5
  - joint_6
  - tcp_lin
  - tcp_rot
position: [0.09999994933840325, 0.1000000536436548, 0.10000000148739105, 0.09999996424231167, 0.09999993442221941, 0.10000013561106749, 0.1, 0.1]
velocity: [-8.581151339391551e-06, 6.909001448277375e-06, -1.4006156470553065e-06, -7.462044491976185e-06, -1.9541702260704573e-05, 4.066709161966894e-05, 0.0, 0.0]
effort: [-4.707105, -29.636, -25.1968, 0.33325714285714286, -1.7625600000000001, -0.08, 0.0, 0.0]
---
header: 
  seq: 76661
  stamp: 
    secs: 1736992372
    nsecs: 803706410
  frame_id: ''
name: 
  - joint_1
  - joint_2
  - joint_3
  - joint_4
  - joint_5
  - joint_6
  - tcp_lin
  - tcp_rot
position: [0.09999998556027984, 0.09999999414834382, 0.10000000358823473, 0.09999993954377832, 0.10000001799315196, 0.09999978300133264, 0.1, 0.1]
velocity: [-3.9190396782132306e-07, 3.3950180259450424e-06, 7.433749271496052e-08, -1.689614798746337e-05, -9.033878052369047e-06, -5.353814226040479e-05, 0.0, 0.0]
effort: [-4.345020000000001, -29.636, -25.0952, 0.46656, -2.0736000000000003, -0.096, 0.0, 0.0]
---
header: 
  seq: 76662
  stamp: 
    secs: 1736992372
    nsecs: 823704144
  frame_id: ''
name: 
  - joint_1
  - joint_2
  - joint_3
  - joint_4
  - joint_5
  - joint_6
  - tcp_lin
  - tcp_rot
position: [0.09999998658222696, 0.09999996423811233, 0.09999992695911265, 0.10000005367803304, 0.09999982269158317, 0.10000007601769974, 0.1, 0.1]
velocity: [-6.487033207318763e-06, -4.110847368752263e-06, -3.3785567673432745e-05, 1.6564287979454688e-05, -3.316515756308229e-05, 1.9624391071896773e-05, 0.0, 0.0]
effort: [-5.431275, -29.397, -24.485599999999998, 0.3999085714285714, -1.8144000000000002, -0.08, 0.0, 0.0]
---
header: 
  seq: 76663
  stamp: 
    secs: 1736992372
    nsecs: 843702469
  frame_id: ''
name: 
  - joint_1
  - joint_2
  - joint_3
  - joint_4
  - joint_5
  - joint_6
  - tcp_lin
  - tcp_rot
position: [0.10000004620795645, 0.10000005366051566, 0.09999988969802927, 0.09999996424470152, 0.10000019524301622, 0.10000013561881092, 0.1, 0.1]
velocity: [1.6303250222150305e-05, 1.4714516786359987e-05, -3.361563190298171e-05, -4.425040133907783e-06, 5.0615487101359454e-05, 3.578187740477809e-05, 0.0, 0.0]
effort: [-4.707105, -29.636, -25.0952, -0.09997714285714285, -1.9440000000000002, -0.096, 0.0, 0.0]
---
header: 
  seq: 76664
  stamp: 
    secs: 1736992372
    nsecs: 863739702
  frame_id: ''
name: 
  - joint_1
  - joint_2
  - joint_3
  - joint_4
  - joint_5
  - joint_6
  - tcp_lin
  - tcp_rot
position: [0.10000000889232485, 0.09999999404576242, 0.10000000132137549, 0.10000005347159929, 0.09999997192386714, 0.10000001624921705, 0.1, 0.1]
velocity: [1.2294571754611281e-06, -4.9538654961952795e-06, -1.4716601981242316e-05, -4.332979409159045e-06, -1.5220747426797408e-06, -6.2567825730395016e-06, 0.0, 0.0]
effort: [-5.431275, -29.397, -24.9936, 0.29993142857142857, -1.9440000000000002, -0.112, 0.0, 0.0]
---
header: 
  seq: 76665
  stamp: 
    secs: 1736992372
    nsecs: 883703598
  frame_id: ''
name: 
  - joint_1
  - joint_2
  - joint_3
  - joint_4
  - joint_5
  - joint_6
  - tcp_lin
  - tcp_rot
position: [0.09999998658606545, 0.09999999404201158, 0.10000000149266704, 0.10000005365937864, 0.10000004619898113, 0.1000000760089734, 0.1, 0.1]
velocity: [-2.306601779623706e-06, -1.5079223605203122e-07, 6.395161337990015e-06, 1.7370672992008223e-05, 9.399705005502436e-06, 2.0983170816648273e-05, 0.0, 0.0]
effort: [-5.431275, -29.875, -25.0952, 0.46656, -1.9440000000000002, -0.128, 0.0, 0.0]
---
header: 
  seq: 76666
  stamp: 
    secs: 1736992372
    nsecs: 903703183
  frame_id: ''
name: 
  - joint_1
  - joint_2
  - joint_3
  - joint_4
  - joint_5
  - joint_6
  - tcp_lin
  - tcp_rot
position: [0.09999996420501463, 0.10000005361787918, 0.10000003871961262, 0.10000008341572633, 0.10000000900195175, 0.09999983771278965, 0.1, 0.1]
velocity: [-1.986482226796422e-07, 1.0766045374840277e-05, -6.17980319689645e-06, 3.217054013055573e-05, 1.9197212799409657e-06, -4.665326089882209e-05, 0.0, 0.0]
effort: [-3.6208500000000003, -30.352999999999998, -25.298399999999997, 0.36658285714285715, -2.02176, -0.128, 0.0, 0.0]
---
header: 
  seq: 76667
  stamp: 
    secs: 1736992372
    nsecs: 923702634
  frame_id: ''
name: 
  - joint_1
  - joint_2
  - joint_3
  - joint_4
  - joint_5
  - joint_6
  - tcp_lin
  - tcp_rot
position: [0.09999998658876237, 0.09999996423725153, 0.0999998524791629, 0.10000005364465585, 0.10000000894182491, 0.10000019520756505, 0.1, 0.1]
velocity: [-8.37031018413603e-06, -5.755739559401244e-06, -2.428275066999682e-05, 1.8073500649647578e-05, 1.7030588127105398e-05, 6.427690217016767e-05, 0.0, 0.0]
effort: [-5.069190000000001, -30.113999999999997, -25.1968, 0.36658285714285715, -2.04768, -0.128, 0.0, 0.0]
---
header: 
  seq: 76668
  stamp: 
    secs: 1736992372
    nsecs: 943703027
  frame_id: ''
name: 
  - joint_1
  - joint_2
  - joint_3
  - joint_4
  - joint_5
  - joint_6
  - tcp_lin
  - tcp_rot
position: [0.10000000894027304, 0.09999996424164213, 0.10000000148931124, 0.10000010580223267, 0.10000012071841424, 0.10000007598962804, 0.1, 0.1]
velocity: [-2.2036296241951245e-06, -6.74183583342687e-06, -4.194743399193344e-06, 2.0784954066807222e-05, 2.4472410725859755e-05, 2.675851683981494e-05, 0.0, 0.0]
effort: [-4.707105, -30.113999999999997, -25.4, 0.3999085714285714, -1.99584, -0.128, 0.0, 0.0]
---
header: 
  seq: 76669
  stamp: 
    secs: 1736992372
    nsecs: 963704394
  frame_id: ''
name: 
  - joint_1
  - joint_2
  - joint_3
  - joint_4
  - joint_5
  - joint_6
  - tcp_lin
  - tcp_rot
position: [0.09999994923975061, 0.09999999491414571, 0.10000000116097207, 0.10000008093310495, 0.09999996875820098, 0.09999995746180416, 0.1, 0.1]
velocity: [-5.800453850565354e-06, -5.211102286123803e-06, 1.6155375445717064e-05, 2.2304336787891712e-05, 3.351643895908376e-06, -1.7071576315734156e-05, 0.0, 0.0]
effort: [-4.345020000000001, -29.875, -25.0952, 0.23328, -1.99584, -0.096, 0.0, 0.0]
---
header: 
  seq: 76670
  stamp: 
    secs: 1736992372
    nsecs: 983702535
  frame_id: ''
name: 
  - joint_1
  - joint_2
  - joint_3
  - joint_4
  - joint_5
  - joint_6
  - tcp_lin
  - tcp_rot
position: [0.09999998658893341, 0.09999999404048696, 0.10000007599723527, 0.10000005364143755, 0.09999989718591486, 0.09999983758196243, 0.1, 0.1]
velocity: [-1.2412344890193273e-06, -4.720193509835453e-06, 1.2487822510727168e-06, 1.3137469935345784e-05, -3.420829074474589e-05, -3.152993083086812e-05, 0.0, 0.0]
effort: [-4.345020000000001, -29.875, -24.892, 0.33325714285714286, -1.89216, -0.112, 0.0, 0.0]
---
header: 
  seq: 76671
  stamp: 
    secs: 1736992373
    nsecs:   3704637
  frame_id: ''
name: 
  - joint_1
  - joint_2
  - joint_3
  - joint_4
  - joint_5
  - joint_6
  - tcp_lin
  - tcp_rot
position: [0.09999998657301783, 0.09999999403765651, 0.09999996424849149, 0.09999993442002847, 0.10000000886383462, 0.10000019506002357, 0.1, 0.1]
velocity: [-5.794396820041459e-07, -4.466228933105655e-06, -1.0430829653696536e-05, -5.388197815245102e-06, 3.945332171032525e-06, 7.264528715612854e-05, 0.0, 0.0]
effort: [-4.345020000000001, -29.875, -25.298399999999997, 0.36658285714285715, -2.04768, -0.112, 0.0, 0.0]
---
header: 
  seq: 76672
  stamp: 
    secs: 1736992373
    nsecs:  23802983
  frame_id: ''
name: 
  - joint_1
  - joint_2
  - joint_3
  - joint_4
  - joint_5
  - joint_6
  - tcp_lin
  - tcp_rot
position: [0.09999998659054123, 0.10000002382632195, 0.10000000150995889, 0.09999988221212612, 0.09999989722584618, 0.10000019533184067, 0.1, 0.1]
velocity: [-3.059453896538441e-06, 2.3134977843155202e-07, -1.0963118721712945e-06, -3.858395322944255e-05, -1.0226606573642599e-05, 5.333338978713215e-05, 0.0, 0.0]
effort: [-4.707105, -30.592, -25.4, 0.33325714285714286, -1.9180800000000002, -0.096, 0.0, 0.0]
---
header: 
  seq: 76673
  stamp: 
    secs: 1736992373
    nsecs:  43702434
  frame_id: ''
name: 
  - joint_1
  - joint_2
  - joint_3
  - joint_4
  - joint_5
  - joint_6
  - tcp_lin
  - tcp_rot
position: [0.10000000894062455, 0.10000002383750324, 0.10000007599284816, 0.10000013560216407, 0.10000019518199388, 0.10000001639901597, 0.1, 0.1]
velocity: [-9.80289857554855e-07, 2.574159017565777e-07, 3.2541233621956455e-05, 2.1758564073673476e-05, 5.593224026177928e-05, -1.3672948173770754e-05, 0.0, 0.0]
effort: [-3.9829350000000003, -30.352999999999998, -24.9936, 0.29993142857142857, -1.9699200000000001, -0.128, 0.0, 0.0]
---
header: 
  seq: 76674
  stamp: 
    secs: 1736992373
    nsecs:  63703158
  frame_id: ''
name: 
  - joint_1
  - joint_2
  - joint_3
  - joint_4
  - joint_5
  - joint_6
  - tcp_lin
  - tcp_rot
position: [0.10000000894068091, 0.0999999642310672, 0.09999996423399272, 0.09999993442976024, 0.09999978543655641, 0.10000001638297777, 0.1, 0.1]
velocity: [1.2351960527135816e-07, -1.159120245123245e-05, -1.2089087533984536e-05, -1.95277141387188e-05, -3.6643373189121934e-05, 5.216470367112771e-06, 0.0, 0.0]
effort: [-4.707105, -29.636, -24.892, 0.2666057142857143, -1.99584, -0.096, 0.0, 0.0]
---
header: 
  seq: 76675
  stamp: 
    secs: 1736992373
    nsecs:  83702579
  frame_id: ''
name: 
  - joint_1
  - joint_2
  - joint_3
  - joint_4
  - joint_5
  - joint_6
  - tcp_lin
  - tcp_rot
position: [0.10000004619311299, 0.0999999940359143, 0.10000003874697433, 0.1000001058054885, 0.10000012069102503, 0.10000019524383473, 0.1, 0.1]
velocity: [3.884419062998378e-06, -9.061445387095935e-07, 5.697190574650874e-06, 2.4162200415095225e-05, 2.9624341773201445e-05, 4.946680832926179e-05, 0.0, 0.0]
effort: [-5.069190000000001, -30.352999999999998, -25.0952, 0.4332342857142857, -1.9440000000000002, -0.128, 0.0, 0.0]
---
header: 
  seq: 76676
  stamp: 
    secs: 1736992373
    nsecs: 103702727
  frame_id: ''
name: 
  - joint_1
  - joint_2
  - joint_3
  - joint_4
  - joint_5
  - joint_6
  - tcp_lin
  - tcp_rot
position: [0.10000008343511047, 0.09999993444366258, 0.0999998153298589, 0.10000002380487033, 0.09999997170208605, 0.10000019519623554, 0.1, 0.1]
velocity: [1.2912970738908271e-05, -1.106219461553388e-05, -3.7987176056665964e-05, 1.0391368707549148e-05, -6.7063946220156846e-06, 4.019315808014864e-05, 0.0, 0.0]
effort: [-4.707105, -29.636, -24.5872, 0.4332342857142857, -1.9440000000000002, -0.08, 0.0, 0.0]
---
header: 
  seq: 76677
  stamp: 
    secs: 1736992373
    nsecs: 122871024
  frame_id: ''
name: 
  - joint_1
  - joint_2
  - joint_3
  - joint_4
  - joint_5
  - joint_6
  - tcp_lin
  - tcp_rot
position: [0.0999999642075726, 0.09999996421992602, 0.1000000387878571, 0.09999993437021358, 0.09999978522511108, 0.09999989708297133, 0.1, 0.1]
velocity: [-1.3579793819905412e-05, -3.0571236789703106e-06, 5.114092676809903e-06, -1.9403453948915408e-05, -6.516287347318302e-05, -2.5222334236787807e-05, 0.0, 0.0]
effort: [-5.431275, -29.636, -25.4, 0.2666057142857143, -2.02176, -0.112, 0.0, 0.0]
---
header: 
  seq: 76678
  stamp: 
    secs: 1736992373
    nsecs: 143702841
  frame_id: ''
name: 
  - joint_1
  - joint_2
  - joint_3
  - joint_4
  - joint_5
  - joint_6
  - tcp_lin
  - tcp_rot
position: [0.09999994933513424, 0.1000000238456979, 0.10000003874411278, 0.10000005364063468, 0.10000004619473145, 0.10000007600609596, 0.1, 0.1]
velocity: [-1.8650609836869933e-05, 1.1570985706924306e-05, 1.5083389425658344e-05, -1.0086904520029563e-05, 1.4311697884847684e-05, 3.219531275584405e-05, 0.0, 0.0]
effort: [-5.069190000000001, -29.875, -25.298399999999997, 0.46656, -1.99584, -0.08, 0.0, 0.0]
---
header: 
  seq: 76679
  stamp: 
    secs: 1736992373
    nsecs: 163704455
  frame_id: ''
name: 
  - joint_1
  - joint_2
  - joint_3
  - joint_4
  - joint_5
  - joint_6
  - tcp_lin
  - tcp_rot
position: [0.10000002384269958, 0.10000002384110564, 0.0999998897339746, 0.09999993443466235, 0.09999993443907862, 0.10000001638773538, 0.1, 0.1]
velocity: [5.090538313571509e-06, 5.268429523109333e-06, -2.8030315809261084e-05, -7.449258720629055e-06, -1.2442026626299412e-05, 3.717942665162724e-06, 0.0, 0.0]
effort: [-3.6208500000000003, -29.875, -25.1968, 0.1999542857142857, -2.02176, -0.128, 0.0, 0.0]
---
header: 
  seq: 76680
  stamp: 
    secs: 1736992373
    nsecs: 183751852
  frame_id: ''
name: 
  - joint_1
  - joint_2
  - joint_3
  - joint_4
  - joint_5
  - joint_6
  - tcp_lin
  - tcp_rot
position: [0.10000006856117045, 0.09999999388103846, 0.1000000015152892, 0.10000002378408, 0.10000008372524538, 0.09999995680570999, 0.1, 0.1]
velocity: [1.3925350328100788e-05, -5.188427384440763e-06, -1.3333135773955212e-05, 8.520637192487677e-07, 3.806111541180117e-05, -1.0103129280029083e-05, 0.0, 0.0]
effort: [-5.431275, -29.397, -24.892, 0.33325714285714286, -2.04768, -0.096, 0.0, 0.0]
---
header: 
  seq: 76681
  stamp: 
    secs: 1736992373
    nsecs: 203704950
  frame_id: ''
name: 
  - joint_1
  - joint_2
  - joint_3
  - joint_4
  - joint_5
  - joint_6
  - tcp_lin
  - tcp_rot
position: [0.10000000895011246, 0.10000005361411946, 0.10000003860127848, 0.09999990468694128, 0.10000008343799319, 0.10000001638305597, 0.1, 0.1]
velocity: [-1.019192420188469e-06, 1.5336237813733838e-05, 1.4744298434361492e-05, -9.280604222193328e-06, 2.458384758990678e-05, -1.2012860224579885e-05, 0.0, 0.0]
effort: [-3.9829350000000003, -30.113999999999997, -25.5016, 0.2666057142857143, -1.9699200000000001, -0.128, 0.0, 0.0]
---
header: 
  seq: 76682
  stamp: 
    secs: 1736992373
    nsecs: 223703278
  frame_id: ''
name: 
  - joint_1
  - joint_2
  - joint_3
  - joint_4
  - joint_5
  - joint_6
  - tcp_lin
  - tcp_rot
position: [0.09999998658878666, 0.10000008344739088, 0.10000007599576312, 0.09999993443503978, 0.10000008344726502, 0.10000013560129847, 0.1, 0.1]
velocity: [-4.322442983772293e-06, 2.4046995187235534e-05, 1.7026676546563708e-05, -1.5959011480132523e-05, 3.007850694018019e-05, 4.081533120425862e-05, 0.0, 0.0]
effort: [-4.345020000000001, -29.875, -24.892, 0.2666057142857143, -1.9440000000000002, -0.08, 0.0, 0.0]
---
header: 
  seq: 76683
  stamp: 
    secs: 1736992373
    nsecs: 243702918
  frame_id: ''
name: 
  - joint_1
  - joint_2
  - joint_3
  - joint_4
  - joint_5
  - joint_6
  - tcp_lin
  - tcp_rot
position: [0.0999999269831125, 0.0999999940403791, 0.09999996422830458, 0.09999988228086572, 0.09999993443271751, 0.09999983756679755, 0.1, 0.1]
velocity: [-2.2751736394182885e-05, -1.0188489187179164e-05, -4.013986247002994e-06, -2.2822573412035125e-05, -1.0964643287080033e-05, -5.1251889175361786e-05, 0.0, 0.0]
effort: [-4.707105, -28.919, -25.0952, 0.46656, -2.02176, -0.112, 0.0, 0.0]
---
header: 
  seq: 76684
  stamp: 
    secs: 1736992373
    nsecs: 263704909
  frame_id: ''
name: 
  - joint_1
  - joint_2
  - joint_3
  - joint_4
  - joint_5
  - joint_6
  - tcp_lin
  - tcp_rot
position: [0.10000000894085316, 0.10000002384093981, 0.10000000148992409, 0.10000005364589135, 0.0999998599332653, 0.10000019520205837, 0.1, 0.1]
velocity: [3.907346239255427e-06, 6.84673393098354e-06, -4.794089836928985e-06, 1.2966034465940519e-05, -4.4487841275010487e-05, 4.0366875899181615e-05, 0.0, 0.0]
effort: [-3.9829350000000003, -30.113999999999997, -24.6888, 0.29993142857142857, -1.9440000000000002, -0.08, 0.0, 0.0]
---
header: 
  seq: 76685
  stamp: 
    secs: 1736992373
    nsecs: 283702820
  frame_id: ''
name: 
  - joint_1
  - joint_2
  - joint_3
  - joint_4
  - joint_5
  - joint_6
  - tcp_lin
  - tcp_rot
position: [0.09999998711057743, 0.10000008277048919, 0.09999996467789939, 0.10000002504033106, 0.10000004803864797, 0.10000001798827195, 0.1, 0.1]
velocity: [-3.4548918032027955e-06, 1.5943527461589227e-05, -8.773159850712955e-06, -4.297402171989778e-06, 8.100848341583451e-06, -1.5773859330832068e-05, 0.0, 0.0]
effort: [-6.879615000000001, -29.875, -25.1968, 0.23328, -2.02176, -0.096, 0.0, 0.0]
---
header: 
  seq: 76686
  stamp: 
    secs: 1736992373
    nsecs: 303703739
  frame_id: ''
name: 
  - joint_1
  - joint_2
  - joint_3
  - joint_4
  - joint_5
  - joint_6
  - tcp_lin
  - tcp_rot
position: [0.10000000894377961, 0.09999996426725842, 0.0999999642709232, 0.10000019516080039, 0.10000026962974848, 0.10000007596734063, 0.1, 0.1]
velocity: [-3.931555754035741e-06, -1.2418515957692673e-05, -2.9118919656917712e-05, 4.3331601451819185e-05, 8.359239536450168e-05, 1.7684808128381137e-05, 0.0, 0.0]
effort: [-4.345020000000001, -29.875, -24.5872, 0.23328, -1.9440000000000002, -0.112, 0.0, 0.0]
---
header: 
  seq: 76687
  stamp: 
    secs: 1736992373
    nsecs: 323703106
  frame_id: ''
name: 
  - joint_1
  - joint_2
  - joint_3
  - joint_4
  - joint_5
  - joint_6
  - tcp_lin
  - tcp_rot
position: [0.09999994933557396, 0.10000002384139663, 0.09999996424217242, 0.10000005364815176, 0.10000000895068797, 0.10000007601050541, 0.1, 0.1]
velocity: [-8.130966256771754e-06, 6.519003076194729e-06, 4.3265825646582285e-06, 3.421907058598296e-06, 7.653746911747393e-06, 3.208843021070951e-05, 0.0, 0.0]
effort: [-5.431275, -30.352999999999998, -25.603199999999998, 0.2666057142857143, -1.9440000000000002, -0.096, 0.0, 0.0]
---
header: 
  seq: 76688
  stamp: 
    secs: 1736992373
    nsecs: 343733473
  frame_id: ''
name: 
  - joint_1
  - joint_2
  - joint_3
  - joint_4
  - joint_5
  - joint_6
  - tcp_lin
  - tcp_rot
position: [0.0999999493327353, 0.09999993426312884, 0.10000003868807761, 0.09999996406168478, 0.10000004627602739, 0.10000001625239643, 0.1, 0.1]
velocity: [-1.2393483233542416e-05, -2.041916479509174e-05, 3.8736047020037566e-06, -1.0152024013418817e-05, 1.2772427276795316e-05, -1.5221359353021168e-05, 0.0, 0.0]
effort: [-4.345020000000001, -29.636, -24.790399999999998, 0.36658285714285715, -1.89216, -0.128, 0.0, 0.0]
---
header: 
  seq: 76689
  stamp: 
    secs: 1736992373
    nsecs: 363703925
  frame_id: ''
name: 
  - joint_1
  - joint_2
  - joint_3
  - joint_4
  - joint_5
  - joint_6
  - tcp_lin
  - tcp_rot
position: [0.0999999642387239, 0.09999996423806178, 0.10000000148988618, 0.099999934431975, 0.09999985993461254, 0.09999989718062692, 0.1, 0.1]
velocity: [-1.036745384705382e-05, -1.0510075135535796e-05, -5.2170453836154204e-06, -1.4098671145897995e-05, -2.3383538071356398e-05, -3.091280785022086e-05, 0.0, 0.0]
effort: [-3.9829350000000003, -29.875, -25.1968, 0.4332342857142857, -1.9440000000000002, -0.112, 0.0, 0.0]
---
header: 
  seq: 76690
  stamp: 
    secs: 1736992373
    nsecs: 383702701
  frame_id: ''
name: 
  - joint_1
  - joint_2
  - joint_3
  - joint_4
  - joint_5
  - joint_6
  - tcp_lin
  - tcp_rot
position: [0.0999999046555641, 0.0999999642745887, 0.09999992694775851, 0.1000001355770831, 0.10000012065625888, 0.10000013555945196, 0.1, 0.1]
velocity: [-2.7308990805944885e-05, -2.3846954834321546e-05, -1.0569624572914038e-05, 3.3146072143048606e-05, 4.1804725357601845e-05, 4.110542004006294e-05, 0.0, 0.0]
effort: [-4.345020000000001, -28.919, -25.5016, 0.29993142857142857, -2.04768, -0.096, 0.0, 0.0]
---
header: 
  seq: 76691
  stamp: 
    secs: 1736992373
    nsecs: 403703396
  frame_id: ''
name: 
  - joint_1
  - joint_2
  - joint_3
  - joint_4
  - joint_5
  - joint_6
  - tcp_lin
  - tcp_rot
position: [0.10000006854357296, 0.09999996423850778, 0.09999992697862282, 0.09999996423498114, 0.09999997170629858, 0.10000013560445929, 0.1, 0.1]
velocity: [1.5061180095118711e-05, -1.1020709927109063e-05, -2.6023523954020854e-05, -1.0780353263025503e-05, -8.663943303559852e-06, 2.6425325440473884e-05, 0.0, 0.0]
effort: [-5.793360000000001, -29.636, -25.1968, 0.09997714285714285, -1.9440000000000002, -0.096, 0.0, 0.0]
---
header: 
  seq: 76692
  stamp: 
    secs: 1736992373
    nsecs: 423703060
  frame_id: ''
name: 
  - joint_1
  - joint_2
  - joint_3
  - joint_4
  - joint_5
  - joint_6
  - tcp_lin
  - tcp_rot
position: [0.09999994933382177, 0.09999996424033346, 0.09999996425307849, 0.10000019518137188, 0.0999998599852604, 0.09999983764033181, 0.1, 0.1]
velocity: [-8.751102647654277e-06, -1.7525099515752842e-05, -1.2211714476717202e-05, 4.792135528992846e-05, -4.021824980595016e-05, -5.073507177393006e-05, 0.0, 0.0]
effort: [-4.345020000000001, -29.636, -24.9936, 0.4332342857142857, -1.99584, -0.08, 0.0, 0.0]
---
header: 
  seq: 76693
  stamp: 
    secs: 1736992373
    nsecs: 443705584
  frame_id: ''
name: 
  - joint_1
  - joint_2
  - joint_3
  - joint_4
  - joint_5
  - joint_6
  - tcp_lin
  - tcp_rot
position: [0.1000000458711966, 0.10000002466323003, 0.09999996641796743, 0.10000005225640012, 0.10000000876230077, 0.10000013530451131, 0.1, 0.1]
velocity: [1.2782523183344924e-05, 2.2390666820232285e-06, -2.092777686226571e-05, 1.3646932497677231e-05, -1.2057386913905473e-05, 3.5214395159436184e-05, 0.0, 0.0]
effort: [-3.9829350000000003, -30.113999999999997, -25.1968, 0.2666057142857143, -2.02176, -0.08, 0.0, 0.0]
---
header: 
  seq: 76694
  stamp: 
    secs: 1736992373
    nsecs: 463704270
  frame_id: ''
name: 
  - joint_1
  - joint_2
  - joint_3
  - joint_4
  - joint_5
  - joint_6
  - tcp_lin
  - tcp_rot
position: [0.1000000238439551, 0.09999999403844693, 0.09999962895682946, 0.09999999403737582, 0.09999978541622241, 0.10000007600535872, 0.1, 0.1]
velocity: [1.1938801913823241e-05, -5.0614721256765e-06, -8.946846769832009e-05, -1.0520062218245834e-05, -6.311484453896824e-05, 2.3987335047840308e-05, 0.0, 0.0]
effort: [-3.9829350000000003, -28.919, -24.5872, 0.36658285714285715, -1.99584, -0.08, 0.0, 0.0]
---
header: 
  seq: 76695
  stamp: 
    secs: 1736992373
    nsecs: 483704564
  frame_id: ''
name: 
  - joint_1
  - joint_2
  - joint_3
  - joint_4
  - joint_5
  - joint_6
  - tcp_lin
  - tcp_rot
position: [0.10000000893987984, 0.0999999940430761, 0.10000003874330128, 0.10000005364646398, 0.10000038146079647, 0.09999977798835656, 0.1, 0.1]
velocity: [3.7864939901422563e-06, -8.93038701726683e-06, 6.408656052687399e-06, -2.471803197109751e-07, 9.508584268855944e-05, -6.132972193842137e-05, 0.0, 0.0]
effort: [-5.069190000000001, -29.875, -25.0952, 0.49988571428571427, -2.12544, -0.096, 0.0, 0.0]
---
header: 
  seq: 76696
  stamp: 
    secs: 1736992373
    nsecs: 503759720
  frame_id: ''
name: 
  - joint_1
  - joint_2
  - joint_3
  - joint_4
  - joint_5
  - joint_6
  - tcp_lin
  - tcp_rot
position: [0.09999994936540905, 0.09999996423163036, 0.10000000143512149, 0.10000008339938367, 0.09999997168105812, 0.10000007603850505, 0.1, 0.1]
velocity: [-1.3687003102408473e-05, -8.686984707343028e-06, 2.563094037359251e-05, 1.5675954916477985e-05, -1.0654587615676507e-05, 6.6006655588710615e-06, 0.0, 0.0]
effort: [-3.9829350000000003, -29.397, -25.0952, 0.1999542857142857, -2.04768, -0.08, 0.0, 0.0]
---
header: 
  seq: 76697
  stamp: 
    secs: 1736992373
    nsecs: 523702604
  frame_id: ''
name: 
  - joint_1
  - joint_2
  - joint_3
  - joint_4
  - joint_5
  - joint_6
  - tcp_lin
  - tcp_rot
position: [0.10000002385474499, 0.09999993443732963, 0.10000000148248804, 0.09999999405073598, 0.09999993445684854, 0.10000013558117142, 0.1, 0.1]
velocity: [-2.4123393970597796e-06, -1.894913385408647e-05, 3.3953637428808953e-06, -9.900017930820128e-06, -1.4335402907350669e-05, 3.310349427330503e-05, 0.0, 0.0]
effort: [-4.707105, -30.113999999999997, -24.790399999999998, 0.36658285714285715, -1.9699200000000001, -0.128, 0.0, 0.0]
---
header: 
  seq: 76698
  stamp: 
    secs: 1736992373
    nsecs: 543702576
  frame_id: ''
name: 
  - joint_1
  - joint_2
  - joint_3
  - joint_4
  - joint_5
  - joint_6
  - tcp_lin
  - tcp_rot
position: [0.10000002384869602, 0.09999999403989528, 0.09999981522166128, 0.10000008344450638, 0.1000001579305855, 0.10000007599409029, 0.1, 0.1]
velocity: [1.5009977676076398e-05, -2.3399410106891915e-06, -4.8799697595962595e-05, 1.3012540170008407e-05, 2.9873220698926735e-05, 1.1933601895448656e-05, 0.0, 0.0]
effort: [-4.707105, -29.636, -25.1968, 0.29993142857142857, -2.02176, -0.112, 0.0, 0.0]
---
header: 
  seq: 76699
  stamp: 
    secs: 1736992373
    nsecs: 563702959
  frame_id: ''
name: 
  - joint_1
  - joint_2
  - joint_3
  - joint_4
  - joint_5
  - joint_6
  - tcp_lin
  - tcp_rot
position: [0.10000000894477627, 0.10000008345787229, 0.09999985247675935, 0.10000005365323571, 0.1000000089196829, 0.09999995676632674, 0.1, 0.1]
velocity: [1.1447356868431332e-05, 2.652426119051385e-05, -2.3010007849128565e-05, 1.5595310673851183e-05, -1.5021990931756102e-05, -1.3384950182468215e-05, 0.0, 0.0]
effort: [-3.9829350000000003, -29.636, -25.1968, 0.23328, -1.9440000000000002, -0.08, 0.0, 0.0]
---
header: 
  seq: 76700
  stamp: 
    secs: 1736992373
    nsecs: 583702565
  frame_id: ''
name: 
  - joint_1
  - joint_2
  - joint_3
  - joint_4
  - joint_5
  - joint_6
  - tcp_lin
  - tcp_rot
position: [0.100000128146478, 0.09999999404049144, 0.10000007595985677, 0.10000005361801975, 0.10000030688405954, 0.09999983771053515, 0.1, 0.1]
velocity: [3.5175310996810574e-05, 2.553642182408239e-06, 1.4807924682556628e-05, 1.9091792449999403e-05, 8.326104884651863e-05, -5.93719937785235e-05, 0.0, 0.0]
effort: [-5.431275, -29.875, -25.0952, 0.46656, -1.9440000000000002, -0.096, 0.0, 0.0]
---
header: 
  seq: 76701
  stamp: 
    secs: 1736992373
    nsecs: 602769561
  frame_id: ''
name: 
  - joint_1
  - joint_2
  - joint_3
  - joint_4
  - joint_5
  - joint_6
  - tcp_lin
  - tcp_rot
position: [0.09999994939217408, 0.10000008264800374, 0.10000000189295098, 0.09999996483511346, 0.09999989777854619, 0.09999989976163948, 0.1, 0.1]
velocity: [-9.255535919945727e-06, 2.196176777808638e-05, -2.5351333842088466e-06, -9.9469981016677e-06, -2.1758503891763504e-05, -2.7010502868050227e-05, 0.0, 0.0]
effort: [-3.2587650000000004, -29.875, -25.0952, 0.3999085714285714, -1.8403200000000002, -0.112, 0.0, 0.0]
---
header: 
  seq: 76702
  stamp: 
    secs: 1736992373
    nsecs: 623702936
  frame_id: ''
name: 
  - joint_1
  - joint_2
  - joint_3
  - joint_4
  - joint_5
  - joint_6
  - tcp_lin
  - tcp_rot
position: [0.10000000894925114, 0.09999996423444939, 0.10000007599440165, 0.10000010579433573, 0.10000008347752369, 0.10000025486710237, 0.1, 0.1]
velocity: [8.282356085247446e-06, -1.3210690412031288e-05, 9.110042962986666e-06, 2.3444021036102698e-05, 3.7391657721496226e-05, 7.379969845409128e-05, 0.0, 0.0]
effort: [-4.707105, -30.592, -25.5016, 0.29993142857142857, -1.9180800000000002, -0.096, 0.0, 0.0]
---
header: 
  seq: 76703
  stamp: 
    secs: 1736992373
    nsecs: 643702747
  frame_id: ''
name: 
  - joint_1
  - joint_2
  - joint_3
  - joint_4
  - joint_5
  - joint_6
  - tcp_lin
  - tcp_rot
position: [0.10000002384904647, 0.0999999642350724, 0.10000003874490375, 0.10000002384072945, 0.09999985994353681, 0.0999999567716609, 0.1, 0.1]
velocity: [1.0145685229359293e-05, -1.5068696277199116e-05, 2.4279859610298462e-05, 7.758065059185177e-06, -2.490436052792722e-05, -1.6209686558840893e-05, 0.0, 0.0]
effort: [-3.6208500000000003, -29.397, -24.5872, 0.2666057142857143, -1.9699200000000001, -0.128, 0.0, 0.0]
---
header: 
  seq: 76704
  stamp: 
    secs: 1736992373
    nsecs: 663800605
  frame_id: ''
name: 
  - joint_1
  - joint_2
  - joint_3
  - joint_4
  - joint_5
  - joint_6
  - tcp_lin
  - tcp_rot
position: [0.10000006859053893, 0.09999999395231329, 0.09999985243700775, 0.0999999941829804, 0.09999982268357491, 0.09999995670512676, 0.1, 0.1]
velocity: [1.6258765660611257e-05, -4.802062980383925e-06, -4.832690726909779e-05, -6.554621538515546e-07, -4.173874617068087e-05, -8.480180818925957e-06, 0.0, 0.0]
effort: [-4.345020000000001, -29.875, -24.9936, 0.36658285714285715, -1.99584, -0.08, 0.0, 0.0]
---
header: 
  seq: 76705
  stamp: 
    secs: 1736992373
    nsecs: 683702117
  frame_id: ''
name: 
  - joint_1
  - joint_2
  - joint_3
  - joint_4
  - joint_5
  - joint_6
  - tcp_lin
  - tcp_rot
position: [0.10000000893518908, 0.1000001131979779, 0.1000000386827681, 0.10000008323043924, 0.10000000875486094, 0.09999977842224048, 0.1, 0.1]
velocity: [-4.3081316163954185e-06, 1.9965324829195703e-05, 2.7544193578685537e-05, 3.2677198533595094e-05, 4.126741919423162e-06, -6.660926678728887e-05, 0.0, 0.0]
effort: [-5.431275, -29.397, -25.0952, 0.1999542857142857, -2.09952, -0.14400000000000002, 0.0, 0.0]
---
header: 
  seq: 76706
  stamp: 
    secs: 1736992373
    nsecs: 703702619
  frame_id: ''
name: 
  - joint_1
  - joint_2
  - joint_3
  - joint_4
  - joint_5
  - joint_6
  - tcp_lin
  - tcp_rot
position: [0.10000006854004345, 0.0999999642330953, 0.09999992704318174, 0.0999999642493524, 0.10000012071161261, 0.10000019512388648, 0.1, 0.1]
velocity: [1.0692440299005326e-05, -9.06795522530062e-06, -1.9531128055971226e-05, -3.1247701698871745e-06, 2.675170212392351e-05, 5.950095218966828e-05, 0.0, 0.0]
effort: [-3.9829350000000003, -30.352999999999998, -25.0952, 0.49988571428571427, -1.9440000000000002, -0.112, 0.0, 0.0]
---
header: 
  seq: 76707
  stamp: 
    secs: 1736992373
    nsecs: 723702351
  frame_id: ''
name: 
  - joint_1
  - joint_2
  - joint_3
  - joint_4
  - joint_5
  - joint_6
  - tcp_lin
  - tcp_rot
position: [0.09999994933623478, 0.09999996423778054, 0.09999988972729885, 0.09999993443577199, 0.10000000893447596, 0.10000013563882945, 0.1, 0.1]
velocity: [-1.6947062393480782e-05, -6.3506865727113154e-06, -2.8518287039981177e-05, -9.863810479594398e-06, -4.872400318074849e-06, 4.853776449762277e-05, 0.0, 0.0]
effort: [-3.9829350000000003, -29.875, -25.1968, 0.69984, -1.99584, -0.08, 0.0, 0.0]
---
header: 
  seq: 76708
  stamp: 
    secs: 1736992373
    nsecs: 743704382
  frame_id: ''
name: 
  - joint_1
  - joint_2
  - joint_3
  - joint_4
  - joint_5
  - joint_6
  - tcp_lin
  - tcp_rot
position: [0.0999999269891295, 0.09999999403986826, 0.10000015049410835, 0.10000005363211564, 0.09999982265995373, 0.10000007599176096, 0.1, 0.1]
velocity: [-2.0512530874657927e-05, -1.402168503226798e-06, 3.243279695402103e-05, -7.49653023473799e-07, -4.254162805920771e-05, 1.7733126369780916e-05, 0.0, 0.0]
effort: [-3.9829350000000003, -29.636, -25.4, 0.49988571428571427, -1.9699200000000001, -0.08, 0.0, 0.0]
---
header: 
  seq: 76709
  stamp: 
    secs: 1736992373
    nsecs: 763702480
  frame_id: ''
name: 
  - joint_1
  - joint_2
  - joint_3
  - joint_4
  - joint_5
  - joint_6
  - tcp_lin
  - tcp_rot
position: [0.10000000894277443, 0.10000005302274534, 0.09999985192658391, 0.09999993406993313, 0.10000004473294352, 0.10000007376534653, 0.1, 0.1]
velocity: [2.4952491213532284e-07, 1.558993907163426e-05, -2.8193163717357365e-05, -1.3438477723963696e-05, 1.3039409132165147e-05, 3.3801440746753734e-05, 0.0, 0.0]
effort: [-5.431275, -29.875, -25.4, 0.23328, -1.9440000000000002, -0.096, 0.0, 0.0]
---
header: 
  seq: 76710
  stamp: 
    secs: 1736992373
    nsecs: 783702232
  frame_id: ''
name: 
  - joint_1
  - joint_2
  - joint_3
  - joint_4
  - joint_5
  - joint_6
  - tcp_lin
  - tcp_rot
position: [0.0999999493398891, 0.09999996423673582, 0.0999999642457425, 0.099999934444309, 0.09999993443703008, 0.09999977799989002, 0.1, 0.1]
velocity: [-1.72749459727296e-05, -5.2472207597199195e-06, -1.767875406392857e-05, -1.5342876334005223e-05, -1.3642375695225763e-05, -5.775092219582073e-05, 0.0, 0.0]
effort: [-4.707105, -31.308999999999997, -24.9936, 0.1999542857142857, -1.99584, -0.048, 0.0, 0.0]
---
header: 
  seq: 76711
  stamp: 
    secs: 1736992373
    nsecs: 803712609
  frame_id: ''
name: 
  - joint_1
  - joint_2
  - joint_3
  - joint_4
  - joint_5
  - joint_6
  - tcp_lin
  - tcp_rot
position: [0.0999999642480557, 0.09999996424230717, 0.10000000149001065, 0.10000008345824253, 0.09999971844197522, 0.09999977799583487, 0.1, 0.1]
velocity: [-1.1790765976772027e-05, -1.4308250617411917e-05, -3.6096697172462266e-07, 1.3241657372662985e-05, -6.60884674558818e-05, -4.880915876289602e-05, 0.0, 0.0]
effort: [-5.069190000000001, -29.875, -25.1968, 0.29993142857142857, -2.0736000000000003, -0.128, 0.0, 0.0]
---
header: 
  seq: 76712
  stamp: 
    secs: 1736992373
    nsecs: 823735101
  frame_id: ''
name: 
  - joint_1
  - joint_2
  - joint_3
  - joint_4
  - joint_5
  - joint_6
  - tcp_lin
  - tcp_rot
position: [0.1000000462411916, 0.09999999403894261, 0.10000000148713656, 0.09999996422828455, 0.10000000895480743, 0.10000013566087937, 0.1, 0.1]
velocity: [1.4234325278816197e-05, 8.441432975797112e-07, 4.241997416979686e-06, -1.694050277955513e-05, 1.707300394558075e-05, 3.327941726226518e-05, 0.0, 0.0]
effort: [-4.345020000000001, -30.352999999999998, -24.9936, 0.23328, -1.9180800000000002, -0.16, 0.0, 0.0]
---
header: 
  seq: 76713
  stamp: 
    secs: 1736992373
    nsecs: 843702290
  frame_id: ''
name: 
  - joint_1
  - joint_2
  - joint_3
  - joint_4
  - joint_5
  - joint_6
  - tcp_lin
  - tcp_rot
position: [0.10000002384558129, 0.09999999403949478, 0.09999996423836298, 0.10000008345108488, 0.09999989717158776, 0.10000013561402474, 0.1, 0.1]
velocity: [3.7649694054584213e-06, 6.049511706031055e-07, -1.7227398656841235e-05, 2.069377645083616e-05, -3.0263627731529214e-05, 3.656158024226147e-05, 0.0, 0.0]
effort: [-5.069190000000001, -30.831, -24.790399999999998, 0.3999085714285714, -1.8662400000000001, -0.112, 0.0, 0.0]
---
header: 
  seq: 76714
  stamp: 
    secs: 1736992373
    nsecs: 863702076
  frame_id: ''
name: 
  - joint_1
  - joint_2
  - joint_3
  - joint_4
  - joint_5
  - joint_6
  - tcp_lin
  - tcp_rot
position: [0.10000000894087324, 0.09999996423725281, 0.09999992698446149, 0.10000005364437028, 0.09999974816767628, 0.1000000163912719, 0.1, 0.1]
velocity: [5.798711326632881e-06, -3.7203525729536688e-06, -1.4190629859580709e-05, 1.1992394498855344e-05, -8.217814613580947e-05, 5.159777620865787e-07, 0.0, 0.0]
effort: [-3.6208500000000003, -29.875, -25.298399999999997, 0.2666057142857143, -1.99584, -0.096, 0.0, 0.0]
---
header: 
  seq: 76715
  stamp: 
    secs: 1736992373
    nsecs: 883702034
  frame_id: ''
name: 
  - joint_1
  - joint_2
  - joint_3
  - joint_4
  - joint_5
  - joint_6
  - tcp_lin
  - tcp_rot
position: [0.09999992702105324, 0.10000008345397196, 0.1000000014706134, 0.10000008336490633, 0.10000023243332078, 0.09999989731010027, 0.1, 0.1]
velocity: [-2.295786645286125e-05, 1.5013546350448847e-05, -1.975299167055004e-06, 1.4750661312737975e-05, 6.18632454453304e-05, -4.040310820749144e-05, 0.0, 0.0]
effort: [-3.9829350000000003, -29.397, -24.790399999999998, 0.4332342857142857, -1.9180800000000002, -0.096, 0.0, 0.0]
---
header: 
  seq: 76716
  stamp: 
    secs: 1736992373
    nsecs: 903702647
  frame_id: ''
name: 
  - joint_1
  - joint_2
  - joint_3
  - joint_4
  - joint_5
  - joint_6
  - tcp_lin
  - tcp_rot
position: [0.10000002377362964, 0.09999996422919294, 0.10000000158895073, 0.10000008334350331, 0.10000008335246868, 0.09999989704574219, 0.1, 0.1]
velocity: [5.399104277737023e-06, -8.000332906678639e-06, -1.1378065933087649e-05, 1.4991429885090259e-05, 1.6654407785709022e-05, -1.8444518362858295e-05, 0.0, 0.0]
effort: [-4.707105, -30.592, -24.892, 0.23328, -1.9180800000000002, -0.128, 0.0, 0.0]
---
header: 
  seq: 76717
  stamp: 
    secs: 1736992373
    nsecs: 922728204
  frame_id: ''
name: 
  - joint_1
  - joint_2
  - joint_3
  - joint_4
  - joint_5
  - joint_6
  - tcp_lin
  - tcp_rot
